station_id,station_name,latitude,longitude,1994_season1,1994_season2,1994_season3,1994_season4,1995_season1,1995_season2,1995_season3,1995_season4,1996_season1,1996_season2,1996_season3,1996_season4,1997_season1,1997_season2,1997_season3,1997_season4,1998_season1,1998_season2,1998_season3,1998_season4,1999_season1,1999_season2,1999_season3,1999_season4,2000_season1,2000_season2,2000_season3,2000_season4,2001_season1,2001_season2,2001_season3,2001_season4,2002_season1,2002_season2,2002_season3,2002_season4,2003_season1,2003_season2,2003_season3,2003_season4,2004_season1,2004_season2,2004_season3,2004_season4,2005_season1,2005_season2,2005_season3,2005_season4,2006_season1,2006_season2,2006_season3,2006_season4,2007_season1,2007_season2,2007_season3,2007_season4,2008_season1,2008_season2,2008_season3,2008_season4,2009_season1,2009_season2,2009_season3,2009_season4,2010_season1,2010_season2,2010_season3,2010_season4,2011_season1,2011_season2,2011_season3,2011_season4,2012_season1,2012_season2,2012_season3,2012_season4,2013_season1,2013_season2,2013_season3,2013_season4,2014_season1,2014_season2,2014_season3,2014_season4,2015_season1,2015_season2,2015_season3,2015_season4,2016_season1,2016_season2,2016_season3,2016_season4,2017_season1,2017_season2,2017_season3,2017_season4,2018_season1,2018_season2,2018_season3,2018_season4,2019_season1,2019_season2,2019_season3,2019_season4,2020_season1,2020_season2,2020_season3,2020_season4,2021_season1,2021_season2,2021_season3,2021_season4,2022_season1,2022_season2,2022_season3,2022_season4,2023_season1,2023_season2,2023_season3,2023_season4
125850074500001,Adyar,12.98055556,74.83333333,,,,,,,,,5.87,6.56,3.17,4.2,4.6,6.92,1.9,3.3,4.85,5.4,1.6,3.32,4.34,1.21,2.65,3.68,4.54,4.93,3.01,4.09,4.41,3.17,3.2,3.9,4.25,3.9,2.35,3.17,3.2,4.89,2.52,3.75,4.29,2.74,2.7,3.41,4.32,5.05,3.78,3.4,4.29,2.44,1.2,2.44,1.81,3.8,2.12,3.2,3.85,3.74,3.65,3.86,4.15,3.52,2.7,4.5,1.15,4.56,3.9,4.25,4.52,,4.1,3.3,4.3,3.9,,3.6,4.7,2.8,0.6,1.6,1.83,2.12,3.59,3.3,2,4.3,3.3,3.7,,4.4,3,3.68,4.45,4.2,0.4,2,3.95,1.2,0.66,3.5,3.08,4.8,2.45,2.3,4.5,,,3.85,3.4,,1.75,3.2,,1.95,0.35,1.4,2.85,5.09,1.55,
130230075130001,Alandangadi,13.04166667,75.21666667,,,,,,,,,6.57,8.52,1.46,5.15,6.46,8.58,1.1,3.94,4.46,6.85,1.53,3.65,5.04,6.02,1.95,4.04,5.39,7.45,0.76,4.24,4.84,7.75,2.6,4.1,5.43,7.63,0.3,3.17,5.3,4.21,1.08,4.52,5.69,6.48,1.5,4.47,5.62,8.05,1.07,3.96,5.1,5.9,1.92,6.85,6.5,7.68,2.15,10.38,11.85,6.35,2.34,4.44,5.54,7.47,2.7,3.92,4.55,6.88,4.35,3.7,4.93,6.7,0.65,2.76,5.26,7,,4,5.6,7.8,0.4,3.1,5.15,8.19,1.47,3.5,4.9,6.5,3.26,4.4,,7.38,3.5,4.57,5.3,7.7,4.9,5.3,5.2,7.3,1,4.85,10.65,8.7,0.7,1.87,6.5,,,5.48,4.62,,2,3.3,,7.4,0.34,4.85,6.5,5.95,4.27,
123115075283001,Aranthodu,12.52083333,75.475,,,,,,,,,14.91,16.26,14.25,11.77,13.95,15.4,8.48,10.1,10.68,12.9,9.3,9.75,10.93,12.05,9.8,10.65,11.34,13.58,9.52,13.05,12.08,14.5,,10.74,11.43,14.67,8.62,11,13.34,,8.02,11.1,13.34,,9,11.41,12.97,,8.55,10.25,11,12.8,9.4,7.4,11.45,13.6,9.46,10.38,11.4,14.35,10.35,10.8,13.15,19.2,9.05,11.16,13.25,19.2,8.9,9.55,,15.2,9.25,9.8,10.6,15.2,,10.21,10.95,,8.5,10.7,11.85,13.3,8.9,10.3,11.65,9.7,8.1,9.1,,14,5.95,10.54,13,19.2,5,10.3,19.2,12,,14,,10.1,8,8.18,12,,,10.91,9.2,,9,10.2,10.75,12.26,12.26,10.55,12.45,14.32,4.27,
124030075320001,Balpa,12.675,75.53333333,,,,,,,,,10.32,12.46,5.25,8.1,9.93,12.07,3.65,8.02,8.74,10.4,4.63,6.65,8.6,11.53,5.85,7.51,10.25,11.6,5.05,7.15,7.45,12,3,7.68,9.57,10.96,4.25,7.6,9.55,11.73,3.67,7.67,9.06,10.16,4.7,7.45,9.97,12.05,4.4,8,4.57,10.37,4.5,8.7,8.93,11.08,4.91,6.67,8.7,10.74,6.53,7.5,9.65,11.01,4.3,7.26,9.8,11.38,4.83,6,8.67,9.84,4.85,6.28,8.86,10.67,,7.77,9.6,,4.97,6.2,8.3,8.52,6.11,6.9,9.03,4.75,7.47,8.35,,10.5,4.85,7.95,9,10.6,4.12,8,8.75,9.1,5.6,7.3,9.35,11.2,,,9.35,,,8.85,9.65,,,6.22,8.28,6.85,4.89,9.02,6.5,,7.6,
125300075020001,Bantwal1,12.88333333,75.03333333,,,,,,,,,4.89,7.84,3.32,4.8,4.9,7.17,1.99,3.58,3.3,5.72,2.15,3.5,4.95,0.44,2.9,4.73,4.02,4.53,3.06,5.11,4.55,4.81,0.9,4.83,4.57,5.47,1.66,3.54,4.6,4.97,1.83,4.76,3.7,2.86,2.9,4.01,4.46,5.5,2.71,4.78,8.1,5,2.85,2.85,4.68,5.48,2.57,4.34,5.25,5.72,3.35,4.97,5.46,5.38,1.5,4.75,5.25,5.25,1.9,3.85,5.25,5.18,1.35,3.38,5.2,7.05,,4.35,5.2,5.56,2.15,2.3,5.4,5.52,2.91,1.3,5.45,4.93,3.46,6.52,,5.3,1.8,4.95,5.2,5.32,0.75,4.9,5.05,4.6,1.6,4.3,10,5.5,1.6,2.14,4.5,,,4.2,4.1,,2.3,3.65,3.9,3.5,0.6,4.02,4.5,5.39,3.45,
124000075234001,Bellare,12.66666667,75.39444444,,,,,,,,,8.42,10.36,4.96,7.31,8.08,10.25,4.45,5.57,6.18,7.55,6.95,9.25,8.38,6.27,7.25,9.65,7.63,10.23,6.95,5.42,5.72,,6.5,9.45,10.16,9.35,3.95,5.55,7.9,10.3,4.7,4.84,5.72,15.6,6.5,5.08,5.88,8.87,2.41,4.29,5.26,,5.6,9.4,8.18,7.43,6.48,9.74,12.4,6.91,3.15,11.05,13,7.93,6.6,10.14,12.2,15.35,6.9,2.5,11.61,6.76,6.55,6.86,11.53,15.2,,9.62,11.5,14.78,5.8,9.45,11.8,13.95,6.57,9.8,12.05,14.5,9.43,10.7,,8.6,2.3,11.02,12.5,14.2,5.7,11.3,13.2,15.7,6.52,5.4,13.65,10,2.2,2.75,7.52,,,10.97,5.88,,2.65,7,11.3,14.85,7.78,11.1,13.3,9.34,9.8,
130000075170001,Belthangadi1,13,75.28333333,,,,,,,,,7.96,9.66,2.58,4.93,6.76,9.44,2.29,3.64,5.23,7.8,2.75,4.05,6.9,5.85,1.45,3.94,6.25,6.92,2.82,5.58,7.15,7.83,1.72,4.66,6.2,7.48,1.4,3.55,6.1,8.3,2.07,5.16,6.73,6.14,2.8,5.56,7.1,7.8,1.48,4.74,6.56,6.36,2.7,3.6,5.63,8.35,3.05,4.43,6.7,7.58,4.01,4.55,5.82,7.95,2.55,5.22,6.2,7.13,2.65,3.35,6.58,7.15,2.7,3.55,6.74,7.4,,5.1,6.9,8.6,0.95,3.5,5.42,6.45,3.31,4.4,6.82,6.6,4.17,5.14,,7.15,2.85,5.67,6.95,8.53,2.28,5.45,6.9,7.15,2.9,6.1,6.35,11,2.8,3.05,7.72,,,5.49,6.28,,2.68,3.75,6.55,6.76,2.75,5.2,7.75,8.1,5.35,
130230074474501,Haleangady,13.04166667,74.79583333,,,,,,,,,6.88,9.16,3.17,4.66,6.07,8.93,2.55,3.53,4.42,7.65,2.1,3.1,4.76,5,2.4,3.71,,7.23,2.51,4.3,5.64,7.1,2.41,3.8,4.99,6.62,2.23,3.5,4.95,7.46,2.9,4.35,5.51,6.1,2.65,4.41,5.46,7.65,2.72,4,4.8,6.53,,3.6,4.69,6.51,2.17,3.96,5,6.1,2.89,4.32,5.45,6.9,2.35,4.35,4.65,6.57,2.1,3.3,4.48,6.42,1.75,3.4,4.77,6.65,,4.15,6.05,7.18,2.35,,5.05,6.6,2.65,4.65,4.95,6.23,3.55,3.75,,6.55,2.79,6.02,5.25,6.31,1.9,4.15,4.85,6.4,2.7,4.65,5.25,8.2,1.3,3.35,5.9,,,4.21,4.7,,2.6,3.5,4.37,6.42,1.78,4.43,6.2,8,4.35,
123530075204501,Jalsur,12.59166667,75.34583333,,,,,,,,,8.03,9.86,4.72,7.41,7.95,9.94,3,6.09,6.28,6.95,4.42,5.56,7,7.41,4.6,6,7.17,8.56,3.17,6.94,7.11,9.15,3.25,6.95,7.13,7.03,3.05,5.98,7.1,8.43,2.54,6.97,7.27,5.43,4.55,7.04,7.26,10.1,2.48,6.65,6.89,5.78,4.25,7.42,7.28,9.93,4.6,6.28,7.65,9.05,4.71,6.9,7.35,9.85,3.75,6.91,6.9,7.73,4.03,5.65,7.13,8.55,3.47,6.3,7.11,10.15,,6.55,8.1,10.1,2.75,3.65,7.2,7.15,2.65,5.05,7.2,5.35,5.45,6.3,,10.13,3.1,6.66,7.25,2.41,1.25,6.65,7.22,10.25,3.56,6.95,7.25,,2.3,4.06,8,,,6.17,7.1,,3.35,5.05,6.95,6.34,4.85,6.9,8.25,11.1,6.25,
124430075280001,Kadaba,12.74166667,75.46666667,,,,,,,,,6.93,9.96,2.56,4.18,6.21,8.57,1.4,3.75,4.27,7.35,1.74,3.4,4.95,7.09,2.21,3.61,5.83,8.21,1.41,4.34,6.47,8.76,0.96,4.02,5.56,7.38,0.99,2.98,5.94,8.62,0.99,4.32,7.16,7.69,1.66,4.3,6.2,8.67,1.28,3.58,5.26,7.56,1.84,4.46,7.26,8.41,2.56,3.78,5.66,6.52,2.56,4.23,6.12,8.03,2.21,4.21,5.51,2.18,1.46,2.81,4.81,5.87,1.31,3.19,4.28,7.66,,4.16,6,8.21,0.91,2.76,5.21,6.84,1.53,3.06,5.06,3.66,2.73,3.53,,7.76,2.76,4.06,5.46,4.06,0.49,4.26,5.46,7.41,0.9,4.46,5.66,9.4,0.81,2.48,,,,3.81,4.86,,0.81,1.46,4.66,5.58,1.14,,6.5,8.82,3.95,
125030075040001,Kalladka,12.84166667,75.06666667,,,,,,,,,9.16,,3.3,5.03,7.75,,2.68,3.58,5.95,,2.1,3.25,5.89,,2.05,4.05,8.26,,2.37,4.26,7.43,,1.15,4.05,4.49,10.81,1.95,3,6.05,,2.11,4.02,7.35,10.99,2.4,4.05,7.13,5.5,2.16,4.79,6.51,19.15,2.15,3.15,6.17,19.15,4.15,3.39,5.95,10.04,2.24,4.07,6.63,19.15,2,4.6,5.5,19.15,2.15,3.25,4.73,5.4,1.7,3.09,5.87,19.15,,3.59,7.4,20,1.82,2.65,5.45,10.35,1.72,2.87,5.55,10.35,5.4,5.28,,10.02,2.15,4.61,5.65,10.35,1.65,4.55,7.65,10.25,1.95,5.02,9.15,,1.35,4.07,10.35,,,4.27,4.44,,2.27,3.35,4.95,,1.43,4.56,10.75,6.69,4.03,
124300075064001,Kudupadaru,12.71666667,75.11111111,,,,,,,,,8.89,13.66,7.95,9.1,9.68,13.37,,6.63,7.01,11,6.62,7.3,8.85,8.11,6.91,7.95,8.41,10.68,6.79,5.95,6.58,8.78,2.73,7.87,8.31,10.42,4.48,7.4,8.33,11.52,5.58,7.93,8.61,6.15,6.93,7.96,8.65,11.33,5.78,7.91,8.21,,6.63,7.13,8.51,11.31,6.48,7.48,8.43,9.23,7.24,7.85,8.53,11.75,8.88,7.85,5.18,10.57,6.13,7.63,8.09,10.03,3.96,7.19,8.39,11.53,,7.68,9.7,11.6,5.77,7.63,8.33,9.45,6.98,6.83,8.33,10.83,7.41,7.98,,11.83,5.63,7.99,8.83,12.09,2.55,7.98,8.58,10.8,6.9,10.63,,12.1,5.33,7.13,9.8,,,7.91,8.18,,4.03,7.53,8.13,8.25,3.49,7.98,9.76,11.35,8.9,
124800075083001,Mittur,12.8,75.14166667,,,,,,,,,6.15,6.86,2.34,6,6.23,6.96,2.04,4.13,4.22,4.75,1.3,3.3,5.03,5.02,1.57,5.02,5.1,4.78,1.39,5.09,5.08,8.7,1.1,7.94,8.34,5.7,1.05,3.2,5.25,6.7,1,5.06,5.25,2.9,1.3,5.12,5.42,5.45,1.14,5.02,4.78,4.45,5.2,4.3,,6.29,4.65,7.15,5.25,5.34,4.53,5,5.2,5.58,1,7.92,5.15,8.81,1.1,6.5,8.25,5.15,0.85,2.49,4.9,5,,4.83,5.8,5.25,0.8,1.6,4.95,5.09,1.42,6.65,4.81,3.7,2.58,4.87,,5.89,0.8,5.89,6.2,8.4,6.55,7.75,5.4,5.5,0.8,4.95,5.34,6.8,0.7,1.34,4.27,,,6.3,3.05,,1.1,2.2,,4.72,0.84,,6.05,6.1,4.7,
124830075230001,Nelliadka,12.80833333,75.38333333,,,,,,,,,7.29,7.43,4.51,6.65,7.15,8.31,2.38,5.12,5.29,7.1,2.72,3.92,5.25,6.73,4.03,5.61,6.22,6.4,3.53,6.05,6.12,7.17,3.49,5.92,6.32,6.62,3.25,5.79,8.02,7.22,1.77,6.27,6.34,5.63,4.47,6.11,6.49,7.47,4.2,6.01,6.14,5.52,4.67,6.17,6.23,6.8,4.84,5.71,6.57,6.26,4.93,5.87,6.34,6.33,1.07,5.92,6.32,6.5,3.87,5.32,6.62,6.17,4.12,3.97,6.25,6.17,,5.92,7.25,6.12,4.37,5.37,6.58,6.4,4.33,5.27,6.67,5.52,5.47,6.02,,6.77,3.97,6.04,5.77,6.2,1.89,5.97,6.27,6.17,1.73,6.29,5.27,7.4,2.57,3.04,6.45,,,6.07,5.9,,4.07,3.27,6.09,,,,,,,
125010075242001,Nellyadi,12.83611111,75.40555556,,,,,,,,,13.96,,1.38,1.59,3.43,5.5,1.16,,0.53,,,,,,,,,,,,,,,,,,,,,,,,,,6.65,,,3.8,,1.53,3.33,0.8,,1.67,3.17,5.05,0.83,1,3.15,4.82,0.75,1.45,3.95,3.92,4.25,1.4,3.05,4.23,0.65,1,2.7,5.4,0.65,0.75,3.42,4.55,,1.63,5.4,6.11,0.65,1.02,3.45,4.65,0.94,0.85,3.35,2.85,0.98,1.65,,5.32,1.75,1.99,4.45,5.23,3.91,,4.1,4.05,0.55,2.35,4.6,6.6,0.45,1,5.5,,,1.41,2.85,,,0.55,2.25,2.99,0.53,1.89,5.04,5.65,2.08,
124600075120001,Puttur1,12.76666667,75.2,,,,,,,,,11.63,,6.97,10.25,11.19,,,8.81,9.36,11.4,6.84,8.25,10.1,11.89,6.83,9.78,10.59,12.31,5.99,9.81,10.17,13.03,5.23,9.93,10.18,,4.81,8.33,10.43,,4.93,10.08,10.61,12.86,6.73,9.93,10.75,,5.52,9.73,10.43,12.44,7.23,9.03,10.35,13.21,5.73,8.66,9.83,12.98,6.78,9.53,10.83,13.45,5.88,9.65,9.88,12.6,6.48,8.68,9.45,12.33,5.73,8.63,10.39,13.63,,9.66,11.6,13.73,4.58,10.33,10.75,13.08,7.54,9.33,10.43,10.53,7.18,9.78,,13.73,6.33,11.08,13.73,13.73,3.73,11.03,13.73,13.73,6.24,12.03,,,2.38,7.82,13.35,,,8.83,12.08,,5.78,7.93,10.73,11.93,2.13,11.23,,11.5,10.55,
124000075371001,Subramanya1,12.66666667,75.61944444,,,,,,,,,6.08,6.86,1.98,6.59,6.04,6.65,1.56,1.33,5.26,5.4,0.95,4.5,5.12,5.86,3.41,6,5.72,6.51,2.53,4.37,5.3,5.43,1.33,4.16,5.3,5.5,0.81,3.84,5.18,6.53,1.06,5.38,5.38,3.43,1.63,5.1,5.37,5.3,2.11,3.3,5.01,1.91,2.23,4.35,4.97,5.32,2.85,4.02,6.53,5.39,2.61,4.73,5.35,5.09,2.53,4.98,4.33,5.25,2.18,2.92,5.15,4.69,3.78,4.02,5.56,5.73,,6.23,7.2,6.58,1.73,3.8,5.53,6.38,3.14,4.13,6.23,5.53,4.09,5.68,,7.13,2.33,5.77,5.93,5.98,1.43,6.13,5.58,5.58,2.76,6.63,6.55,8.1,2.45,3.16,7.4,,,6.13,7.28,,2.63,3.95,6.3,4.9,2.93,4.83,7.47,7.27,5.6,
125940074480001,Surathkal,12.99444444,74.8,,,,,,,,,10.1,12.12,7.92,9.83,10.21,10.98,6.92,8.38,8.52,10.95,7.05,8.45,9.25,9.44,7.95,9,9.21,9.41,7.88,9.25,9.82,9.06,5.5,8.95,9.04,8.98,7.3,8.8,9.08,9.56,8.15,9.06,9.24,8.9,7.7,9.17,9.23,9.5,7.86,8.96,9,5.64,8.1,9.4,8.93,9.15,5.37,7.18,9.05,9.12,8.25,9,9.06,8.83,7.05,,,9.06,6.85,,8.98,9.04,6.1,8.24,9.22,8.8,,8.57,9,8.73,7.25,8.5,8.7,8.83,7.62,7.9,10.75,8.58,8.12,8.4,,8.2,7.9,8.47,8.7,6.36,6.3,8.35,8.65,,7.15,8.9,9.45,12.5,3.8,,,,,8.75,9.3,,7.8,8.6,8.88,9.11,6.09,8.98,12.2,9.6,10.15,
124545074523001,Talapady,12.7625,74.875,,,,,,,,,5.27,6.04,3.79,4.3,5.18,9,3.69,2.7,3.3,7.45,2.3,3.08,3.93,2.83,3.2,3.43,4,5.35,3.17,3.52,4.4,3.97,1.3,1.54,2.16,3.18,2.9,3.25,4.1,6.83,2.75,3.48,4.61,2.73,3.2,3.26,4.12,6.48,3.13,6.41,3.25,2.06,2.6,,,5.41,3.18,7.12,3.9,3.72,3.08,6.77,8.67,3.82,2.5,3.48,8.2,7.68,1.85,6.7,3.58,5.02,2.4,2.87,3.8,10.4,,3.04,4.6,9.96,4,5.55,7.35,6.43,5.2,4.15,6.35,6.33,2.95,2.89,,8.8,3.5,2.58,2.58,6.75,1.61,5.28,2.8,6.95,3.15,5.25,6.7,7.4,1.7,3.2,8.85,,,4.83,7.34,,3.3,4.3,7.45,10.21,1.25,7.1,8.55,5.9,4.85,
130040075084001,Venur,13.01111111,75.14444444,,,,,,,,,9.47,11.56,4.08,8.14,9.52,11.28,2.66,6.45,7.25,9.52,3.95,6.4,8.1,8.6,4.85,6.08,8.37,8.76,3.83,5.53,8.29,9.33,2.88,,7.98,9.03,2.79,4.78,8.08,9.48,2.38,7.45,8.52,7.93,4.68,7.77,8.25,9.08,4.3,7.05,5.68,8.68,5.24,5,7.79,9.34,4.83,6,7.68,8.84,5.53,7.78,8.6,9.43,3.98,7.11,7.83,9.05,3.03,5.93,7.91,9.05,3.23,5.28,7.98,8.23,,7.48,8.95,9.48,3.76,6.68,7.98,9.18,4.74,6.88,7.68,8.33,6.63,6.23,,9.21,5.68,7.7,8.38,12.7,2.56,7.46,8.23,9.33,3.51,3.73,,10.2,2.88,6.18,9.18,,,10.66,8,,3.93,7.03,7.98,,2.81,7.58,9.5,10.7,7.55,
123400075240001,Sullia,12.56666667,75.4,,,,,,,,,,7.46,2.94,3.95,5.43,6.1,2.17,3.86,6.97,3.85,2.35,2.68,4.52,4.98,3.35,4.87,6.74,5.68,2.85,,,,2.8,4.47,5.75,6.75,2.42,3.98,6.5,5.78,2.2,4.47,7.75,3.55,2.6,4.52,5.58,5.35,1.1,3.6,3.9,2.58,2.08,7.2,8.18,5.58,1.77,2.65,5.9,7.57,3.08,8.9,9.42,5.09,3.05,5.87,4.3,7.15,2.95,3,5.52,4.9,4.1,5.2,6.9,9.8,,5.03,5.9,,5.07,,8.42,8,3.91,7.5,7.85,7.22,3.9,4.65,,6.95,,4.1,4.9,7.8,3.83,8.5,,8.85,4.92,6.95,5.03,8.9,,,,,,5.6,4.99,,2.4,3,5.45,3.41,3.41,3.7,5.9,9.5,4.5,
125400075023001,Bantwal,12.9,75.04166667,,,,,,,,,,,,,,,,,,,,,,8.3,,11.45,,12.92,,12.41,12.77,15.55,,14.37,,17.08,11.39,12.6,16,,,,15.38,11.63,10.35,12.6,13.78,14.45,10.12,12.67,16.65,15.2,11.53,10.92,16.4,17.94,5.9,12.28,14.5,14.67,11.92,12.2,15.3,16.17,11.05,13.56,14.3,15.86,11.57,12.9,16.05,14.99,11.8,14.18,13.86,16.42,,12.85,15.55,16.12,13.35,12.8,16.25,16.8,13.8,13.9,15.85,17.3,13.8,,,,9.6,16.74,,,15.95,13,12.05,15.4,11.2,17.15,13.63,15.7,9.31,,16.3,,,12.5,11.49,,10.21,11.1,,13.28,9.73,13.7,16.27,16.95,12.2,
124530075114501,Puttur,12.75833333,75.19583333,,,,,,,,,,,,,,,,,,,,,,14.6,,10.5,,12.38,,15.34,16.48,18.45,7.3,15.21,,19.55,11.98,14.1,,,,,16.06,18.35,12.05,15.01,16.21,18.68,11.04,15.18,15.5,18.66,12.15,14.06,15.89,18.13,11.38,13.95,15.58,17.98,11.97,15,16.47,,12.3,14.65,15.6,17.93,13.72,14.34,15.49,17.73,11.8,16.7,16.42,18.4,,14.92,16.2,19.42,10.16,14.75,16.2,18.25,11.2,15.95,18.4,19.97,14.9,,,,13.1,15.55,17,,15.44,17.51,16.61,19.93,11.5,15.61,17,20.75,8.97,14.28,16.7,,,15.04,15.89,,13.1,14.25,15.63,18.22,13.22,15.92,17.83,20.2,14.97,
124600075063001,Vittal,12.76666667,75.10833333,,,,,,,,,,,,,,,,,,,,,,9.3,,9.43,,13.46,,10.51,11.02,20.35,4.8,11.73,,15.91,8.7,,12.95,,,,8.82,16.44,7.2,10.28,11.55,14.45,6.18,10.88,6,17.59,7.41,10.95,12.07,16,8.67,9.85,11.9,12.64,6.39,10.08,11.22,,7.8,11.76,12.15,12.05,8.35,9.88,11.6,12.9,9.35,11.42,12.66,,,15.4,20.7,23.13,9.68,19.8,22.4,24.8,4.1,15.65,16.3,18.1,11.58,,,,8.7,14.05,17.1,,9.25,15.85,18,23.98,7.85,21.35,19.7,25,7.2,,18.75,,,13.14,14.71,,11.85,13.72,18.7,26.3,13.49,18.91,23.3,28.64,,
124000075364501,Subramanya,12.66666667,75.6125,,,,,,,,,,,,,,,,,,,,,,,0.2,5.33,,6.58,,5,6.82,8.11,4.9,5.03,,7.33,1.68,5.13,,,,,6.88,7.02,2.74,4.39,7.08,8.7,1.68,4.28,6.38,7.76,3.7,4.2,6.62,7.66,2.72,5.12,6.77,7.98,4.2,5.72,7.23,,2.15,5.69,6.1,9.2,1.85,4.33,6.56,7.27,2.9,,,,,,,,,,,,,,8.13,4.3,4.3,,,,,,7.2,,1.6,6.18,7.14,,,,,,,,,,,5.91,,,,4.07,6.38,6.9,2.8,5.95,7.86,,5.74,
125930075173001,Belthangadi,12.99166667,75.29166667,,,,,,,,,,,,,,,,,,,,,,,,4.04,,6.53,,4.59,5.05,7.87,,4.05,,7.48,2.38,5.43,6.2,5.41,4.32,6.43,6.35,5.44,3.12,4.61,6.4,6.52,3.02,4.21,5.35,8.26,3.41,2.72,5.93,7.79,3.11,3.82,5.8,6.66,3.49,4.41,6.45,7.34,2.2,4.25,5.3,6.45,,,5.52,7.9,2.55,3.22,5.78,8.7,,4.27,6.4,6.68,0.3,4.8,5.85,5.5,3,3.9,5.2,6.4,3.9,,,,2.32,4.7,6.3,,5.44,,6.15,7.45,2.7,5,6.55,10.2,2.71,3.83,6.53,,,4.06,5.33,,3.62,2.75,5.46,6.86,2.36,4.37,6.84,7.6,4.25,
125030075320001,Shiradi,12.84166667,75.53333333,,,,,,,,,,,,,,,,,,,,,,,,5.98,,,,,,9.08,2.31,6.33,,7.86,2.21,,,,,,7.08,6.29,5.3,6.62,8.8,,5.96,,,6.74,,5.54,6.87,7.56,,,6.9,,,,7,,4.5,6.75,6.8,7.65,3.7,5.52,6.9,7.39,3.63,3,6.74,7.9,,9.54,7.04,,3.8,4.2,7,7.45,5.3,6.2,7.1,6.6,6.4,,,,5,6.74,7.2,,1.4,6.84,7.15,8.05,,6.2,6.7,8.6,2.24,3.3,10.2,,,6.65,7.72,,2.98,3.3,6.72,7.04,3.82,6.7,6.9,8.69,,
124110075155001,Chowdichar-A,12.68611111,75.26388889,,,,,,,,,,,,,,,,,,,,,,,,,,,,,,,,,,,,,,,,,,,,,7.58,9.55,4.36,6.95,7.05,4.61,6.25,7.35,7.34,9.33,6.3,6.73,7.75,9.77,7.35,7.97,8.5,10.33,4.65,7.55,8.15,10.07,6.5,7.35,8.1,8.64,6.4,7.57,8.1,10.3,,7.9,8.45,10.16,4.8,7.15,8.51,7.2,6.41,7.5,8.45,7.5,7.67,7.9,,10.25,4.9,7.92,8.5,10.15,2.63,8.01,8.45,10.07,5.57,8.2,8.45,10.2,4.87,5.3,8.25,,,8,8.2,,3.55,6.4,8,8.14,7.02,7.91,8.45,13.26,7.06,
124105075184501,Madavu,12.68472222,75.3125,,,,,,,,,,,,,,,,,,,,,,,,,,,,,,,,,,,,,,,,,,,,,9.09,11.5,4.96,8.19,8.33,7.63,8.63,8.43,8.44,10.48,6.39,8.05,8.93,10.04,6.91,8.43,9.03,10.71,8.63,6.31,8.53,8.58,6.18,7.18,7.52,9.43,6.28,7.73,8.68,10.28,,8.37,9.9,6.98,5.13,5.13,8.88,9.26,5.88,8.13,7.66,7.68,7.95,8.63,,11.15,5.03,7.44,9.13,11.13,4.08,8.53,8.98,10.73,5.66,7.83,4.03,12.2,3.98,6.15,9.7,,,8.69,8.83,,4.71,6.63,8.63,8.08,6.07,8.43,10.15,10.65,8.52,
125500075071502,Mani,12.91666667,75.12083333,,,,,,,,,,,,,,,,,,,,,,,,,,,,,,,,,,,,,,,,,,,,,9.69,10.03,6.2,8.8,9.08,9.61,3.73,4.48,5.84,10.43,5.83,7.83,5.58,10.03,6.42,5.38,5.85,9.88,6.38,5.1,5.73,6.66,6.78,5.01,5.7,10.03,6.08,8.01,9.73,6.48,,8.54,11.2,9.61,3.25,4.78,5.76,6.23,2.12,4.73,5.58,5.58,7.72,8.53,,10.18,6.18,8.98,10.18,6.8,5.58,8.9,9.35,6.33,2.04,8.08,9.3,8.5,5.44,8.28,10.65,,,8.58,9.23,,5.83,8.28,9.2,9.21,5.86,8.69,10.57,9.3,,
125700075094501,Punjalkatte,12.95,75.1625,,,,,,,,,,,,,,,,,,,,,,,,,,,,,,,,,,,,,,,,,,,,,10.34,,5.27,8.93,9.3,12.4,5.9,8.15,9.58,12.39,6,8.13,9.4,10.48,6.01,9.2,10.28,11.69,5.8,8.45,5.75,12.43,8.45,8.16,5.91,12.8,4.6,7.5,9.6,13.6,,8.98,10.8,11.25,5.33,8.1,8.7,14.05,5.15,8,8.5,13.16,7.45,9.6,,13.5,5.6,9.12,10.4,14.4,5.3,8.85,10,13.8,4.8,10.8,11.2,,4.84,7.6,10.7,,,8.89,9.6,,5.7,8.6,9.45,13.7,4.6,8.4,12.15,14.1,,
123955075323201,Sampaje,12.66527778,75.54222222,,,,,,,,,,,,,,,,,,,,,,,,,,,,,,,,,,,,,,,,,,,,,4.92,4.87,4.21,4.64,4.71,,4.15,4.4,,4.92,5.02,5.59,4.95,4.77,5.95,5.95,6.65,6.59,2.93,6.17,4.7,6.47,4.15,4.48,,4.76,4.25,4.15,4.72,6.8,,4.66,5.5,,4.5,4.8,6.66,6.43,4.2,6,6.4,6.1,4.38,5.6,,4.59,2.8,4.6,4.8,6,2.6,4.6,4.7,6.9,,4.6,4.65,4.5,4.15,3.25,7.7,,,4.8,4.85,,4.25,4.05,4.95,4.72,4.72,4.8,5.85,5.6,7.05,
123312075230201,Sulya,12.55333333,75.38388889,,,,,,,,,,,,,,,,,,,,,,,,,,,,,,,,,,,,,,,,,,,,,,,,,,,,11.1,12.52,13.59,9.04,11.57,12.48,13.49,9.95,11.98,12.7,,10,12.1,12.4,13.67,9.45,10.42,12.21,13.08,,,,,,11.82,12.5,12.2,8.7,11.1,12.53,12.7,8.75,12.24,12.78,10.9,11.17,11.79,,14.12,9.09,12.15,14.75,12.84,9.45,12.14,12.6,12.58,9.28,12.21,13,14.82,13.91,16.6,14.4,,,11.7,12.21,,9.3,10.5,12.2,12.62,12.62,11.83,13.25,13.74,,
130507074473501,Mulki,13.08527778,74.79305556,,,,,,,,,,,,,,,,,,,,,,,,,,,,,,,,,,,,,,,,,,,,,,,,,,,,,7.61,12.42,5.58,8.81,11.83,11.44,7.81,10.83,10.23,11.96,4.83,8.39,9.53,13.91,4.03,11.18,11.88,13.05,3.63,,9.16,12.23,,11.17,13.27,12.76,5.18,7.73,9.73,12.73,5.53,8.05,11.33,14.28,7.33,,,12.81,6.15,9.27,10.73,11.79,5.03,8.23,13.13,12.73,6.53,8.38,7.38,15.6,3.98,8.78,15.1,,,9.01,9.38,,5.38,7.18,9.83,11.33,3.53,9.13,11.15,1.7,8.6,
125853074492801,Bala,12.98138889,74.82444444,,,,,,,,,,,,,,,,,,,,,,,,,,,,,,,,,,,,,,,,,,,,,,,,,,,,,,,,,,,,,,,,,,,,,,,,,,,,7.99,8.75,,7.55,8.51,9.85,11.32,7.55,3.65,9.45,11.05,7.08,6.15,8.48,9.95,6.35,7.97,,4.71,3.2,11.1,8.97,8.22,7.1,8.1,8.79,11.2,4.58,5.75,6,,,8.37,9.35,,6.9,6.55,7.55,10.55,5.1,4.5,8.25,11.84,7.26,
124255075334501,Bilinele,12.71527778,75.5625,,,,,,,,,,,,,,,,,,,,,,,,,,,,,,,,,,,,,,,,,,,,,,,,,,,,,,,,,,,,,,,,,,,,,,,,,,,,5.04,5.3,,1.38,1.63,5.3,6.25,1.93,2.6,5.52,4.76,2,4.35,5.3,6.9,1.6,5.09,5.6,6.8,1.32,5.2,5.93,5.7,1.59,5.2,5.75,8.5,1.4,1.54,6.94,,,4.75,5.3,,1.23,1.42,5.17,4.77,1.38,4.78,6.65,8.41,3.78,
123051075295301,Goonadka,12.51416667,75.49805556,,,,,,,,,,,,,,,,,,,,,,,,,,,,,,,,,,,,,,,,,,,,,,,,,,,,,,,,,,,,,,,,,,,,,,,,,,,,2.4,5.65,,1.2,1.45,1.55,1.65,1.75,1.45,1.6,1.42,0.73,0.7,0.83,1.35,0.45,2.28,2.53,1.95,0.87,2.35,2.5,1.6,,0.62,1.35,3.1,0.4,0.2,1.85,,,1.53,1,,0.4,0.65,0.8,4.43,4.43,1.39,2.35,2.55,2.05,
124848075175301,Hirebandadi,12.81333333,75.29805556,,,,,,,,,,,,,,,,,,,,,,,,,,,,,,,,,,,,,,,,,,,,,,,,,,,,,,,,,,,,,,,,,,,,,,,,,,,,3.68,5.29,,1.48,3.18,4.06,4.25,,2.98,3.13,4.03,2.92,3.68,4.18,4.88,2.68,3.82,4.13,3.33,0.9,3.69,4.54,5.38,1.33,3.18,,6.2,2.28,2.48,5.5,,,3.75,4.18,,1.58,,3.96,,,3.53,,,8.57,
130352074511501,Kinnigoli,13.06444444,74.85416667,,,,,,,,,,,,,,,,,,,,,,,,,,,,,,,,,,,,,,,,,,,,,,,,,,,,,,,,,,,,,,,,,,,,,,,,,,,,10.4,13.7,,10.07,11.8,13.4,15.1,10.6,12.3,13.3,14.38,11.6,11.4,13.3,15.8,6.88,12.65,13.6,14.8,9.63,12.35,13.2,14.37,10.8,13.1,13.3,16.7,9.1,9.3,14.5,,,12.48,13.35,,10.9,12.18,13.03,14.77,9.54,13,14.6,15.71,12.56,
125815075090201,Nayanaadu,12.97083333,75.15055556,,,,,,,,,,,,,,,,,,,,,,,,,,,,,,,,,,,,,,,,,,,,,,,,,,,,,,,,,,,,,,,,,,,,,,,,,,,,5.2,7.65,8,1.57,3.8,6.9,7.25,1.8,3.56,6.8,5.3,3.28,4.92,7.02,7.05,1.7,6.2,7.2,5.92,1.4,5.93,7,7.85,1.33,6.8,,9.7,1.3,2.58,7.75,,,5.56,6.75,,1.38,4.8,,7.3,1,6.18,7.85,7.85,4.51,
125715075230002,Nidle,12.95416667,75.38333333,,,,,,,,,,,,,,,,,,,,,,,,,,,,,,,,,,,,,,,,,,,,,,,,,,,,,,,,,,,,,,,,,,,,,,,,,,,,8.7,11.3,11.2,7.65,8.3,11.2,11.15,6.61,8.2,6.4,10.95,8.84,9.2,10.6,12.2,7.35,11.22,11.6,11.13,7.12,9.95,10.73,12,6.17,10.05,11.32,14.2,1.17,7.6,12.9,,,8.67,9.25,,6.93,7.85,9.35,10.71,6.94,9.08,11,12.95,9.04,
125055075154701,Adantadka,12.84861111,75.26305556,,,,,,,,,,,,,,,,,,,,,,,,,,,,,,,,,,,,,,,,,,,,,,,,,,,,,,,,,,,,,,,,,,,,,,,,,,,,,9.65,10.2,3.21,5.85,7.6,8.68,3,6.4,6.55,8.95,5.8,6.8,7.67,9.75,3.35,7.4,8.05,9.3,8.35,11.54,9.53,9.62,3.66,7.35,,10.5,2.55,5.45,8.75,,,5.48,8.45,,4.28,6.55,7.57,,4.33,7.54,9.75,10.4,7.12,
125612075194801,Ballalu,12.93666667,75.33,,,,,,,,,,,,,,,,,,,,,,,,,,,,,,,,,,,,,,,,,,,,,,,,,,,,,,,,,,,,,,,,,,,,,,,,,,,,,6.8,,1.7,,6.68,6.2,3.11,5.7,6.8,7.6,8.05,9.7,9.46,12.2,5.55,6.53,7.2,8.5,,6.45,6.9,8.1,2.25,9,7.8,9,4.4,6.57,9.4,,,6.23,9.34,,5.9,4.3,6.65,7.12,2.57,6.38,7.8,12.3,,
125129075032401,Bollangadi,12.85805556,75.05666667,,,,,,,,,,,,,,,,,,,,,,,,,,,,,,,,,,,,,,,,,,,,,,,,,,,,,,,,,,,,,,,,,,,,,,,,,,,,,4.8,6.71,2.28,2.25,4.18,6,2.74,2.3,3.9,5.3,2.58,2.85,4.17,6.9,2.4,3.45,5.05,6.35,1.9,3.25,4.6,6.3,2.35,3.98,5.75,7.2,2.25,2.95,5.87,,,3.5,4.33,,2.15,3.25,4.02,6.45,1.65,4.6,6.35,7.5,3.25,
130011074572701,Garadi,13.00305556,74.9575,,,,,,,,,,,,,,,,,,,,,,,,,,,,,,,,,,,,,,,,,,,,,,,,,,,,,,,,,,,,,,,,,,,,,,,,,,,,,10,13.7,6.2,7.87,9.58,12.42,7.2,7.9,9,11.8,7.95,8.45,9.14,3.56,6.95,8.62,9.8,6.95,5.3,8.6,9.25,13.7,6.32,8.62,,,5.32,6.7,10.35,,,8.77,8.18,,6.9,8.25,8.9,10.44,4.3,8.81,10.5,15.32,8.7,
124709075091301,Kabaka,12.78583333,75.15361111,,,,,,,,,,,,,,,,,,,,,,,,,,,,,,,,,,,,,,,,,,,,,,,,,,,,,,,,,,,,,,,,,,,,,,,,,,,,,7.15,8.1,2.8,5.17,6.95,6.97,3.25,6.07,6.95,6.75,2.85,8.1,4.25,8.45,0.95,6.17,7.25,5.77,0.38,6.4,7.1,7.95,2.75,6.5,7.2,9,2.25,5.05,8.1,,,6.39,6.95,,4.2,6.35,6.8,7.45,3.34,5.45,8.15,8.43,6.28,
123009075320301,Kallugundi,12.5025,75.53416667,,,,,,,,,,,,,,,,,,,,,,,,,,,,,,,,,,,,,,,,,,,,,,,,,,,,,,,,,,,,,,,,,,,,,,,,,,,,,1.8,,0.9,1.05,1.77,1.87,1.35,1.39,1.62,1.45,1.25,1.25,1.75,1.55,1.05,1.57,2.1,2.65,0.45,1.53,2.8,2.25,,,1.88,4,0.85,0.04,2.9,,,1.5,1.57,,0.92,0.95,1.45,1.98,1.98,1.25,2.7,4.16,2.05,
123851075162801,Kavu,12.6475,75.27444444,,,,,,,,,,,,,,,,,,,,,,,,,,,,,,,,,,,,,,,,,,,,,,,,,,,,,,,,,,,,,,,,,,,,,,,,,,,,,3.85,4.9,3.9,3.85,3.88,3.91,3.81,3.8,3.82,3.1,3.8,5.9,4.05,4.8,3.7,3.82,3.9,3.85,3.2,3.71,3.8,4.55,3.7,3.8,8.2,5,3.33,2.64,4.6,,,3.8,3.8,,3.52,3.75,3.67,3.74,3.57,3.8,4.7,5.4,4.62,
124705074513501,Kotekar Dw,12.78472222,74.85972222,,,,,,,,,,,,,,,,,,,,,,,,,,,,,,,,,,,,,,,,,,,,,,,,,,,,,,,,,,,,,,,,,,,,,,,,,,,,,11.34,,5.39,8.59,13.44,11.24,5.35,5.04,10.64,13.82,7.24,6.94,10.72,7.92,5.49,10.81,12.24,15.44,8.3,11.34,13.64,8.94,7.19,7.29,,15.2,1.99,3.77,5.35,,,10.14,4.34,,1.74,8.74,,13.4,5.06,9.11,11.76,13.92,,
125141074505001,Mangalore Attawara,12.86138889,74.84722222,,,,,,,,,,,,,,,,,,,,,,,,,,,,,,,,,,,,,,,,,,,,,,,,,,,,,,,,,,,,,,,,,,,,,,,,,,,,,7.8,6.07,3.75,6,7,5.6,4.48,4.3,4.4,6.68,4.3,6.35,7.25,9.49,,6.18,7.9,5.6,4.5,7.2,6.12,5.45,3.7,5.36,10.2,7.6,0.63,5.2,6.6,,,5.7,6.02,,6.25,4.9,7.35,7.26,1.45,6.65,8.3,2.28,6.7,
125147074495601,Mangalore Bandaru,12.86305556,74.83222222,,,,,,,,,,,,,,,,,,,,,,,,,,,,,,,,,,,,,,,,,,,,,,,,,,,,,,,,,,,,,,,,,,,,,,,,,,,,,1.52,1.6,1.3,1.6,1.6,1.51,1.3,,,1.61,0.75,1,1.05,1.43,0.75,1.4,7.86,1.45,1.3,3.25,1.9,1.7,1.15,1.05,2.42,2.8,2.45,6.4,1.84,,,0.5,0.97,,4,0.85,,1.42,,1,2.1,7.23,1.47,
125103074505801,Mangalore Jappu,12.85083333,74.84944444,,,,,,,,,,,,,,,,,,,,,,,,,,,,,,,,,,,,,,,,,,,,,,,,,,,,,,,,,,,,,,,,,,,,,,,,,,,,,8,9.26,5.35,7.05,8.25,8.72,5.96,6.7,8,8.63,6.25,7.28,8.54,10.67,5.7,7.86,9.8,4.42,4,7.63,8.05,8.2,5.93,7.5,8.14,12.1,4.15,6.4,8.7,,,7.5,7.76,,0.65,7.1,7.95,9.15,4.93,7.8,9.8,11.33,7.08,
125115074503501,Mangalore Kankanadi,12.85416667,74.84305556,,,,,,,,,,,,,,,,,,,,,,,,,,,,,,,,,,,,,,,,,,,,,,,,,,,,,,,,,,,,,,,,,,,,,,,,,,,,,4.35,4.45,1.73,1.9,1.95,2.25,2.03,2.2,2,2.68,2.42,2,2.6,3.67,2.05,1.74,2.66,2.95,2.25,4.32,3.9,2.1,2.5,2.24,,4.6,1.94,1.88,3.4,,,2.1,2.3,,2.65,3.3,4.85,2.55,1.82,3.45,3.35,4.46,2.81,
125141074505002,Mangalore Lalbhag,12.86138889,74.84722222,,,,,,,,,,,,,,,,,,,,,,,,,,,,,,,,,,,,,,,,,,,,,,,,,,,,,,,,,,,,,,,,,,,,,,,,,,,,,2.92,,,,,,,,,,8.81,8.89,10.62,10.54,6.49,10.8,11.84,,2.36,4.38,3.64,8.16,6.74,8.54,7.09,11.8,3.94,7.47,12.6,,,3.44,,,7.14,10.54,12.34,11.99,4.84,10.29,10.5,12.44,9,
130146074470701,Mukka,13.02944444,74.78527778,,,,,,,,,,,,,,,,,,,,,,,,,,,,,,,,,,,,,,,,,,,,,,,,,,,,,,,,,,,,,,,,,,,,,,,,,,,,,3.25,,2.58,3,3.3,3.35,1.75,0.75,1.8,1.78,3.25,2.95,3.7,5.15,2.08,3.23,2.45,3.1,2.17,2.6,2.75,3.15,2.62,3.35,2.8,2.6,0.85,2.35,4.7,,,8.45,3.5,,,3.15,3.15,7.3,2.59,3.83,4.5,5.73,4.22,
125620074482601,Panambur Beach,12.93888889,74.80722222,,,,,,,,,,,,,,,,,,,,,,,,,,,,,,,,,,,,,,,,,,,,,,,,,,,,,,,,,,,,,,,,,,,,,,,,,,,,,3.68,3.9,1.88,2,2.55,2.4,2.7,3.8,2.25,4.63,4.05,3.86,4.84,2.62,0.1,3.04,3.8,3.85,2.15,3.65,4.65,2,1.68,2.45,2.56,5.2,0.1,0.02,3.1,,,2.2,2.22,,1.6,2.85,2.3,2,1.43,3.2,5.2,3.6,3.15,
125851074545801,Perar,12.98083333,74.91611111,,,,,,,,,,,,,,,,,,,,,,,,,,,,,,,,,,,,,,,,,,,,,,,,,,,,,,,,,,,,,,,,,,,,,,,,,,,,,11.7,,9,9.8,11.5,14.4,5.22,9.6,11.7,12.65,6.07,6.38,7.8,14.7,9.65,10.46,12.36,15.95,10.3,12.3,,13.66,9.4,9.58,10.45,12.7,8.1,6.1,12.95,,,10.97,11.15,,9.1,9.9,10.8,12.69,7.6,10.62,13.15,12.74,10.75,
130013074525201,Permude,13.00361111,74.88111111,,,,,,,,,,,,,,,,,,,,,,,,,,,,,,,,,,,,,,,,,,,,,,,,,,,,,,,,,,,,,,,,,,,,,,,,,,,,,13.38,,6.42,9.05,13.6,9.62,7.2,10.55,13.2,14.55,8.9,10.5,13,15.2,6.85,11.93,13.5,16.1,6.32,11.9,12.93,13.97,6.62,12,9.15,15.5,5.35,5.47,13.45,,,12.1,12,,6.45,9.1,11.92,12.75,5.15,11.85,12.95,14.36,10.3,
124014075340901,Ujire,12.67055556,75.56916667,,,,,,,,,,,,,,,,,,,,,,,,,,,,,,,,,,,,,,,,,,,,,,,,,,,,,,,,,,,,,,,,,,,,,,,,,,,,,3.74,,0.43,1.27,3.5,3.3,0.74,1.7,3.55,3.72,,4.05,4.2,9.65,6.4,3.04,4.2,4.4,,2.61,3.45,3.97,0.45,3,3.65,5.9,0.2,0.57,4.2,,,2.23,3.15,,0.3,1.2,3.12,3.25,0.46,2.9,4.05,4.72,2.55,
124905074502201,Ullal Beach,12.81805556,74.83944444,,,,,,,,,,,,,,,,,,,,,,,,,,,,,,,,,,,,,,,,,,,,,,,,,,,,,,,,,,,,,,,,,,,,,,,,,,,,,3.3,3.17,3,,3.52,3.3,3.15,2.9,3.25,3.17,3.28,1,2.6,2.95,0.3,3.76,3.65,3.4,5.98,1.21,3.5,3.09,3.12,5.95,2.76,4.7,2.6,3.15,,,,4.25,3.6,,3.6,3.7,4.29,3.9,2.95,4.3,5.15,5.08,4.95,
124545075055301,Vittala,12.7625,75.09805556,,,,,,,,,,,,,,,,,,,,,,,,,,,,,,,,,,,,,,,,,,,,,,,,,,,,,,,,,,,,,,,,,,,,,,,,,,,,,7.57,8.51,3.22,5.77,7.57,7.52,4.16,7.7,7.47,7.37,6.77,7.12,7.52,8.24,4.92,7.25,7.67,8.39,1.7,7.27,7.57,8.4,4.07,7.04,7.67,9.3,1.72,6.57,8.2,,,7.17,7.22,,4.52,6.87,7.37,8.07,2.77,7.27,8.5,9.1,7.97,
124018075333101,Yenekal,12.67166667,75.55861111,,,,,,,,,,,,,,,,,,,,,,,,,,,,,,,,,,,,,,,,,,,,,,,,,,,,,,,,,,,,,,,,,,,,,,,,,,,,,6.55,7.73,2.6,5.93,6.5,6.75,2.54,5.42,6.4,6.9,3.28,4.5,5.2,7.83,2.25,6.2,6.7,7.25,1.5,6.17,6.62,6.8,2.25,8.8,6.08,8.5,1.6,1.7,6.48,,,6.2,4.2,,2,4.27,6.28,5.95,3.4,6.1,7.58,6.93,6.62,
124730075193001,Athoor Koyla,12.79166667,75.325,,,,,,,,,,,,,,,,,,,,,,,,,,,,,,,,,,,,,,,,,,,,,,,,,,,,,,,,,,,,,,,,,,,,,,,,,,,,,,7.18,4.5,6.4,6.6,6.7,3.81,6.2,4.35,7.3,7.3,8.58,9.08,10.1,6.78,6.85,9.15,10.35,5.96,8.48,7.4,10.6,3.51,8.85,,7.9,5,7.4,9.95,,,8.7,9,,7.15,7.6,8.82,7.82,3.98,6.36,7.44,10.75,7.55,
125510075053501,Kelagina Ogga,12.91944444,75.09305556,,,,,,,,,,,,,,,,,,,,,,,,,,,,,,,,,,,,,,,,,,,,,,,,,,,,,,,,,,,,,,,,,,,,,,,,,,,,,,6.68,0.84,2.2,4.53,6.35,,2,4.06,6,2.03,6.15,6.12,6.4,3.45,3.4,6.5,6.55,6.21,9.12,5.05,6.35,0.42,7,5.4,7.5,2.15,5.55,6.7,,,4.05,5.65,,,2.4,3.85,5.17,0.55,4.7,5.3,7.1,2.9,
124405075322001,Sunkadakatte Ithoor,12.73472222,75.53888889,,,,,,,,,,,,,,,,,,,,,,,,,,,,,,,,,,,,,,,,,,,,,,,,,,,,,,,,,,,,,,,,,,,,,,,,,,,,,,7.95,2.55,5.95,6.75,6.7,4.26,6.36,6.8,6.25,5.75,7.45,6.75,7.4,3.15,6.7,6.85,6.05,1.7,6.77,6.75,6.78,3.95,6.85,7.28,9.2,3.13,3.95,8.2,,,6.65,6.65,,2.8,4.65,7.09,6.5,4.4,6.55,8.1,8.77,7.75,
124430075062001,Ukkuda,12.74166667,75.10555556,,,,,,,,,,,,,,,,,,,,,,,,,,,,,,,,,,,,,,,,,,,,,,,,,,,,,,,,,,,,,,,,,,,,,,,,,,,,,,5.67,2.6,5.25,5.45,5.6,2.51,4.72,6,5.5,4.85,5.15,5.5,5.9,2.6,5.22,5.8,6.08,1.55,5.28,5.7,5.8,3.85,5.4,5.58,7.6,2.1,4.85,7.7,,,5.3,5.45,,2.4,5,5.35,5.52,1.95,5.15,6.45,6.49,5.97,
125706075154401,Gerukatte,12.95166667,75.26222222,,,,,,,,,,,,,,,,,,,,,,,,,,,,,,,,,,,,,,,,,,,,,,,,,,,,,,,,,,,,,,,,,,,,,,,,,,,,,,,,5.75,7.23,7.55,2.86,6.15,7.25,4.45,5.01,6.65,7.4,10.85,3.2,6.76,7.65,10.85,1.52,6.6,7.3,10.85,2.39,6.82,7.53,,1.99,5.23,8.45,,,6.55,7.07,,2.75,5.95,6.97,8.82,3.45,6.53,8.2,10.65,7.06,
130420074484501,Kenchanekere,13.07222222,74.8125,,,,,,,,,,,,,,,,,,,,,,,,,,,,,,,,,,,,,,,,,,,,,,,,,,,,,,,,,,,,,,,,,,,,,,,,,,,,,,,,0.35,5.57,6.43,3.07,3.25,3.7,6.38,3.18,3.45,5.13,6.71,2.82,4.73,5.7,7.05,2.39,4.12,5.25,6.1,2.79,5.75,5.95,7.5,1.8,2.4,,,,5.05,5.18,,2.75,3.18,4.65,6.1,2.3,4.7,6.5,6.49,3.94,
125545075304501,Addhole,12.92916667,75.5125,,,,,,,,,,,,,,,,,,,,,,,,,,,,,,,,,,,,,,,,,,,,,,,,,,,,,,,,,,,,,,,,,,,,,,,,,,,,,,,,,3.8,4.3,2.35,2.55,3.85,2.75,2.39,2.65,3.55,5.65,1.85,3.07,4.05,4.9,1.85,3.55,3.97,4.92,,3.5,3.95,6,2.37,2.43,5.05,,,,4.37,,2.35,2.15,4.04,4.27,2.48,3.55,4.05,4.98,3.94,
125739075192801,Badanaje Macharu,12.96083333,75.32444444,,,,,,,,,,,,,,,,,,,,,,,,,,,,,,,,,,,,,,,,,,,,,,,,,,,,,,,,,,,,,,,,,,,,,,,,,,,,,,,,,8.5,10.15,3.71,6.95,9.65,10.55,5.87,7.28,8.67,12.3,2.95,7.74,9.7,12.9,,7.29,9.1,11.63,2.95,7.9,9.7,14,2.8,4.07,9.05,,,7.1,8.35,,3.62,5.95,8.35,10.85,3.78,7.8,9.7,12.8,7.5,
125857074531001,Bajpe,12.9825,74.88611111,,,,,,,,,,,,,,,,,,,,,,,,,,,,,,,,,,,,,,,,,,,,,,,,,,,,,,,,,,,,,,,,,,,,,,,,,,,,,,,,,9.2,9.4,3.9,8.38,9.25,9.1,8.7,9.32,9.65,13.1,6.7,9.12,9.3,9.25,3.1,9.08,9.25,9.12,5.43,9.1,9.32,10.3,2.55,2.3,10.4,,,9.27,9.18,,4.55,,,5.95,3.99,,6.5,10.6,7.6,
130750075053801,Bore Gudde,13.13055556,75.09388889,,,,,,,,,,,,,,,,,,,,,,,,,,,,,,,,,,,,,,,,,,,,,,,,,,,,,,,,,,,,,,,,,,,,,,,,,,,,,,,,,10.2,12.15,6.16,8.8,10.05,12.4,8.8,10.2,9.98,12.24,5.9,9.17,10.5,13.6,4.3,9.15,10.2,12.04,5.3,9.54,8.46,13.7,4.61,5.95,10.12,,,9.54,10.2,,5.75,7.38,9.58,10.65,4.36,9.41,10.9,1,8.75,
125241075143701,Kalleri,12.87805556,75.24361111,,,,,,,,,,,,,,,,,,,,,,,,,,,,,,,,,,,,,,,,,,,,,,,,,,,,,,,,,,,,,,,,,,,,,,,,,,,,,,,,,11.93,14.1,7.61,10.9,12,13.7,7.25,8.7,8.7,9.9,6.1,8.05,8.8,14.26,12.71,14.02,12.3,13.45,4.12,8.7,12.08,,6.6,7.3,10.35,,,11.39,8.82,,6.3,8,8.6,10.3,9.62,8.15,10.15,10.92,9.05,
130240074521301,Kateel,13.04444444,74.87027778,,,,,,,,,,,,,,,,,,,,,,,,,,,,,,,,,,,,,,,,,,,,,,,,,,,,,,,,,,,,,,,,,,,,,,,,,,,,,,,,,2.3,2.63,1.7,1.6,2.05,2.08,1.58,0.8,2.35,3.15,1.62,1.78,1.9,2.4,1.19,2.05,1.77,2.18,1.25,2.22,,4.8,1.15,0.86,5.5,,,2,1.84,,1.2,1.78,1.6,2.36,0.15,2.1,4,4.69,8.4,
125558075081001,Kaval Maduru,12.93277778,75.13611111,,,,,,,,,,,,,,,,,,,,,,,,,,,,,,,,,,,,,,,,,,,,,,,,,,,,,,,,,,,,,,,,,,,,,,,,,,,,,,,,,7.6,8,4.25,6.05,7.35,7.8,6.48,7.3,8.05,7.45,5.57,7.45,7.8,8.67,1.05,4.15,4.5,8.6,3.67,7.8,5.1,10.5,2.47,6.3,8.6,,,7.25,7.4,,3.75,3.23,5.8,8.05,2.02,7.49,8.9,8.3,7.57,
125703074520301,Kenjaru,12.95083333,74.8675,,,,,,,,,,,,,,,,,,,,,,,,,,,,,,,,,,,,,,,,,,,,,,,,,,,,,,,,,,,,,,,,,,,,,,,,,,,,,,,,,6.3,6.35,6.4,4.65,6.2,5.7,5.35,4.65,6.4,7.1,4.5,5.92,6.25,6.5,5.45,11.57,6.2,6.15,4.09,6,5.9,7.6,2.8,4.25,6.6,,,5.9,5.9,,5.25,5.73,5.9,6.08,3.09,6.05,7.15,7.15,6.27,
130643074594701,Kesargadde,13.11194444,74.99638889,,,,,,,,,,,,,,,,,,,,,,,,,,,,,,,,,,,,,,,,,,,,,,,,,,,,,,,,,,,,,,,,,,,,,,,,,,,,,,,,,1.35,2.36,1.4,1.1,1.3,1.6,1.25,1.27,1.4,3.15,1.18,1.37,1.6,4.2,1.4,1.4,1.55,3.2,1.15,1.35,1.16,5.2,0.85,1.05,2.35,,,1.36,1.41,,1.15,1.25,1.4,1.93,0.8,1.34,2.54,4.8,2,
125805074554001,Kinni Kambala,12.96805556,74.92777778,,,,,,,,,,,,,,,,,,,,,,,,,,,,,,,,,,,,,,,,,,,,,,,,,,,,,,,,,,,,,,,,,,,,,,,,,,,,,,,,,11.7,13.45,9.6,9.3,11.35,13.4,9.95,11.2,11.64,14.2,8.94,11.1,12.1,13.45,7.35,11.1,11.2,11.05,7.75,10.75,11.86,12.3,6.64,6.55,12.63,,,10.72,10.95,,7.55,9.8,11,11.2,5.57,10.9,12,13.1,10.95,
125959075101201,Kukeadi,12.99972222,75.17,,,,,,,,,,,,,,,,,,,,,,,,,,,,,,,,,,,,,,,,,,,,,,,,,,,,,,,,,,,,,,,,,,,,,,,,,,,,,,,,,6.05,7.2,1.56,5.5,6.47,,4.38,5.93,6.15,7.65,7.05,5.88,7.65,11.85,10.27,14.44,7.55,7.6,0.98,5.95,6.2,8.9,0.85,4.35,7.1,,,5.95,6.05,,1.85,5.75,6.01,6.95,0.82,5.9,7,6.47,5.75,
125345075304501,Shiradi A,12.89583333,75.5125,,,,,,,,,,,,,,,,,,,,,,,,,,,,,,,,,,,,,,,,,,,,,,,,,,,,,,,,,,,,,,,,,,,,,,,,,,,,,,,,,8.41,8.95,5.98,7.15,8.45,6.45,6.83,7.4,8.3,9.32,4.3,7.95,8.65,6.95,2.2,7,7.55,9.1,,5.65,3.11,8.4,2.55,2.8,9.3,,,7.95,8.09,,5.12,4.05,8,8.55,4.91,,7.6,10.7,8.45,
130527075045801,Shirtadi,13.09083333,75.08277778,,,,,,,,,,,,,,,,,,,,,,,,,,,,,,,,,,,,,,,,,,,,,,,,,,,,,,,,,,,,,,,,,,,,,,,,,,,,,,,,,9,10.85,7.61,10.8,9,10.7,7.1,8,8.97,11.2,4.3,8.41,9.5,11.45,4.08,8.74,9.5,11.18,4.25,8.58,7.5,12.25,3.06,4,,,,8.2,8.92,,4.85,6.5,8.65,10.8,2.47,8.35,10.3,12.22,8,
130005075253001,Surya,13.00138889,75.425,,,,,,,,,,,,,,,,,,,,,,,,,,,,,,,,,,,,,,,,,,,,,,,,,,,,,,,,,,,,,,,,,,,,,,,,,,,,,,,,,3.35,4.47,0.76,1.7,3.45,4.55,6.35,7.9,8.93,11.85,7.55,2.65,4.05,4.4,0.25,2.33,3.2,5,0.2,8.35,3.85,5,0.3,0.5,4.6,,,1.95,3.95,,0.4,1.5,3.11,3.82,0.42,2.6,4.72,6.2,2.28,
124045075164501,Thingaldi,12.67916667,75.27916667,,,,,,,,,,,,,,,,,,,,,,,,,,,,,,,,,,,,,,,,,,,,,,,,,,,,,,,,,,,,,,,,,,,,,,,,,,,,,,,,,7.2,7.85,3.17,6.45,7.2,7.35,5.5,5.55,5.7,5.17,3.47,6.52,7.65,8.21,2.85,6.87,7.5,8.15,3.65,5.7,7.45,9.2,1.65,4.2,6.45,,,6.8,5.55,,4.4,6.25,6.47,7.6,5.38,6.7,8.26,6.79,6.95,
124902075045501,Veerkambha,12.81722222,75.08194444,,,,,,,,,,,,,,,,,,,,,,,,,,,,,,,,,,,,,,,,,,,,,,,,,,,,,,,,,,,,,,,,,,,,,,,,,,,,,,,,,5.22,6.7,1.41,3.85,5.5,7.1,2.73,4.7,5.95,7.8,2,4.57,6.5,6.4,0.9,4.8,6,7.53,1.35,2.95,,8.3,0.7,3.78,5.8,,,4.57,4.87,,2.2,3.8,5.43,6.75,1.11,5.08,6.5,8.5,4.09,
123308075202301,Ajjavra,12.55222222,75.33972222,,,,,,,,,,,,,,,,,,,,,,,,,,,,,,,,,,,,,,,,,,,,,,,,,,,,,,,,,,,,,,,,,,,,,,,,,,,,,,,,,,7.35,4.27,4.1,6.52,5.4,4.05,5.4,6.3,8.47,2.9,5.8,7.1,8.8,1.15,5.46,6.75,8.8,3.2,6.02,6.65,,3.05,3.8,7.64,,,5.9,5.35,,2.95,3.6,6.02,6.3,6.3,6.2,5.52,10.5,6.4,
123158075224601,Allety Mevinadka,12.53277778,75.37944444,,,,,,,,,,,,,,,,,,,,,,,,,,,,,,,,,,,,,,,,,,,,,,,,,,,,,,,,,,,,,,,,,,,,,,,,,,,,,,,,,,6.65,4.94,3.56,4.05,3.75,6.5,6.6,6.95,6.8,4.05,6.49,6.8,6.05,4.37,3.9,,7.2,5.95,6.65,,9.5,5.1,5.54,0.75,,,6.65,6.58,,3.85,6.25,6.5,6.65,6.65,6.48,7.42,7.85,7.27,
130545074485301,Elathur,13.09583333,74.81472222,,,,,,,,,,,,,,,,,,,,,,,,,,,,,,,,,,,,,,,,,,,,,,,,,,,,,,,,,,,,,,,,,,,,,,,,,,,,,,,,,,8.05,2.03,1.35,1.75,,3.79,4.5,5.88,13.45,7.95,6.25,6.65,4.68,3.2,4.22,9.4,3.4,4.4,9.35,4.79,7.6,6.75,4.75,9.9,,,6.87,7.75,,,,,7.7,2.85,6.47,7.9,6.63,6.1,
124440075300301,Kanayana,12.74444444,75.50083333,,,,,,,,,,,,,,,,,,,,,,,,,,,,,,,,,,,,,,,,,,,,,,,,,,,,,,,,,,,,,,,,,,,,,,,,,,,,,,,,,,9.4,3.81,4.9,5.65,9.4,8.35,7.7,8.65,8.5,2.6,8.72,10.4,11.35,2.33,5.62,9.7,9.84,3.7,8.6,10.2,12,2.75,8.23,11.25,,,7.6,9.33,,,7.55,9.6,10.06,3.05,9,12.1,11.96,9.6,
124633075025401,Kudtha Muger,12.77583333,75.04833333,,,,,,,,,,,,,,,,,,,,,,,,,,,,,,,,,,,,,,,,,,,,,,,,,,,,,,,,,,,,,,,,,,,,,,,,,,,,,,,,,,5.04,4.3,3.5,4.64,5,4.05,6.1,4.7,6.4,2.75,4.39,5,6.2,2.95,5.45,4.7,5.5,2.12,4.5,5.4,7,2.84,3.3,5.28,,,4.45,4.7,,3.4,4.1,4.67,4.88,2.47,4.4,5.85,5.9,5.1,
124047075200301,Mannikara,12.67972222,75.33416667,,,,,,,,,,,,,,,,,,,,,,,,,,,,,,,,,,,,,,,,,,,,,,,,,,,,,,,,,,,,,,,,,,,,,,,,,,,,,,,,,,5.6,2.12,5.2,4.35,5.8,5.18,5.4,5.5,6.02,1.69,5.34,6.05,5.8,4.6,5.38,5.6,8.7,1.85,5.6,4.8,7.2,1.4,3.07,3.97,,,5.26,5.3,,2.35,3.3,5.3,5.39,2.76,5.27,6.75,7.8,6.25,
130150075224901,Nidigal,13.03055556,75.38027778,,,,,,,,,,,,,,,,,,,,,,,,,,,,,,,,,,,,,,,,,,,,,,,,,,,,,,,,,,,,,,,,,,,,,,,,,,,,,,,,,,4.4,2.34,3.75,4.4,5.1,3.5,4.35,4.8,5.3,1.7,4.52,4.52,5.5,4.02,4.5,4.7,6.47,1.86,4.5,4.95,7.5,1.3,2.3,5.53,,,4.4,4.75,,2.1,3.65,4.55,4.93,2.26,4.6,5.6,6.45,4.54,
125210074530501,Padil,12.86944444,74.88472222,,,,,,,,,,,,,,,,,,,,,,,,,,,,,,,,,,,,,,,,,,,,,,,,,,,,,,,,,,,,,,,,,,,,,,,,,,,,,,,,,,11.15,7.85,7.45,10.9,10.35,7.95,10.25,11.13,12.41,6.45,9.6,12.15,11,5.08,7.12,11.5,10.6,7.25,8.85,11.05,14.2,6.6,8.86,12.25,,,10.73,11,,6.55,7.51,8.5,11.15,4.45,10.15,11.7,12.07,10,
130302074493301,Pakshikere,13.05055556,74.82583333,,,,,,,,,,,,,,,,,,,,,,,,,,,,,,,,,,,,,,,,,,,,,,,,,,,,,,,,,,,,,,,,,,,,,,,,,,,,,,,,,,8.49,2.91,3.85,7.15,9.63,2.4,6.9,6.05,13,6,5.81,7.5,9.52,9.15,5.15,7.08,7.35,1.76,6.3,7.5,12.6,0.9,2,8.4,,,5.5,6.85,,1.65,3.55,6.13,7.89,0.98,5.88,8.3,9.11,4,
123531075234501,Sonnagiri,12.59194444,75.39583333,,,,,,,,,,,,,,,,,,,,,,,,,,,,,,,,,,,,,,,,,,,,,,,,,,,,,,,,,,,,,,,,,,,,,,,,,,,,,,,,,,4.8,1.18,4.05,4.85,4.55,4.02,4.5,4.65,5.6,3.1,4.38,4.75,5.8,1.7,4.75,4.82,6.04,2.4,4.75,4.25,7.25,2,3.4,5.6,,,4.63,4.8,,3.05,3.8,4.59,7.15,3.72,4.53,5.5,6.45,5.2,
125121075011301,Subashnagar,12.85583333,75.02027778,,,,,,,,,,,,,,,,,,,,,,,,,,,,,,,,,,,,,,,,,,,,,,,,,,,,,,,,,,,,,,,,,,,,,,,,,,,,,,,,,,5.86,1.5,3.5,5.15,6.1,3.55,4.4,5.2,6.7,4,4.83,5.3,6.7,0.62,4.85,5.4,6.7,1.16,4.8,6.1,,0.55,3.3,,,,4.7,5.15,,1.95,4.1,5.03,5.85,0.63,4.8,5.95,7.2,4.3,
123522075213601,Vinobanagar,12.58944444,75.36,,,,,,,,,,,,,,,,,,,,,,,,,,,,,,,,,,,,,,,,,,,,,,,,,,,,,,,,,,,,,,,,,,,,,,,,,,,,,,,,,,7.75,4.68,7.65,7.75,7.38,7.45,7.55,7.8,7.95,5.7,7.45,8.45,8.65,7.55,8.9,8.32,11.45,6.65,7.58,9.2,9,,,,,,7.35,,,,5.7,9.38,,,,,,,
124617075252301,Balya,12.77138889,75.42305556,,,,,,,,,,,,,,,,,,,,,,,,,,,,,,,,,,,,,,,,,,,,,,,,,,,,,,,,,,,,,,,,,,,,,,,,,,,,,,,,,,,1.93,3.1,4.61,4.3,1.2,2.3,4.6,7.35,0.9,4.33,5.2,6.25,5.13,8.38,4.95,5.7,1.53,3.9,5.95,8.3,1,3.33,6,,,3.5,5,,0.6,1.9,4.55,4.89,0.76,4.25,6.2,8.22,4.62,
124433075302901,Bantra(Mardala),12.7425,75.50805556,,,,,,,,,,,,,,,,,,,,,,,,,,,,,,,,,,,,,,,,,,,,,,,,,,,,,,,,,,,,,,,,,,,,,,,,,,,,,,,,,,,1.8,,,2.8,,3.15,4.3,5.7,1.02,3.27,4.85,5,4.14,7.52,4.5,4.52,1.27,3.6,4.92,7.6,1.5,4.07,5.6,,,3.42,4.2,,0.96,1.2,3.77,3.79,1.27,3.3,5.5,9.5,3.75,
125137075244401,Kokkada,12.86027778,75.41222222,,,,,,,,,,,,,,,,,,,,,,,,,,,,,,,,,,,,,,,,,,,,,,,,,,,,,,,,,,,,,,,,,,,,,,,,,,,,,,,,,,,2.92,4.62,5.22,7.92,3.76,4.82,5.57,7.92,2.82,6.16,6.32,7.02,1.79,5.32,6.52,7.04,1.84,5.35,7.02,9.3,1.67,4.73,6.7,,,5.12,5.62,,3.75,3.72,5.42,7.01,3.82,5.52,7.15,9.1,5.7,
125456075134101,Padangadi,12.91555556,75.22805556,,,,,,,,,,,,,,,,,,,,,,,,,,,,,,,,,,,,,,,,,,,,,,,,,,,,,,,,,,,,,,,,,,,,,,,,,,,,,,,,,,,2.95,7.29,8.35,8.95,5.78,2.75,8.74,6.77,1.77,8.1,4.5,8.99,1.39,8.35,8.4,10.7,2.7,3.15,5.44,7.7,2.1,2.64,5,,,2.23,3.47,,1.55,3.05,3.45,9.57,2.15,8.1,9.95,6.37,7.72,
