station_id,station_name,latitude,longitude,1994_season1,1994_season2,1994_season3,1994_season4,1995_season1,1995_season2,1995_season3,1995_season4,1996_season1,1996_season2,1996_season3,1996_season4,1997_season1,1997_season2,1997_season3,1997_season4,1998_season1,1998_season2,1998_season3,1998_season4,1999_season1,1999_season2,1999_season3,1999_season4,2000_season1,2000_season2,2000_season3,2000_season4,2001_season1,2001_season2,2001_season3,2001_season4,2002_season1,2002_season2,2002_season3,2002_season4,2003_season1,2003_season2,2003_season3,2003_season4,2004_season1,2004_season2,2004_season3,2004_season4,2005_season1,2005_season2,2005_season3,2005_season4,2006_season1,2006_season2,2006_season3,2006_season4,2007_season1,2007_season2,2007_season3,2007_season4,2008_season1,2008_season2,2008_season3,2008_season4,2009_season1,2009_season2,2009_season3,2009_season4,2010_season1,2010_season2,2010_season3,2010_season4,2011_season1,2011_season2,2011_season3,2011_season4,2012_season1,2012_season2,2012_season3,2012_season4,2013_season1,2013_season2,2013_season3,2013_season4,2014_season1,2014_season2,2014_season3,2014_season4,2015_season1,2015_season2,2015_season3,2015_season4,2016_season1,2016_season2,2016_season3,2016_season4,2017_season1,2017_season2,2017_season3,2017_season4,2018_season1,2018_season2,2018_season3,2018_season4,2019_season1,2019_season2,2019_season3,2019_season4,2020_season1,2020_season2,2020_season3,2020_season4,2021_season1,2021_season2,2021_season3,2021_season4,2022_season1,2022_season2,2022_season3,2022_season4,2023_season1,2023_season2,2023_season3,2023_season4
224400088460001,Baduria,22.73333333,88.76666667,,,,,,,,,5,4.89,3.44,2.69,4.6,4.79,3.08,2.71,4.42,4.52,2.23,1.46,5.4,,3.12,3,6.2,5.7,3.31,2.77,5.31,5.99,3.05,3.22,6.43,5.09,3.7,1.32,,5.37,2.34,2.01,2.29,7.1,6.52,2.7,5.48,,5.92,3.6,3.83,5.35,2.77,4.1,5.25,5.77,3.44,2.65,3.36,4.98,5.14,2.7,4.04,4.91,3.54,4.2,6.1,6.1,5.6,,2.95,6.18,3.22,,4.52,8.57,,3.23,5.08,,4.72,5.23,5.68,7.3,3.18,,4.59,5.6,5.78,4.1,,,,4.33,5.34,,3.56,3.74,6.72,,3.55,4.04,5.4,,3.96,3.68,4.41,,3.57,3.85,4.28,,3.33,2.4,4.33,5.51,5.27,5.47,,5.79,,
223835088430001,Bagaband Pz,22.64305556,88.71666667,,,,,,,,,1.83,4.08,1.02,3.35,2.52,4.33,1.12,2.41,3.27,2.27,0.75,2.11,1.68,,0.93,0.95,2.5,2.43,1.13,1.24,2.71,5.57,,1.43,3.68,4.77,0.88,0.71,2.94,3.87,,1.01,2.69,4.28,,1.41,2.7,11.09,1.93,1.88,3.03,4.87,2.04,2.35,3.33,4.81,1.72,1.08,2.71,4.18,1.32,1.67,3.77,5.32,,2.1,4.25,5.12,5.8,2.15,3.11,,,,,,,,5.09,6.98,,,,,,,,,,,,,,,6.11,,,,5.35,,4.75,,5.88,5.88,5.82,4.58,5.25,,3.33,2.57,5.45,,3.48,2.65,3.75,6.44,5.16,10.28,,,,
223007088442501,Bagirhula,22.50194444,88.74027778,,,,,,,,,2.05,,0.9,2.68,2.02,,1.9,,2.17,,0.84,0.87,5.13,,1.28,0.69,3.8,,,,,1.47,,,,,,,,,,,,,,,,,,,,,,,,,,,,,,,,,,,,,,,,,,1.92,,,,,,,,,,,,,,,,,,,,,3.96,,2.88,2.61,6.03,,,3.83,3.68,5.22,3.3,2.74,3.49,,3.33,3.27,5,,2.98,,3.23,7.61,4.79,4.1,,,,
224130088294501,Barasat1,22.69166667,88.49583333,,,,,,,,,4.96,7.39,3.85,4.49,6.15,7.25,4.65,4.75,4.42,6.8,5.03,4.04,5.1,,5.1,3.7,5.46,8.1,7.3,4.71,5.12,8.08,5.45,5.25,6.21,8.23,3.94,3.35,,7.47,5.49,3.8,4.39,8,5.9,5.22,5.9,7.53,5.3,4.6,5.59,8.6,5,3.99,6.28,8.22,5.8,4.32,6.25,,,,,,4.7,6.1,7.5,8.31,7.6,,4.3,,5.11,4.02,6.95,10.33,,7,9.25,,,,4.15,9.21,6.85,,8.6,8.4,,5.9,,,,9.15,,13.57,5.53,5.46,,7.04,,7.21,7.63,11.58,5.97,6.04,7,,5.92,,5.77,,4.97,2.47,,6.56,6.09,6.97,,9.6,,
223930088523001,Basirhat,22.65833333,88.875,,,,,,,,,4.41,5.25,4.11,4.84,4.04,5.25,4.65,4.75,4.96,5.05,4.05,4.32,4.11,4.79,3.51,4.71,5.26,8.31,4.71,5.31,5.57,5.01,5.41,4.86,7.42,7.96,6.41,3.6,6.74,7.9,5.81,5.03,5.11,,6.93,6.64,6.7,3.6,6.9,6.55,7.48,,2.27,6.48,5.27,,5.5,2.48,3.84,4.1,,,4.25,4.84,2.43,3.9,,,,,,,,,,,,,4.34,4.9,,,,,,,,,,,,,,,5.8,8.69,6.68,6.05,4.63,4.05,6.71,6.58,7.16,,3.5,,7.03,,,,6.88,,,11.8,7.48,7.94,9.28,8.59,8.8,,,
224100088400001,Berachampa,22.68333333,88.66666667,,,,,,,,,1.9,3.89,1.47,3.4,3.34,3.75,1.91,2.45,3.09,3.34,2.67,2.33,2.29,4.84,1.79,1.76,3.49,3.53,,2.95,4.58,,,,3.7,4.46,2.69,1.21,,4.59,,2.05,2.95,4.62,2.39,3,,3.7,1.55,1.15,3.25,6.55,3.57,3.5,5.71,6.25,2.85,2.54,3.87,6.97,3.2,2.07,4.07,4.8,3.15,4,,6.3,5.1,2.84,4.03,6.42,3.4,2.62,3.23,6.96,,3.3,3.6,5.05,2.95,2.63,3.83,5.47,2.35,,3.65,4.65,3.55,1.85,,,,8.75,3.65,5.69,2.28,1.4,5.58,3.75,3.65,4.46,4.15,,5.08,4.62,4.55,,3.32,2.74,5.54,,3.93,2.84,4.53,6.27,6.22,6.25,7.39,7.38,,
225230088424501,Berghoom Pz,22.875,88.7125,,,,,,,,,2.54,2.95,0.6,2.38,4.27,3.58,2.07,2.25,2.73,2.3,1.17,0.69,1.43,2.85,0.85,0.49,3.53,3.65,0.95,0.21,2.1,3.9,1.15,1.17,4.12,3.5,1.13,1.22,3.86,4.8,1.34,1.3,1.93,4.55,3,2.03,2.8,,2.15,1.9,3.7,4.25,1.64,2.43,3.56,4.53,0.95,0.56,2,8.35,1,0.94,1.84,4.33,1.21,1.9,2.95,5.35,2.35,0.73,3.42,4.9,0.62,1.71,2.5,4.85,,2.61,3.29,4.72,2.69,0.55,2.22,4.9,1.09,,0.75,3.75,3.3,1.8,,3.89,0.32,,3.68,4.91,1.41,1.24,,4.3,1.51,2.49,3.41,,9.4,1.45,3.16,,0.92,2.53,3.42,,5.33,0.75,1.67,4.34,2.49,3.25,4.74,,,
224107088430501,Bishnupur Tw,22.68527778,88.71805556,,,,,,,,,4.26,5.2,2.65,4.4,5.14,5.39,2.81,3.25,3.84,5.04,2.67,2.08,4.12,,2.56,2.19,2.32,,,,3.6,,,,6.15,5.74,,2.43,,6.33,,2.2,4.85,4.58,3.2,3.19,3.22,4.26,1.65,2.55,4.4,5.57,3.8,3.98,5.24,6.37,3.72,2.67,3.35,,,,,5.93,,4.35,,6.95,10.75,4.51,4.03,6.42,3.5,3.39,5.22,12.28,,3.81,8.2,6.95,3.55,4.67,6.87,7.33,4.38,,6.78,6.25,4.65,4.8,,4.92,,,6.02,6.55,3.98,3.03,,6.04,2.76,4.19,5.77,9.01,5.9,,,,,4.56,,,,,6.41,,,,,,,
225500088430001,Gaighata P.s.,22.91666667,88.71666667,,,,,,,,,4.72,6.55,3.84,3.96,5.41,6.29,4.78,3.99,4.61,5.84,4.21,2.95,5.39,6.44,3.65,3.24,3.55,4.19,3.89,4.03,5.47,6.21,4.47,4.75,7.32,6.81,3.69,3.8,6.1,7.19,4.88,3.73,6.36,6.8,3,,5.15,5.4,3.78,3.1,3.78,6.9,4.5,5.55,5.55,6.9,4.46,3,4.73,5.71,4.05,3.89,5.61,6.55,4.03,3.65,5.8,6.78,16.2,,3.8,7.5,3.03,,5.66,6.25,,5.73,6.23,7.43,9.5,9.17,9.52,7.09,3.95,,5.72,6.1,3.46,4.1,,,2.34,3.6,5.86,6.76,3.6,3.47,5.86,5.93,,5.21,5.47,5.98,5.04,,5.21,,3.4,4.38,5.54,,3.58,3.41,5.4,6,5.02,5.28,5,6.57,,
230800088490001,Ganrapota,23.13333333,88.81666667,,,,,,,,,4.4,4.3,2.9,4.14,5.75,5.1,4.18,4.75,5.02,5.22,3.11,3.51,5.9,6.16,3.52,3.32,5.73,6.3,3.4,0.23,1.82,6.25,3.45,,,,,,,7.43,,,,,,,,,,,,,,,,,,,,,,,,,,,,,,,,,,,,,,,,,,,,,,,,,,,,,,4.23,,5.96,3.61,,4.81,4.8,3.28,4.5,4.24,5.53,4.48,3.83,4.68,,2.79,3.17,3.68,,,3.2,,,,,,,,
230400088451501,Gopalnagar,23.06666667,88.75416667,,,,,,,,,3.2,5.05,2.77,2.99,4.35,5.4,3.71,3.8,2.96,4.53,2.77,1.98,4.75,5.71,2.7,2.43,4.38,5.25,2.25,,2.87,4.55,3.35,3.65,4.87,5.32,1.95,2.6,4.8,5.59,3.22,2.95,3.33,5.82,0.31,2.57,4.84,5.23,4.02,3.47,6.5,2,3.87,3.94,5.55,6.47,2.82,1.84,4.21,5.48,2.42,5.15,4.22,5.17,2.82,3.07,4.95,6.4,4.92,4.22,4.61,,3.27,3.71,5.48,2.69,,4.92,4.42,5.72,3.22,2.62,4.03,5.95,3.32,,4.69,5.52,3.3,3.82,,,1.83,3.12,5.18,6.22,2.02,2.14,3.27,4.33,2.68,3.53,3.6,5.21,3.92,3.5,3.72,,1.91,3.07,3.95,,2.24,2.51,3.26,4.04,4,4.16,4.64,4.52,,
224450088440001,Jadurhati,22.74722222,88.73333333,,,,,,,,,3.97,3.64,1.7,3.07,3.28,4.08,2.62,2.87,4.65,4.83,1.99,1.13,3.38,4.33,2.08,3,4.75,4.89,2.23,1.11,3.7,4.88,2.12,2.32,4.86,4.15,2.01,1.42,4.61,4.13,,2.54,2.61,6.38,2.61,3.03,3.65,,2.78,1.7,2.78,5.08,3.5,3.02,4.94,5.23,,1.42,2.78,4.21,5.28,2.77,3.37,5.18,2.15,3.48,4.68,6.02,4.48,0.78,4.83,5.71,1.73,2.42,3.82,7.65,,3,,,,,,4.84,2.25,,2.7,3.68,,,,,,,6.03,7.28,3.56,3.52,5.36,6.06,3.35,4.7,5.64,,4.08,3.94,4.72,,3.3,4.56,4.46,,3.68,2.88,4.13,5.51,5.44,5.33,7.51,7.04,,
223750088300501,Rajarhat,22.63055556,88.50138889,,,,,,,,,1.31,2.88,0.65,1.09,1.82,2.34,1.04,1.85,1.68,1.38,1.14,0.57,1.03,,0.38,0.58,1.73,3.38,0.45,0.85,2.27,4.48,0.58,0.9,2.66,4.65,0.15,0.86,,2.29,0.11,0.13,0.75,2.18,0.51,0.43,2.05,1.78,0.5,0.7,0.5,3,0.25,1.64,2.02,2.37,0.7,0.4,1.25,2.34,0.61,0.3,1.78,1.08,0.74,1.2,2.07,5.33,0.87,0.64,1.2,2.33,0.61,3.24,0.78,5.24,,0.9,1.72,1.96,0.6,0.6,1.7,,0.8,,1.8,2,0.65,1.1,,14.5,0.49,4.9,1.75,2.13,0.53,0.63,0.79,1.12,0.37,0.59,1.08,0.62,0.3,0.35,0.47,,0.36,6.2,0.81,,0.31,3.04,0.42,1.02,0.56,1.09,0.96,0.96,,
224130088223101,Sodpur Panihati,22.69166667,88.37527778,,,,,,,,,7.89,,8.54,,,,,,,,,,,,,,,,,,2.84,,,,,1.09,,,,,,,,,,,,,,,,,,,,,,,,,,,,,,,,,,,,,,,,,,,,,,,,,,,,,,,,,,,,,,,,,,,,,,,,,,,,,,,,,,,,,,
224930088230001,Ichapur N. Ganj,22.825,88.38333333,,,,,,,,,,,,,,,,,,,,,0.55,1.25,0.1,,,,,,,,,0.83,,,,,,,,,,,,,,,,,,,,,,,,,,,,,,,,,,,,,,,,,,,,,,,,,,,,,,,,,,,,,,,,,,,,1.43,,,,,,,,,,,,,,,,,,,,
223155088421501,Ghusighata,22.53194444,88.70416667,,,,,,,,,,,,,,,,,,,,,,,2.83,,,3.18,,,,,,,,,,,,,,,,,,,,,,,,,2.59,,,,,,,,,,,,,,,,,,,,,,,,,,,,,,,,,,,,,,,,,,2.15,,2.17,2.17,3.7,5.26,,,2.88,5.74,,,2.57,,1.85,,3.95,,1.03,1.14,1.06,3.69,2.89,2.8,,,,
224409088302801,Bokanda,22.73583333,88.50777778,,,,,,,,,,,,,,,,,,,,,,,,,,4.61,1.31,2.36,3.72,5.96,1.76,3.11,5.01,5.12,3.16,1.2,3.48,4.78,1.91,1.29,3.7,6.57,3.9,2.75,3.7,5.37,3.67,2.97,4.21,5.8,1.77,3.29,4.65,5.68,3.65,2.98,3.82,6.33,1.42,2.97,3.99,5.49,2.33,3.77,4.85,6.45,9.64,4.5,2.03,,,,,,,4.78,,7.57,,,,,,,,,,,,,,,5,7.94,3.85,3.54,6.05,6.2,3.81,5.41,5.22,4.09,4.54,4.17,5.51,,3.36,2.22,5.79,,3.79,2.86,4.25,6.42,6.36,6.05,7.87,,,
225831088480401,Chandpara PZ,22.97527778,88.80111111,,,,,,,,,,,,,,,,,,,,,,,,,,5.2,1.64,1.45,3.44,4.6,1.67,2.07,5.2,4.79,1.07,1.7,4.37,5.5,1.64,1.78,4.42,5.4,3,1.95,3.12,5.02,2.55,2.4,4.37,,2.12,3.09,3.86,5.51,1.68,0.53,2.74,5.36,1.8,1.55,,5.12,1.87,2.46,3.95,5.29,5.4,3.75,,5.75,,,,,,3.41,4,5.78,,,,,,,,,,,,,1.74,,4.77,,,,,4.4,2.28,1.45,4.25,,4.53,,,,,,,,,,,,,,4.85,5.56,,
225550088251401,Halisahar,22.93055556,88.42055556,,,,,,,,,,,,,,,,,,,,,,,,,,2,0.01,0.38,1.21,2.37,0.12,0.96,2.02,2.22,0.03,0.21,1.27,1.19,0.15,0.45,1.01,0.93,0.3,0.15,1.56,1.63,0.5,1.05,2.13,3.65,0.2,1.39,1.49,1.4,0.41,0.25,1.17,1.34,0.6,0.85,1.43,1.13,0.25,1.3,,2.98,0.43,1,1.81,,,,,,,1.65,1.95,2.57,,,,,,,,,,,,,,,1.18,1.45,0.71,0.7,1.28,1.45,0.61,2.2,3.42,1.18,0.91,0.87,0.94,,0.8,3.88,1.45,,0.89,1.25,0.96,1.31,0.91,1.3,1.25,1.35,,
223808088530901,Raharhati,22.63555556,88.88583333,,,,,,,,,,,,,,,,,,,,,,,,,,4.41,3.51,2.33,3.33,5.41,3.46,4.01,3.63,4.75,,1.67,2.85,4.08,,1.66,2.74,4.61,2.7,2.02,,6.15,,,,,,,,,,,,,,,,,,,,,,,,,,,,,,,,,,,,,,,,,,,,,,,,,,1.15,2.48,3.45,,2.48,3.45,6.01,6.87,,,,,,,,,,,,,,8.83,9.02,,
223916088330001,Aminpur bazar,22.65444444,88.55,,,,,,,,,,,,,,,,,,,,,,,,,,,,,,,,,,,,,1.65,,,,2.08,5,1.71,2.08,3.42,5.58,2.15,1.05,2.15,3.65,1.13,2.6,3.77,3.28,2.14,1.3,2,4.02,,1.56,1.97,3.62,1.35,2.3,,4.01,5.65,1.62,3.1,3.98,,,,,,3.43,4.01,5.2,,,,,,,,,,,,,1.83,,,5.75,,1.81,3.32,4.9,1.9,2.85,4.55,5.38,5.28,1.73,2.97,,1.75,4.83,4.6,,1.42,1.35,2.77,4.58,2.3,4.35,5.58,4.93,,
225130088230201,Bidyadharpur,22.85833333,88.38388889,,,,,,,,,,,,,,,,,,,,,,,,,,,,,,,,,,,,,,,,8.74,10.02,12.4,10.37,,4.23,4.56,13,10.4,4.76,13.6,11.28,10.66,12.42,14.68,12.8,11,10.06,11.72,10.2,10.5,12.18,13.28,10.6,12.8,12.2,14.15,14.9,12.1,10.2,15.83,,,,,,12.47,13.64,16.23,,,,,,,,,,,,,12.98,,14.56,12.75,11.62,9.02,7.83,13.38,11.25,12.7,12.73,12.98,11.77,13.88,11.05,,12.5,5.19,10.59,,10.87,5.4,12.34,12.42,14.19,13.26,12.66,13.48,,
231108088483201,Gobrapur,23.18555556,88.80888889,,,,,,,,,,,,,,,,,,,,,,,,,,,,,,,,,,,,,,,,2.63,5.17,5.4,2.08,2.08,3.89,4.55,3.45,3.65,3.45,5.55,3.92,4.19,4.79,5.72,2.66,2.14,2.79,5.02,,1.03,4.06,5.26,2.68,2.65,,6.21,5.55,4.75,4.03,5.65,,,,,,4.45,6.46,5.82,,,,,,,,,,,,,1.74,3.92,4.15,5.65,3.33,3.53,4.48,4.76,2.13,4.56,8.15,5.49,4.89,3.88,4.59,,2.63,3.48,4.6,,2.25,,4.67,6.72,,,,,,
224833088345601,Guma,22.80916667,88.58222222,,,,,,,,,,,,,,,,,,,,,,,,,,,,,,,,,,,,,,,,5.75,6.41,8.5,4.74,4.34,4.85,4.02,4.2,3.75,5.75,3,4.98,4.14,6.2,7,6.3,2.3,3.21,3.96,3.9,2.16,2.96,6.71,5.13,4.5,,7.25,4.38,5.1,3.7,7.82,,,,,,4.2,,5.7,,,,,,,,,,,,,4.82,,7.84,9.86,4.21,4.42,,5.87,4.86,5.87,6.82,6.8,12.85,5.4,5.66,,4.87,3.4,,,4.65,6.4,4.84,6.74,7.06,6.59,9.22,11.3,,
223611088393401,Khalisadi More,22.60305556,88.65944444,,,,,,,,,,,,,,,,,,,,,,,,,,,,,,,,,,,,,,,,3.42,5.67,,1.5,4,4.05,5.59,4,3,4,6.1,4.02,3.94,3.11,6.8,4.02,3.25,4.57,5.65,,,4.72,5.92,3.98,3.6,2.8,7.01,6.9,4.4,5.5,6.55,,,,,,4.93,5.62,6.8,,,,,,,,,,,,,4.71,,6.4,7.75,,4.38,,7,3.86,4.19,0.92,6.67,5.22,4.68,2.43,,4.28,6.15,6.58,,4.14,4.05,5.08,6.56,6.11,6.36,16.7,,,
230938088472901,Krishnachandrapur,23.16055556,88.79138889,,,,,,,,,,,,,,,,,,,,,,,,,,,,,,,,,,,,,,,,6.55,3.11,5.65,1.89,1.53,1.58,5.17,3.5,3.1,3.5,6,1.78,3.23,4.38,,2.55,1.82,3.62,4.95,1.24,0.62,4,5.08,,3.25,,,6,4.37,3.54,5.34,,,,,,3.78,6.69,5.75,,,,,,,,,,,,,,,4.6,,,3.25,4.51,,,4.04,4.7,4.14,,3.64,4.28,,2.5,2.86,,,,,4.32,6.16,4.54,4.28,,5.37,,
224843088523501,Swarupnagar,22.81194444,88.87638889,,,,,,,,,,,,,,,,,,,,,,,,,,,,,,,,,,,,,,,,2.68,3.64,6.15,3.2,2.73,2.73,5.95,3,2.95,3,,2.19,3.89,4.95,5.73,3.13,2.54,3.85,5.36,3.7,3.63,4.2,5.17,3.21,3.65,4.55,5.92,,3.82,4.53,8.84,,,,,,,,,,,,,,,,,,,,,2.91,3.57,,5.9,2.28,,3.83,4.8,2.86,3.37,4.37,5.38,2.85,2.66,3.38,,3.79,2.91,5.58,,2.86,1.7,,,3.88,4.87,5.46,6.1,,
224216088352101,Badyadharpur,22.70444444,88.58916667,,,,,,,,,,,,,,,,,,,,,,,,,,,,,,,,,,,,,,,,,5.35,6.4,2.25,2.98,3.06,6.3,3.9,1,3.9,5.4,1.09,3.3,5.13,5.08,,,,,,,,,,,,,,,,5.07,,,,,,,,,,,,,,,,,,,,,,,10.7,,,,,,12.08,,,,,,,,,,,,,,,6.84,,7.37,,,,
224626088201701,Ichapur Nabaganj,22.77388889,88.33805556,,,,,,,,,,,,,,,,,,,,,,,,,,,,,,,,,,,,,,,,,,,8.13,6.62,0.7,,6.14,8.14,7.77,,7.23,3.56,4.51,7.66,,,7.33,8.34,8.59,8.71,9.05,7.43,,7.3,,,,,9.04,,,,,,,,,,,,,,,,,,,,,,,,25.7,2.16,,10.35,1.36,,0.93,,3.35,1.4,1.67,1.17,1.26,,1.13,6.91,1.65,,10.38,,1.21,,1.22,1.2,,,,
225656088253901,Kanchrapara OW1,22.94888889,88.4275,,,,,,,,,,,,,,,,,,,,,,,,,,,,,,,,,,,,,,,,,,,6.5,4.37,1.56,2.35,,1.55,6.85,,7.33,,3.91,8.3,,,5.52,,,,,8.08,,4.85,6.45,7.92,,2.65,6.31,3.43,,,,,,6.79,2.45,,,,,,,,,,,,,,0.79,,8.75,7.5,,1.05,,,1.83,12.31,2.35,7.18,8.93,2.59,2.89,,0.95,11.25,6.46,,5.25,0.98,1.3,1.94,1.54,2.05,2.34,2.48,,
222553088485901,Bayermari,22.43138889,88.81638889,,,,,,,,,,,,,,,,,,,,,,,,,,,,,,,,,,,,,,,,,,,,,2.05,3.22,2.33,2.03,2.18,4.73,2.45,2.84,2.67,,,,2.89,4.38,1.09,2.11,2.99,,,,4.83,6.9,5.21,,,,,,,,,2.43,6.05,,,,,,,,,,,,,,,,5.18,9.63,,4.81,9.56,7.93,5.45,5.07,4.63,6.8,5.28,5.59,5.07,,5.62,6.49,6.9,,,5.42,5.57,10.73,,,,,,
222522088580901,Sandelerbil,22.42277778,88.96916667,,,,,,,,,,,,,,,,,,,,,,,,,,,,,,,,,,,,,,,,,,,,,2.43,6.15,3.55,3.05,,4.18,1.31,,,3.97,3.2,2.21,3.19,,,,,,,2.9,4.1,4.25,,3.7,,,,,,,,,,,,,,,,,,,,,,,,,,6.73,5.93,,,5.17,,,,,,,,,,,,,7.8,,,,,8.52,,,,
222203088523601,Sandeskhali.f,22.3675,88.87666667,,,,,,,,,,,,,,,,,,,,,,,,,,,,,,,,,,,,,,,,,,,,,1.8,3.13,3.83,,3.83,3.68,1.87,,,3.62,,1.41,2.84,4.19,,,4.02,4.01,2.74,,,,5.86,3.61,,,,,,,,,,,,,,,,,,,,,,,,,,10.24,,5.56,10.2,9.54,2.56,,,10.94,9.25,6.09,2.42,,6.51,5.14,7.22,,8.26,1.55,4.96,11.98,2.25,7.44,11.89,1.84,,
224620088325501,Duttapukur,22.77222222,88.54861111,,,,,,,,,,,,,,,,,,,,,,,,,,,,,,,,,,,,,,,,,,,,,,,,6,7,9.3,6.58,6.22,7.42,10.28,,,6.09,8.37,6.05,4.76,6.92,8.65,8.1,5.5,7.2,10.15,5.95,,6.15,,,,,,,7.48,8.08,10.21,,,,,,,,,,,,,,,8.5,11.8,7.71,6.39,9.05,5.19,7.88,8.81,9.7,9.5,8.9,8.32,8.03,,6.8,4.05,9.36,,7.63,5.84,6.46,8.12,9.02,6.4,11.28,10.5,,
225421088424401,Berigopalpur,22.90583333,88.71222222,,,,,,,,,,,,,,,,,,,,,,,,,,,,,,,,,,,,,,,,,,,,,,,,,,,,3.46,4.47,5.82,,,4.23,,,0.94,2.23,5.73,2.04,2.5,5.15,5.45,4.14,1.14,5.9,,,,,,,2.57,2.84,,,,,,,,,,,,,,1.15,1.32,9.58,10.74,6.85,4.4,2.79,2.98,,,3.21,8,,,,,,,,,,,,,,,,,,
231226088550901,Bagdah OW,23.20722222,88.91916667,,,,,,,,,,,,,,,,,,,,,,,,,,,,,,,,,,,,,,,,,,,,,,,,,,,,,3.98,5.91,,,3.79,4.68,2.4,2.15,2.49,5.89,2.49,1.65,4.58,5.96,9.4,4.1,5.7,6.62,,,,,,3.72,4.2,4.63,,,,,,,,,,,,,,2.6,4.2,5.77,3.02,2.83,4.43,3.5,,,6.5,5.32,4.41,7.64,,,,,,,,,,,,,,,,
224050088343401,Pakdah,22.68055556,88.57611111,,,,,,,,,,,,,,,,,,,,,,,,,,,,,,,,,,,,,,,,,,,,,,,,,,,,,,,,,1.82,3.76,,,,,,2.4,2.65,4.75,,,,,,,,,,,,,,,,,,,,,,,,,,,,6.2,3.58,0.21,3.46,4.32,,,4.3,5.39,3.04,4.67,,,,,,,,,,,,,6.54,6.67,,
224431088392501,Amulia (Bargachia),22.74194444,88.65694444,,,,,,,,,,,,,,,,,,,,,,,,,,,,,,,,,,,,,,,,,,,,,,,,,,,,,,,,,,,,,,,,,,,,,,,,,,,,4,4.43,6.04,2.85,3.89,4.82,7.07,4.22,4.28,4.8,6.35,3.54,4.2,5.63,,,,,,,,,,,,,,,,,,,,,,,,,,,,8.07,7.69,,
231240088533901,Bagdah Ow,23.21111111,88.89416667,,,,,,,,,,,,,,,,,,,,,,,,,,,,,,,,,,,,,,,,,,,,,,,,,,,,,,,,,,,,,,,,,,,,,,,,,,,,3.72,4.2,4.63,4.1,2.45,3.87,5.84,2.2,3.2,4.4,5.6,2.86,2.9,4.37,,,,,,,,,,,,,,,,,,,,,,,,,,,,,,,
223310088491601,Bhebia,22.55277778,88.82111111,,,,,,,,,,,,,,,,,,,,,,,,,,,,,,,,,,,,,,,,,,,,,,,,,,,,,,,,,,,,,,,,,,,,,,,,,,,,3.27,6.65,6.4,3.37,3.93,4.67,5.4,2.4,3.6,4.7,5.4,2.85,3.1,4.7,,,,,,5.36,3.73,5.18,,,,,5.56,4.6,,,,3.46,,,,4.5,3.7,,,5.44,1.04,6.62,6.5,,
223701088302301,Bishnupur Ghoshpara,22.61694444,88.50638889,,,,,,,,,,,,,,,,,,,,,,,,,,,,,,,,,,,,,,,,,,,,,,,,,,,,,,,,,,,,,,,,,,,,,,,,,,,,7.67,6.76,,4.68,5.95,6.88,,,,7.49,,5.9,5.5,8.16,,,,,,,,,,,,,,,,,,,,,,,,,,,,8.91,,,
223552088315701,Chandpur(Atbele),22.59777778,88.5325,,,,,,,,,,,,,,,,,,,,,,,,,,,,,,,,,,,,,,,,,,,,,,,,,,,,,,,,,,,,,,,,,,,,,,,,,,,,1.3,1.65,3.36,1.98,0.53,1.3,2.2,2.2,1.38,2.57,2.5,1.2,1.6,2.55,,,,,,,,,,,,,,,,,,,,,,,,,,,,6.14,6.86,,
225027088460401,"Chatra,dantar Khana More",22.84083333,88.76777778,,,,,,,,,,,,,,,,,,,,,,,,,,,,,,,,,,,,,,,,,,,,,,,,,,,,,,,,,,,,,,,,,,,,,,,,,,,,3.55,5.11,7.03,4.53,2.63,3.88,4.58,2.49,2.42,3.85,5.55,4.95,2.35,3.15,,,,,,,,,,,,,,,,,,,,,,,,,,,,,,,
225402088420501,Dharampur2,22.90055556,88.70138889,,,,,,,,,,,,,,,,,,,,,,,,,,,,,,,,,,,,,,,,,,,,,,,,,,,,,,,,,,,,,,,,,,,,,,,,,,,,3.53,6.75,5.25,2.4,2.17,3.27,5.29,2.49,8.77,4.09,4.5,1.9,2.45,4.23,,,,,,,,,,,,,,,,,,,,,,,,,,,,,9.85,,
223814088271801,Gopalpur (Bablatala - Uda,22.63722222,88.455,,,,,,,,,,,,,,,,,,,,,,,,,,,,,,,,,,,,,,,,,,,,,,,,,,,,,,,,,,,,,,,,,,,,,,,,,,,,13.24,13.15,14.82,4.8,12.02,10.95,14.35,13.75,13.55,13.72,14.87,,,,,,,,,,,,,,,,,,,,,,,,,,,,,,,7.52,,,
223610088402201,Haroa2,22.60277778,88.67277778,,,,,,,,,,,,,,,,,,,,,,,,,,,,,,,,,,,,,,,,,,,,,,,,,,,,,,,,,,,,,,,,,,,,,,,,,,,,3.7,5.45,5.7,3.34,3.07,4.23,10.24,3.66,3.87,4.7,6,4.25,2.7,,,,,,,4.73,2.6,,,,,,,,,,,,,,,,,,,,,,,,
231124088513601,Helencha P.s.,23.19,88.86,,,,,,,,,,,,,,,,,,,,,,,,,,,,,,,,,,,,,,,,,,,,,,,,,,,,,,,,,,,,,,,,,,,,,,,,,,,,3.2,,6.19,3.79,2.31,3.62,5.24,2.33,1.85,4.11,5.29,3,3.09,2.42,,,,,,1.92,,2.82,3.08,2.61,2.58,,,,3.3,3.1,,1.27,,1.87,,,1.69,5.71,3.37,3.85,4.73,4.87,4.9,,
223023088440201,Minakhan Batala,22.50638889,88.73388889,,,,,,,,,,,,,,,,,,,,,,,,,,,,,,,,,,,,,,,,,,,,,,,,,,,,,,,,,,,,,,,,,,,,,,,,,,,,1.46,2.5,5.71,,,,6.98,2.76,2.05,3.79,3.5,5.83,2.2,5.73,,,,,,,2.64,,,,,,,,,,,,,,,,,,,,,6.78,,,
225406088322201,Moricha (Gadamara Hat),22.90166667,88.53944444,,,,,,,,,,,,,,,,,,,,,,,,,,,,,,,,,,,,,,,,,,,,,,,,,,,,,,,,,,,,,,,,,,,,,,,,,,,,5.12,5.57,7.57,3.02,4.18,5.64,7.47,3.9,4.7,5.67,7.3,3.5,7.9,5.65,,,,,,,,,,,,,,,,,,,,,,,,,,,,8.68,,,
225946088422901,Nahata Ow,22.99611111,88.70805556,,,,,,,,,,,,,,,,,,,,,,,,,,,,,,,,,,,,,,,,,,,,,,,,,,,,,,,,,,,,,,,,,,,,,,,,,,,,4.3,4.6,6.15,3.7,3.93,3.75,5.7,2.82,3.31,4.49,5.45,4.28,3.55,4.33,,,,,,,,,,,,,,,,,,,,,,,,,,,,,,,
231157088550001,Netaji Palli (Mama-Bhaghn,23.19916667,88.91666667,,,,,,,,,,,,,,,,,,,,,,,,,,,,,,,,,,,,,,,,,,,,,,,,,,,,,,,,,,,,,,,,,,,,,,,,,,,,2.96,5.3,4.75,3.53,1.65,2.97,5.03,1.8,2.39,3.76,4.9,2.13,3.4,3.55,,,,,,,,,,,,,,,,,,,,,,,,,,,,,,,
230213088442901,Palla1,23.03694444,88.74138889,,,,,,,,,,,,,,,,,,,,,,,,,,,,,,,,,,,,,,,,,,,,,,,,,,,,,,,,,,,,,,,,,,,,,,,,,,,,4.92,5.66,6.95,4.65,2.98,4.78,6.86,3.5,4.07,5.61,5.8,3.37,4.1,5.22,,,,,,,,,,,,,,,,,,,,,,,,,,,,,,,
224907088304901,Rafipur,22.81861111,88.51361111,,,,,,,,,,,,,,,,,,,,,,,,,,,,,,,,,,,,,,,,,,,,,,,,,,,,,,,,,,,,,,,,,,,,,,,,,,,,7.97,8.85,11.29,2.83,5.92,7.88,12.93,8.59,8.19,9.35,10.95,3.42,8.45,10.17,,,,,,,,,,,,,,,,,,,,,,,,,,,,,13.05,,
224735088500201,Ramchandrapur1,22.79305556,88.83388889,,,,,,,,,,,,,,,,,,,,,,,,,,,,,,,,,,,,,,,,,,,,,,,,,,,,,,,,,,,,,,,,,,,,,,,,,,,,2.52,,5.25,2.9,1.45,2.97,5.28,,,,,4.05,3.25,3.52,,,,,,,,,,,,,,,,,,,,,,,,,,,,,,,
225134088321601,Sirasini More (Jirat Mark,22.85944444,88.53777778,,,,,,,,,,,,,,,,,,,,,,,,,,,,,,,,,,,,,,,,,,,,,,,,,,,,,,,,,,,,,,,,,,,,,,,,,,,,9.04,9.44,12.54,3.3,3.78,5,5.7,9.5,9,9.75,13,3.75,8.8,9.95,,,,,,,,,,,,,,,,,,,,,,,,,,,,,,,
224612088513601,Tentulia,22.77,88.86,,,,,,,,,,,,,,,,,,,,,,,,,,,,,,,,,,,,,,,,,,,,,,,,,,,,,,,,,,,,,,,,,,,,,,,,,,,,3.12,,7.7,7.75,3.75,5.33,5.97,3.65,7.02,9.75,7.9,8.85,3.6,6.81,,,,,,,,,,,,,,,,,,,,,,,,,,,,9.43,,,
225540088463001,Thakurnagar (Taltala More,22.92777778,88.775,,,,,,,,,,,,,,,,,,,,,,,,,,,,,,,,,,,,,,,,,,,,,,,,,,,,,,,,,,,,,,,,,,,,,,,,,,,,3.4,,5.09,4.52,1.23,2.85,5,2.04,2.36,3.6,4.24,1.52,2.25,3.59,,,,,,,,,,,,,,,,,,,,,,,,,,,,,,,
223224088504901,Nawapara2,22.54,88.84694444,,,,,,,,,,,,,,,,,,,,,,,,,,,,,,,,,,,,,,,,,,,,,,,,,,,,,,,,,,,,,,,,,,,,,,,,,,,,,3.93,5.02,3.15,2.77,3.97,3.5,1.33,,,3.35,2.1,2.45,2.2,,,,,,,,,,,,,,,,,,,,,,,,,,,,,,,
224633088295901,Santoshpur,22.77583333,88.49972222,,,,,,,,,,,,,,,,,,,,,,,,,,,,,,,,,,,,,,,,,,,,,,,,,,,,,,,,,,,,,,,,,,,,,,,,,,,,,8.21,,8.98,8.54,8.82,7.57,8.91,,,,10.1,7.1,4.75,,,,,,,,,,,,,,,,,,,,,,,,,,,,8.95,10.35,,
230312088495501,Bongaon (Kuthibari),23.05333333,88.83194444,,,,,,,,,,,,,,,,,,,,,,,,,,,,,,,,,,,,,,,,,,,,,,,,,,,,,,,,,,,,,,,,,,,,,,,,,,,,,,5.4,3.1,2.92,2.66,5.42,1.9,3.3,4.5,4.8,2.82,3.3,4.57,,,,,,,2.99,4.23,,3.13,4.02,4.6,5.77,4.16,0.94,4.4,,2.11,3.89,3.97,,1.97,2.07,2.75,4.26,4.1,4.37,4.94,4.72,,
231241088584301,Boyra,23.21138889,88.97861111,,,,,,,,,,,,,,,,,,,,,,,,,,,,,,,,,,,,,,,,,,,,,,,,,,,,,,,,,,,,,,,,,,,,,,,,,,,,,,4.35,2.05,2.22,3.34,4.5,0.85,2.79,3.75,4.15,2.62,2.75,2.9,,,,,,2,1.97,2.88,,1.84,3.05,3.95,,,2.66,4.01,,1.81,2.9,3.56,,2.15,,2.35,4.19,3.99,2.39,4.55,6.94,,
224916088473301,Chandipur2,22.82111111,88.7925,,,,,,,,,,,,,,,,,,,,,,,,,,,,,,,,,,,,,,,,,,,,,,,,,,,,,,,,,,,,,,,,,,,,,,,,,,,,,,4.05,2.2,0.73,2.37,3.8,1.35,1.59,2.85,3.65,2.95,1.9,2.75,,,,,,1.38,1.59,2.87,4.19,,2.64,1.47,4.17,2.46,2.12,2.88,,0.85,3.25,3.51,,1.93,1.85,2.55,3.78,2.8,4.32,4.4,5.96,,
225523088450201,Gobardanga1,22.92305556,88.75055556,,,,,,,,,,,,,,,,,,,,,,,,,,,,,,,,,,,,,,,,,,,,,,,,,,,,,,,,,,,,,,,,,,,,,,,,,,,,,,4.88,2.85,1.72,3.48,4.5,1.95,2.12,3.08,5.05,1.35,2.95,,,,,,,1.15,,,,,,,,,,,,,,,,,1.7,,,,,4.78,5.55,,
230217088522501,Jayantipur Bazar (Petrapo,23.03805556,88.87361111,,,,,,,,,,,,,,,,,,,,,,,,,,,,,,,,,,,,,,,,,,,,,,,,,,,,,,,,,,,,,,,,,,,,,,,,,,,,,,6.4,4.32,4.17,5.38,6.8,4.9,5.15,3.47,6.7,4,4.2,5.77,,,,,,,3.94,5.55,,4.08,4.94,6,6.47,5.13,4.14,5.44,,3.17,1.01,5.41,,3.53,4.5,4.42,6.44,6.1,8.5,5.12,,,
225743088440201,Rajapur2,22.96194444,88.73388889,,,,,,,,,,,,,,,,,,,,,,,,,,,,,,,,,,,,,,,,,,,,,,,,,,,,,,,,,,,,,,,,,,,,,,,,,,,,,,4.18,2.53,3.2,4.64,3.29,1.08,1.55,2.88,4.2,3.18,1.55,2.7,,,,,,0.98,1.35,,,1.46,2.1,2.44,3.21,5.6,3.93,2.17,,0.11,0.89,2.42,,0.59,6.65,1.36,2.84,1.51,2.25,,,,
224050088422501,Ambikanagar1,22.68055556,88.70694444,,,,,,,,,,,,,,,,,,,,,,,,,,,,,,,,,,,,,,,,,,,,,,,,,,,,,,,,,,,,,,,,,,,,,,,,,,,,,,,,,,,,,4.88,,3.65,,,,,,,,,,,,,,,,,,,,,,,,,,,,,,6.95,,,
222624088584801,Bankra1,22.44,88.98,,,,,,,,,,,,,,,,,,,,,,,,,,,,,,,,,,,,,,,,,,,,,,,,,,,,,,,,,,,,,,,,,,,,,,,,,,,,,,,,,,,,,4.94,9.7,,6.2,7.45,,,,,,7.85,7.42,,,,,,,,,,,,,,,9.94,,,9.32,11.56,,16.81,,,
230019088421601,Bhandarkola,23.00527778,88.70444444,,,,,,,,,,,,,,,,,,,,,,,,,,,,,,,,,,,,,,,,,,,,,,,,,,,,,,,,,,,,,,,,,,,,,,,,,,,,,,,,,,,,,4.95,5.25,3,,,,,,,,,,,,,,,,,,,,,,,,,,,,,,5.57,,,
225835088410001,Chauberia,22.97638889,88.68333333,,,,,,,,,,,,,,,,,,,,,,,,,,,,,,,,,,,,,,,,,,,,,,,,,,,,,,,,,,,,,,,,,,,,,,,,,,,,,,,,,,,,,4.84,4.4,3.7,,,,,,,,,,,,,,,,,,,,,,,,,,,,,,5.4,5.72,,
230525088510001,Dharampukur,23.09027778,88.85,,,,,,,,,,,,,,,,,,,,,,,,,,,,,,,,,,,,,,,,,,,,,,,,,,,,,,,,,,,,,,,,,,,,,,,,,,,,,,,,,,,,,4.64,5.7,,,,,,,,,,,,,,,,,,,,,,,,,,,,,,,4.82,4.87,,
230354088463101,Gopalnagar1,23.065,88.77527778,,,,,,,,,,,,,,,,,,,,,,,,,,,,,,,,,,,,,,,,,,,,,,,,,,,,,,,,,,,,,,,,,,,,,,,,,,,,,,,,,,,,,4.35,5,3.06,,,,,,,,,,,,,,,,,,,,,,,,,,,,,,4.48,4.35,,
231120088533501,Helencha1,23.18888889,88.89305556,,,,,,,,,,,,,,,,,,,,,,,,,,,,,,,,,,,,,,,,,,,,,,,,,,,,,,,,,,,,,,,,,,,,,,,,,,,,,,,,,,,,,3.7,5.2,3.12,,,,,,,,,,,,,,,,,,,,,,,,,,,,,,,,,
230057088502601,Kalupur Dakshinpara,23.01583333,88.84055556,,,,,,,,,,,,,,,,,,,,,,,,,,,,,,,,,,,,,,,,,,,,,,,,,,,,,,,,,,,,,,,,,,,,,,,,,,,,,,,,,,,,,3.46,3.3,1.15,,,,,,,,,,,,,,,,,,,,,,,,,,,,,,3.72,3.22,,
230413088445601,Kansona,23.07027778,88.74888889,,,,,,,,,,,,,,,,,,,,,,,,,,,,,,,,,,,,,,,,,,,,,,,,,,,,,,,,,,,,,,,,,,,,,,,,,,,,,,,,,,,,,5.12,6.35,3.12,,,,,,,,,,,,,,,,,,,,,,,,,,,,,,5.29,4.95,,
230848088505301,Kundipur,23.14666667,88.84805556,,,,,,,,,,,,,,,,,,,,,,,,,,,,,,,,,,,,,,,,,,,,,,,,,,,,,,,,,,,,,,,,,,,,,,,,,,,,,,,,,,,,,5.45,6,3.83,,,,,,,,,,,,,,,,,,,,,,,,,,,,,,5.92,5.87,,
225640088503701,Ramchandrapur2,22.94444444,88.84361111,,,,,,,,,,,,,,,,,,,,,,,,,,,,,,,,,,,,,,,,,,,,,,,,,,,,,,,,,,,,,,,,,,,,,,,,,,,,,,,,,,,,,0.3,3.3,3.13,,,,,,,,,,,,,,,,,,,,,,,,,,,,,,,3.94,,
225254088503701,Sutia,22.88166667,88.84361111,,,,,,,,,,,,,,,,,,,,,,,,,,,,,,,,,,,,,,,,,,,,,,,,,,,,,,,,,,,,,,,,,,,,,,,,,,,,,,,,,,,,,2.95,3.65,2.35,,,,,,,,,,,,,,,,,,,,,,,,,,,,,,4.6,,,
223135088520001,Dakhin Akartala,22.52638889,88.86666667,,,,,,,,,,,,,,,,,,,,,,,,,,,,,,,,,,,,,,,,,,,,,,,,,,,,,,,,,,,,,,,,,,,,,,,,,,,,,,,,,,,,,,,,,,,,,,,,,7.59,3.08,3.81,3.67,5.81,8.58,5.62,3.81,3.42,,5.42,10.8,8.75,,4.99,3.84,4.05,10.77,7.97,6.91,10.49,,,
