station_id,station_name,latitude,longitude,1994_season1,1994_season2,1994_season3,1994_season4,1995_season1,1995_season2,1995_season3,1995_season4,1996_season1,1996_season2,1996_season3,1996_season4,1997_season1,1997_season2,1997_season3,1997_season4,1998_season1,1998_season2,1998_season3,1998_season4,1999_season1,1999_season2,1999_season3,1999_season4,2000_season1,2000_season2,2000_season3,2000_season4,2001_season1,2001_season2,2001_season3,2001_season4,2002_season1,2002_season2,2002_season3,2002_season4,2003_season1,2003_season2,2003_season3,2003_season4,2004_season1,2004_season2,2004_season3,2004_season4,2005_season1,2005_season2,2005_season3,2005_season4,2006_season1,2006_season2,2006_season3,2006_season4,2007_season1,2007_season2,2007_season3,2007_season4,2008_season1,2008_season2,2008_season3,2008_season4,2009_season1,2009_season2,2009_season3,2009_season4,2010_season1,2010_season2,2010_season3,2010_season4,2011_season1,2011_season2,2011_season3,2011_season4,2012_season1,2012_season2,2012_season3,2012_season4,2013_season1,2013_season2,2013_season3,2013_season4,2014_season1,2014_season2,2014_season3,2014_season4,2015_season1,2015_season2,2015_season3,2015_season4,2016_season1,2016_season2,2016_season3,2016_season4,2017_season1,2017_season2,2017_season3,2017_season4,2018_season1,2018_season2,2018_season3,2018_season4,2019_season1,2019_season2,2019_season3,2019_season4,2020_season1,2020_season2,2020_season3,2020_season4,2021_season1,2021_season2,2021_season3,2021_season4,2022_season1,2022_season2,2022_season3,2022_season4,2023_season1,2023_season2,2023_season3,2023_season4
121140075275501,Alacode,12.19444444,75.46527778,,,,,,,,,13.57,13.2,10.3,12.4,12.7,12.9,8.79,11.85,13.2,13.5,8.56,12.7,12.7,13.35,9.02,12.4,13.07,13.06,7.34,12.76,12.6,12.46,9.35,12.02,12.53,12.32,12.06,12.06,12.11,12.72,8.97,11.47,12.71,12.04,11.7,11.93,12.7,12.46,11.75,12.05,12.73,12.56,11.91,11.12,12.6,12.67,11.6,12.13,12.9,11.83,12.05,12.15,12.05,12.2,10.01,9.6,,,,,,10.97,7.54,7.05,10.92,11.25,,7.36,10.83,,9.55,10.45,10.88,12.3,,7.9,11.05,,,,,,,,,,,,,,,,,,,,,,,,,,,,,11.65,,,10.75,,,
115300075283001,Chakkarakkale,11.88333333,75.475,,,,,,,,,5.17,7.85,5.85,6.6,6,7.4,4.61,7,7.25,8.5,6.54,7,8.4,12.35,6.87,8,9.8,12.52,6.57,8.61,9.79,12.51,6.45,8.5,9,12.52,6.59,7.36,8.99,11.42,6.91,7.36,9.03,12.5,6.81,7.53,10.5,,7.4,7.96,9.47,12.2,6.72,7.02,8.8,12.14,6.7,7.74,9.53,10.13,7.32,2.98,9.45,12,6.73,7.62,8.92,11.77,6.4,7.92,9.51,11.74,6.6,7.4,8.95,12.2,,8.38,9.4,10.2,7.55,8.14,9.04,10.5,6.75,7.7,9.04,11.81,7.45,7.6,,,,8.35,9.15,11.99,7.2,8.13,9.8,12.76,7.43,8.65,10.89,11.65,5.97,7.64,,,,7.95,9.3,,6.3,6.85,8.75,10.2,6.41,9,9.78,10.75,,
115625075253001,Cheleri,11.94027778,75.425,,,,,,,,,12.65,15.6,9.14,10.3,11.9,13.5,8.02,11,12.03,13.6,9.6,10,11.5,13.45,8.8,10.7,12.45,13.83,9.18,10.74,12.12,13.91,8.52,10.78,11.8,13.55,8.97,10.12,12.01,13.69,8.94,10.16,9.83,14.4,8.84,11.18,10.5,13.82,9.6,10.95,12.14,13.8,8.35,9.78,11.45,13.44,8.82,10.4,12,13.14,9.12,9.92,12.01,14.45,9.81,10.88,11.61,13.8,9.3,10.7,11.74,13.42,8.9,10.65,12.35,14,,11.44,12.17,13.75,9.71,10.52,11.44,14.17,8.82,10.9,12.72,15.14,9.15,10.3,,,9.61,12.1,12.73,14.5,9.6,10.6,12.32,13.8,9.45,11.48,12.83,14.68,8.35,9.68,11.57,,,9.22,12.16,,9.1,9.95,11.7,16.3,8.77,12.3,10.42,14.42,,
120730075245001,Chepparapadavu,12.125,75.41388889,,,,,,,,,3.72,4.95,2.49,3,3.5,4.4,2.14,2.69,3.27,4.3,2.2,3,3.25,4.27,2.42,2.85,3.62,4.12,2.29,3.19,3.66,4.16,2.78,3.13,3.4,4.26,3.01,3.08,3.57,4.23,2.41,4.01,5.33,3.98,2.76,3.03,3.6,4,2.65,2.9,3.52,4.29,2.82,2.89,3.4,4.72,2.38,2.76,3.35,3.16,3.3,2.98,3.53,3.75,2.71,3.22,3.31,3.62,2.58,2.88,3.53,3.74,2.7,2.8,3.48,,,4.3,2.4,4.46,2.63,3.08,4.32,4.25,2.52,3.55,3.42,4.01,2.6,3.1,,,2.5,3.1,4.3,4.23,2.1,2.53,3.35,3.65,2.4,2.61,3.25,5.12,1.78,4.25,3.04,,,2.7,,,2.31,2.1,3.19,3.7,2.42,2.9,3.42,4,,
120430075160001,Cheruthazam,12.075,75.26666667,,,,,,,,,8.91,12.62,6.4,7.85,8.55,10.65,5.19,8.1,8.4,10.35,5,7,8.45,10.05,5.65,7.9,8.75,10.56,1.53,8.13,8.63,9.98,7.03,8.35,8.75,10.29,7.04,7.77,8.64,10.09,5.3,7.51,8.29,12.18,7.03,7.28,9.7,10.29,7.65,8.23,8.71,10.32,7.19,8.12,8.65,10.06,5.77,8.13,8.65,8.63,7.69,8.32,9.54,,6.93,8.29,8.69,10.3,6.83,8.13,8.83,9.85,6.95,8.1,8.77,10.81,,6.38,8.85,10.61,7.7,8.11,8.76,12.99,6.27,8.1,8.85,9.85,6.6,7.85,,,7.55,8.7,9.35,13.11,6.8,8.2,9.37,11.95,7.63,8.23,9.01,12.61,4.09,7.79,8.65,,,8.53,8.85,,7.05,6.83,8.66,10.05,4.68,6.05,8.92,10.85,,
121210075174501,Chural,12.20277778,75.29583333,,,,,,,,,6.51,6.75,2.05,5.35,6.15,6.85,1.26,5.74,6.9,,0.29,5.35,6.4,7.3,0.97,4.05,6.35,6.23,0.47,5.43,6.33,6.71,3.21,4.7,6.25,6.64,4.58,5.43,6.4,7.15,1.95,6.81,8.58,7.5,3.77,3.93,6.55,7.04,4.55,4.6,6.46,7.29,4.64,5.78,6.45,7.27,2.19,3.61,6.55,3.59,4.89,5.46,6.43,6.49,1.99,2.11,6.29,6.4,2.04,5.23,6.53,6.49,3.05,2.53,6.55,6.65,,2.2,6.58,7.05,5.55,6.26,6.54,7.6,4.54,5.7,8.76,8.57,3.48,6.35,,,4.79,6.65,6.95,8,3.3,6.01,6.9,7.83,4.7,6.4,6.85,8.83,2.15,5.8,6.65,,,6.55,6.75,,3.2,3.95,7.03,10.78,3.07,7.35,7.67,9.2,,
114830075263001,Edakkad,11.80833333,75.44166667,,,,,,,,,3.02,2.31,0.86,1.36,1.86,2.16,0.17,1.31,1.66,1.41,0.98,1.16,1.66,2.11,0.98,1.01,1.9,2.14,0.77,1.46,1.78,2.25,0.86,1.38,1.72,2.34,1.07,0.92,2.02,2.28,0.77,2.77,2.37,2.31,0.74,0.94,1.96,2.03,1.01,0.73,1.72,2.14,0.89,1,2.01,2.23,0.84,0.85,2.18,1.68,0.88,1.15,1.87,2.29,0.67,1.02,1.7,2.46,0.8,0.93,1.84,2.1,,0.91,2.06,2.66,,1.56,2.27,2.56,1.16,1.63,2.06,2.31,0.68,1.53,2.3,2.95,0.86,0.86,,,0.76,1.81,2.31,2.49,0.61,1.2,2.24,3.26,0.76,1.28,1.97,2.88,0.73,0.92,1.64,,,1.16,1.11,,0.74,0.46,1.67,1.76,,0.91,1.86,2.29,,
115550075310001,Edayannur,11.93055556,75.51666667,,,,,,,,,5.06,5.45,3.45,4.65,5.05,4.65,3.15,4.21,4.84,5.1,3.89,4.75,4.89,2.3,3.37,4.6,4.95,5.24,2.93,4.77,5.02,5.11,3.67,4.67,4.87,5.14,4.27,4.76,4.94,5.17,3.2,4.6,4.17,5.03,3.82,4.43,4.75,4.89,4,4.34,4.67,4.92,3.92,4.04,4.6,4.93,3.17,3.92,4.76,4.7,3.82,4.05,4.71,4.97,3.69,4.36,4.62,4.85,2.69,4.41,4.45,4.86,3.65,4.2,4.74,5.1,,4.65,4.75,5,4.1,4.45,4.78,5.22,3.97,4.35,4.86,5.52,4.9,4.5,,,3.75,4.65,4.9,5.11,3.35,5.08,5.49,5.57,3.82,4.46,4.69,5.02,2.58,4.28,4.7,,,5.5,4.93,,2.55,3.36,4.22,5.1,3.37,4.8,4.92,4.86,,
115850075320001,Irikkur,11.98055556,75.53333333,,,,,,,,,6.65,8,2.32,4.35,5.3,8.05,1.35,4.26,5.66,7.8,2.46,4.35,5.3,7.8,2.09,4.67,6.7,7.63,1.89,4.83,5.45,8.01,2.09,4.35,5.23,7.85,3.19,4.08,5.32,7.97,1.96,5.72,4.84,6.72,2.83,4.28,7.55,6.87,3.2,4.55,5.73,7.19,3.38,3.64,5.1,6.59,2.93,3.63,6.25,5.27,3.47,3.95,5.23,6.85,3.27,4.49,5.21,6.03,1.89,3.67,4.87,6.17,2.81,4.35,5.75,5.45,,4.4,6.35,6.38,3.65,4.59,5.29,6.77,3.17,4.13,5.1,6.93,3.5,4.65,,,3.18,5.12,6.06,7.53,5.66,4.54,5.79,6.63,3.62,4.95,6.24,7.19,2.31,3.9,5.76,,,4.95,5.47,,2.35,3,5.1,5.15,2.23,4.65,5.69,7.14,,
120930075135001,Kankole,12.15833333,75.23055556,,,,,,,,,1.1,1.5,0.9,2,1.25,2.45,0.38,1.22,1.41,2.25,0.69,1.05,1.25,2.45,0.89,0.9,1.31,1.52,0.83,1.23,1.37,,,,,,,,,,,2.43,2.54,,,,,,,,,,,,,,,,,,,,,,,,,,,,,,,,,,,,,,,,,,,,,,,,,,,,,,,,,,,,,,,,,,,,,,,,,9,,,11.2,,,
115840075183001,Kannapuram,11.97777778,75.30833333,,,,,,,,,2.75,3.37,1.6,2.15,2.55,3.05,1.29,2.11,2.41,3.05,1.47,2,2.25,3.05,1.02,1.67,2.55,3.09,0.92,2.04,2.39,2.96,1.52,2.09,2.48,3.01,1.56,1.87,2.39,3.01,1.43,2.81,2.86,2.24,1.27,3.98,2.45,2.99,1.8,2.05,2.43,2.36,1.72,1.79,2.35,3.04,1.17,1.71,2.43,2.25,1.61,1.6,2.43,3.13,1.55,2.15,2.39,2.99,1.36,1.79,2.27,2.89,1.27,1.8,2.45,3.15,,2.15,2.55,2.97,1.81,2.17,2.49,3.28,1.58,1.8,2.4,2.87,1.45,1.95,,,1.7,2.35,2.7,3.08,1.35,1.75,2.39,2.92,1.47,1.83,2.37,2.98,0.75,1.53,2.18,,,1.7,2.3,,1.35,1.23,2.25,2.85,1.21,2.25,2.17,2.73,,
115050075403001,Kannavam,11.84722222,75.675,,,,,,,,,5.11,7,4.06,4.8,5,5.4,2.62,4.68,4.86,6.2,3.37,4.8,4.88,6.04,3.32,4.52,4.95,6.23,2.26,4.79,4.98,6.46,3.28,4.87,4.98,6.18,4.32,4.78,4.92,6.1,3.3,5.15,5.63,6.12,2.98,4.13,5,5.41,4.1,4.4,4.93,5.74,4.04,4.26,4.9,5.84,3.92,4.44,5.1,5.24,4.31,4.65,4.91,5.42,3.46,4.51,4.84,5.01,3.74,4.61,4.91,5.14,3.23,3.7,7.24,6.02,,6,5.3,6.23,4.7,5.18,5.44,6.19,4.19,5.14,5.46,5.52,4.27,4.8,,,4.5,5.16,5.4,7.83,3.2,5.05,5.37,5.98,3.16,4.99,5.49,6.39,0.98,4.79,5.37,,,5.1,5.02,,2.45,4.6,5.3,5.86,4.1,5.06,6.35,6.96,,
115230075215001,Kannur,11.875,75.36388889,,,,,,,,,10.7,12.25,6,7.15,9.25,12.25,4.32,9.98,7.97,13.9,5.99,6.65,10.85,12.59,5.72,5.62,7.77,13.43,3.37,7.84,7.67,12.46,5.17,8.05,12.75,13.17,,8.25,,,,8.44,,8.48,,8.03,9.05,8.99,8.15,7.92,8.56,9.19,7.18,7.98,8.7,8.83,7.53,8.08,9.55,8.43,7.99,7.84,8.94,9.15,7.72,8.23,8.88,10.38,7.47,7.85,9.08,10.39,7.57,8.45,8.9,14.25,,8.3,8.83,9.51,7.89,8.31,9.19,10.24,7.89,7.96,8.6,9.93,7.85,7.9,,,8.45,8.75,8.9,8.99,7.95,8.43,9.03,8.45,7.95,8.31,9.9,8.3,6.49,7.85,8.59,,,8.45,8.45,,6.8,6.8,8.75,9.35,6.67,9.5,8.5,,,
115058075435001,Kommeri,11.84944444,75.73055556,,,,,,,,,4.7,7.3,3.4,4,4.5,4.6,2.21,3.82,4.35,3.95,3.14,3.9,4.44,4.59,2.76,3.8,4.55,4.64,2.42,4,4.96,4.55,3.05,4.23,4.8,4.72,3.4,3.92,4.36,4.54,2.62,4.26,4.63,4.7,3.2,3.53,4.4,4.2,3.5,4,4.44,4.52,3.48,3.06,4.3,4.43,3.38,3.78,4.54,4.61,3.59,3.92,4.44,4.33,3.03,3.98,4.21,4.26,3.11,3.34,4.37,4.71,3.05,3.7,4.33,4.65,,4.2,4.95,4.63,3.07,4.1,4.56,4.45,3.52,4.16,4.36,4.72,3.6,3.7,,,3.7,4.3,3.53,4.12,3,4.13,4.43,3.72,2.98,4.11,4.42,4.64,1.69,4.19,3.42,,,4.25,4.29,,2.4,3.7,4.41,3.4,3.2,4.11,4.51,4.55,,
115140075514001,Kottiyur,11.86111111,75.86111111,,,,,,,,,7.5,7.55,7.13,7.3,7.35,7,5.77,7.25,7.28,8.05,7.15,7.4,7.3,8.04,7.08,7,7.16,8.11,4.71,7.02,7.4,8.47,6.68,7.35,6.96,7.87,7.11,7.02,7.18,7.98,6.92,8.39,9.18,8.02,6.82,6.88,6.9,8.11,7.05,7.15,7.12,8.07,7.05,7.34,7.1,8.17,7.1,7.02,6.91,7.27,7.13,6.05,10.02,8.44,6.77,7.02,7.07,7.87,6.38,7.28,8,6.08,6.7,7.1,7.9,8.2,,6.9,6.92,6.96,7.23,7.22,7.64,7.28,7.33,7.44,7.19,7.35,7.23,7.1,,,7.17,7.2,7.28,8.34,7.28,7.04,7.91,8.18,7.56,7.25,7.38,8.46,3.99,6.42,7.59,,,6.7,7.42,,7,7.01,7.15,7.15,7.8,7.01,7.12,8.8,,
121720075270501,Kozhichal,12.28888889,75.45138889,,,,,,,,,7.12,7.55,4.85,6.4,7.6,7.2,3.21,2.8,3.1,7.15,2.8,6.4,6.75,7.25,4.37,5.92,6.33,7.72,3.57,6.42,6.22,6.56,3.22,5.78,5.94,6.6,5.36,5.21,6.18,6.44,4.02,5.46,6.07,3.19,4.96,4.73,6.05,6.58,5.2,5.09,6.07,6.81,5.4,5.16,6.6,6.64,4.68,5.24,6.2,6.3,5.36,2.73,3.1,6.82,5.56,5.72,6.46,3.47,1.74,5.54,5.99,7.06,3.23,4.7,6.1,6.8,,5.04,6.33,6.7,5.5,5.61,6.31,5.33,3.68,4.8,6.73,7.01,4.85,4.9,,,4.8,5.5,5.9,6.31,1.93,5.18,6,6.5,4.75,5.05,5.75,6.04,3.75,4.98,5.64,,,5.1,5.77,,4.18,4.4,5.71,6.3,4.22,5.65,5.52,6.2,,
115430075453001,Manattana,11.90833333,75.75833333,,,,,,,,,2.94,2.9,0.85,2.5,3.1,4.1,0.12,4.32,2.97,4.7,0.82,2.7,3,5.14,1.17,2.2,3.38,5.67,0.59,3.08,3.59,5.71,0.84,2.8,3.3,5.51,2.61,2.38,3.46,4.32,1.05,3.68,4.56,5.1,2.07,2.63,3.8,5.1,2.2,2.77,3.19,4.83,2.16,1.55,2.95,4.81,2.31,2.52,3.22,4.09,2.52,3.49,3.96,,0.94,2.48,2.61,3.95,0.43,0.6,2.71,3.02,0.75,2.26,2.81,4.38,,2.52,2.94,3.5,2,2.49,2.78,4.49,2.2,2.67,3.12,3.57,2.28,2.35,,,2.3,3,3.35,4.11,1.24,2.83,3.15,4.15,2.72,2.95,3.27,4.56,0.62,2.79,3.28,,,3.07,2.97,,1.55,4.76,4.2,3.18,3.7,2.92,3.5,4.9,,
120759075180201,Mathamangalam1,12.13305556,75.30055556,,,,,,,,,6.65,7.6,0.3,3.3,6.7,7.7,0.01,3.95,5.98,8.05,0.7,0.9,6.6,8.85,0.47,0.8,6.96,7.59,0.03,3.28,6.38,7.54,0.25,2.73,6.2,7.52,0.38,1.48,6.22,7.61,0.08,7.04,,7.34,0.16,0.67,6.49,7.71,0.35,3.02,6.08,7.8,0.12,3.45,6.25,7.64,0.12,0.06,6,4.8,0.66,2.28,5.11,7,0.22,0.35,,7.01,0.05,1.08,5.52,6.48,0.1,1.55,7.6,,,5.23,6.85,6.75,1.1,4.7,5.69,7.28,0.66,,,0.03,0.03,3.2,,,0.1,5.5,5.4,8.7,0.05,3.7,6.06,6.87,0.54,5.78,7.06,8.88,0.28,0.83,5.68,,,3.52,6.48,,0.05,1.83,,6.6,0.47,5.1,7.2,,,
115500075341501,Mattanur,11.91666667,75.57083333,,,,,,,,,10.42,13.3,4.5,6.7,8.2,10.5,3.92,6.13,7.57,10.9,4.88,6.3,8.3,11.85,3.77,5.9,8.7,13.38,3.64,7.08,9.31,13.71,4.29,7.33,8.51,13.58,5.02,5.27,8.26,12.92,4.02,7.98,8.88,14,4.98,6.08,10.65,13.8,5,6.06,8.09,12.57,4.24,5.41,9.9,8.78,4.22,6.22,8.2,7.83,5.12,5.85,7.76,7.85,5.26,6.92,7.04,7.86,4.56,5.61,7.56,7.88,4.7,5.7,7.9,8.3,,7.6,10.12,7.8,5.6,6.31,7.83,7.78,4.98,6,7.94,7.76,5.45,7.1,,,5,7.4,7.95,8.14,4.7,6.34,7.9,7.85,5.01,6.99,8.03,8.93,3.52,5.7,9.4,,,6,7.66,,3.84,5,7.42,8,3.7,7,12.28,10.8,,
115930075270001,Mayyil,11.99166667,75.45,,,,,,,,,10.35,14.55,9.23,10,9.75,10,7.77,9.97,9.2,9.6,9.65,8.95,8.75,11.13,10.22,10.5,9,10.86,6.36,11.05,10.34,10.24,9.84,11.03,10.37,11.44,10.78,10.51,13.06,13.15,8.57,5.94,,10.67,10.27,9.98,10.45,12.16,10.7,9.6,10.77,11.87,10.47,10.3,10.3,11.16,7.77,10.09,12.15,10.98,9.73,10.72,11.33,10.98,10.28,11.13,11.96,,8.76,10.67,12.34,12.77,10.45,10.35,12.55,13.15,,10.12,12.3,12.65,10.33,10.83,11.09,11.73,10.01,10.25,10.45,12.11,11.2,10.25,,,10.5,10.35,10.39,11.72,8.05,9.97,10.33,11.15,10.27,10.18,10.29,12.01,6.8,10.33,10.28,,,10.35,10.28,,10.08,7.85,10.3,11.15,10.26,8.35,10.43,11.95,,
115600075410001,Muzhakunnu,11.93333333,75.68333333,,,,,,,,,4.67,4.94,1.67,4.4,4.4,4.8,1.11,3.4,4.5,4.8,3.1,3.9,3.5,5.53,3.32,3.4,4.55,5.7,2.91,3.66,4.51,4.87,3.06,4.4,4.55,5.16,3.5,3.71,4.98,4.73,3.22,4.56,4.68,4.9,3.24,3.83,4.65,,3.25,4.07,4.45,,3.5,3.26,4.9,4.72,3.42,3.59,,,3.72,4.42,,,3.58,4.46,4.69,,,3.5,4.71,4.58,3.3,3.4,,,,4.44,4.44,4.51,3.45,4.54,5.22,4.5,3.46,3.54,4.47,4.72,3.53,4.25,,,3.42,3.58,4.55,4.71,3.13,4.37,4.47,5.49,3.31,4.47,4.54,4.76,1.91,2.62,4.18,,,4.45,4.4,,4.05,1.21,4.48,4.61,3.5,,2.79,3.05,,
114755075335001,Pattiyam,11.79861111,75.56388889,,,,,,,,,2.06,3.22,0.7,2,1.65,1.65,2.74,0.82,1.39,2.45,0.85,1.05,1.78,2.49,0.57,1.35,2.27,2.76,0.39,1.14,1.83,2.45,0.74,1.23,1.83,2.77,0.95,1.22,1.98,2.83,0.78,4.22,,2.85,0.87,0.78,1.33,2.06,0.85,1.05,1.55,2.46,0.72,0.8,1.6,2.16,0.56,0.78,3.54,1.97,0.84,0.88,,2.48,0.71,1.12,1.61,2.36,0.66,0.91,1.53,2.16,0.75,1.05,1.83,2.75,,1.25,1.85,3.25,1.07,1.36,2.17,2.19,1.27,1.77,5.64,5.56,3.25,4.2,,,1.2,2.25,2.55,4.05,0.98,1.85,2.3,3.2,1.02,1.71,2.39,3.45,0.93,1.3,2.13,,,1.35,1.92,,0.73,0.91,1.68,2.25,1,1.29,3.25,2.66,,
120100075160001,Pazhayangadi,12.01666667,75.26666667,,,,,,,,,1.6,1.77,0.65,2.3,1.8,2.6,0.4,0.7,1,1.85,0.1,1.3,1.04,1.75,0.42,1.1,0.48,1.96,0.37,0.79,1,1.55,0.45,0.65,1.05,1.81,,0.51,1.04,1.6,0.36,0.76,1.36,1.8,0.3,0.53,1.55,1.81,0.5,0.57,1.02,1.9,0.39,0.37,0.9,1.51,0.2,0.34,1.09,0.65,0.43,2.24,1.84,1.7,0.31,0.48,0.62,2.31,0.34,0.39,1.86,1.46,0.3,1.42,1.61,1.7,,1.3,1.7,1.62,0.4,0.7,0.91,2.9,0.34,0.9,1.51,2.22,1.15,1.1,,,1.5,1.9,2,2.56,1,1.05,2.15,2.35,0.77,1.13,1.75,2.55,0.5,0.88,1.54,,,1.2,1.8,,1.24,0.7,1.7,,0.66,1.3,1.44,2.67,,
121730075244501,Peringome,12.29166667,75.4125,,,,,,,,,10.44,10.99,1.76,10.04,10.34,10.74,1.05,9.54,10.37,10.84,5.17,9.74,10.34,10.79,5.36,8.59,10.69,10.95,4.15,10.05,10.55,11.15,6.06,9.92,10.54,11.15,8.48,9.86,10.95,10.85,5.22,8.42,8.77,11.88,7.96,7.67,11.54,12.14,8.59,9.74,11.68,12.16,8.9,8.67,10.59,11.93,6.52,7.76,10.76,9.21,,7.44,7.96,8.72,,5.85,7.94,,3.02,6.58,7.89,7.98,5.14,4.04,7.94,8.04,,5.22,8.08,8.15,7.25,7.56,8.13,8.22,5.24,7.66,7.51,7.96,,,,,4.8,,,,,,,,,,,,,,,,,,,,4.25,,,8.74,,9.18,7.85,8.15,,
120155075254001,Pukkundu,12.03194444,75.42777778,,,,,,,,,12.57,13.6,5.06,,11.7,13.6,4.41,5.47,9.95,13.5,5.32,9.2,10.5,13.05,,5.3,20.8,13.67,2.01,9.46,11.59,13.36,6.38,9.05,9.85,13.52,8.31,8.54,11.82,13.54,5.42,8.73,9.81,13.51,7.4,6.53,11.1,13.5,8.65,8.17,11.22,13.25,7.81,7.12,11.85,13.61,8.02,8.01,12.8,,8.72,7.93,12.37,12.55,7.21,8.2,9.76,13.38,4.69,8.06,9.61,11.66,6.4,7,12.1,13.7,,9.5,10.42,12.72,8.95,9.58,9.61,9.77,8,8.8,9.9,12.21,8.05,9.3,,,7.38,10.4,13.4,12.93,4.1,6.96,12.68,13.6,7.88,9.72,12.84,13.6,3.97,8.15,10.4,,,9.25,9.4,,6.85,4.6,10.3,9.7,5.5,8.9,9.37,10.3,,
121732075245201,Pulingome,12.29222222,75.41444444,,,,,,,,,8.52,11.1,4.25,7.55,8.55,9,3.22,6.71,8.13,,3.49,8.15,8.15,8.9,4.47,,8.4,8.93,3.03,7.95,8.32,8.71,4.11,7.2,8.35,8.85,6.77,6.51,8.27,9.03,4.25,6.66,6.49,8.68,6.29,5.88,,,7.15,8,,,7.76,6.06,9.2,9.03,7.93,9.01,9.05,9.05,7.07,7.27,9.05,9.05,7.17,7.13,9.9,,6.99,7.19,9.9,,,,,,,9.5,,,5.95,,6.48,,2.46,4.53,6.3,6.31,4.9,5.4,,,4.8,6.05,6.4,7.01,3.55,6,6.35,6.46,4.98,5.84,6.06,6.53,3.52,5.7,6.17,,,5.85,6.08,,3.35,4.76,6.23,6.38,3.12,6.5,6.33,6.52,,
120400075110001,Ramantalai,12.06666667,75.18333333,,,,,,,,,9.42,11.54,4.46,8.3,9.4,10.2,2.41,8.65,9.27,11.85,2.26,7.6,9.2,11.15,4.54,5.85,9.35,11.7,0.99,8.02,9,10.51,4.86,8.15,9.3,10.24,4.46,8.09,9.41,10.73,4.38,9.07,9.28,10.93,3.22,6.73,9.4,10.9,6.9,7.3,9.23,10.51,4.51,8.04,9.1,10.21,4.34,7.66,9.48,,6.27,7.14,9.03,9.47,4.19,5.46,7.46,8.95,,6.34,8.48,8.9,4.4,8.1,8.91,9.3,,7.29,9.21,9.25,6.74,8.12,9.03,9.7,5.27,7.5,8.12,9.29,3.75,8.1,,,6.25,8,9.38,9.55,4.35,7.67,9.2,9.58,5.22,7.93,8.97,10.2,1.38,5.95,8.56,,,7.3,8.9,,4.42,6.9,8.75,9.3,3.13,8.4,8.8,9.6,,
120230075303001,Sreekandapuram,12.04166667,75.50833333,,,,,,,,,8.56,9.25,2.27,6.4,4.5,10,1.87,5.67,7.72,9.45,4.13,6.4,8.3,10.05,4.22,5.35,8.7,9.66,3.46,6.68,8.3,9.16,4.72,6.45,7.9,8.57,5.36,5.28,7.66,8.74,4.48,6.66,7.3,8.25,4.87,6.03,7.9,9.69,5.3,5.5,7.62,,5.57,5.49,7.75,9.42,5.28,5.82,7.32,7.51,5.38,7.93,7.64,,5.46,6.22,7.04,,4.84,5.32,7.02,9.54,4.8,5.2,8.5,,,5.7,,9.85,5.5,6.32,7.63,8.51,5.14,5.57,7.22,8.14,,,,,5.3,6.98,8.1,8.18,5.23,5.34,7.68,,5.03,6.2,7.62,8.6,4,5.46,7.01,,,5.8,7.6,,4.69,4.5,7.45,8.9,4.29,6.1,8.08,8.95,,
120200075215501,Taliparamba,12.03333333,75.36527778,,,,,,,,,11.05,14.29,4.75,8.45,9.45,13.05,3.63,6.83,9.45,13,7,8.55,11.9,14.1,6.52,9.05,13.25,14.34,4.72,9.13,14.3,14.86,8.69,9.8,10.3,14.74,9.52,9.71,10.67,14.83,7.04,9.81,10.68,14.9,9.2,8.28,12.7,14.82,9.7,9.8,11.56,11.88,9.71,9.78,12,14.5,7.92,9.54,12.3,10.51,9.74,9.81,11.05,14.02,8.64,8.93,9.86,12.9,,9.68,11.54,11.66,8.12,8.4,10.5,13.9,,8.63,13.02,14.35,9.8,10.08,13.01,15.15,8.74,9.65,10.02,13.04,8.6,9.55,,,7.75,9.8,12.1,14.25,8,3.7,9.67,9.7,9.01,9.36,9.65,9.84,5.93,9.22,9.8,,,9.7,9.83,,8.15,6.05,9.5,10.2,2.24,9.5,9.96,9.8,,
115530075213001,Valapattanam,11.925,75.35833333,,,,,,,,,9.9,10.92,7.42,9,9.6,10.3,6.07,8.92,9.35,10.15,7.58,8.1,9.34,10.05,4.32,4.46,6.56,10.24,4.93,8.68,9.3,10.11,7.22,8.85,9.5,10.3,7.42,8.48,9.79,10.48,5.17,8.46,7.96,10.64,5.4,8.98,10,10.63,8.25,8.3,9.4,10.8,7.54,8.53,9.35,10.92,7.68,8.28,9.6,9.9,7.88,8.01,9.7,10.92,8.18,9.13,9.79,10.1,7.38,8.58,9.23,10.22,7.2,9,9.7,10.8,,8.9,9.83,10.75,8.32,8.62,9.8,11.12,7.81,8.82,9.82,10.16,8.25,8.7,,,7.62,9.2,10,10.48,7.1,8.55,9.3,5.6,3.85,4.39,,5.67,,,,,,,,,,,,5.22,2.76,5.33,4.95,,,
121500075190001,Vayyakara,12.25,75.31666667,,,,,,,,,20.01,20.7,17.78,19.65,20.35,20.65,16.22,19.63,19.69,,17.4,19.75,19.65,20.2,18.03,19.1,19.7,20.67,17.57,18.99,19.55,20.66,17.99,18.85,20.43,20.28,19.09,19.19,20.73,20.33,17.85,19.27,,20.21,19.29,18.88,19.75,19.8,19.15,19.2,20.21,20.48,19.36,19.26,19.75,20.23,17.31,19.37,20.05,19.25,19.15,19.41,20.02,20.23,18.09,18.42,19.43,19.2,17.77,19.36,19.36,19.45,18.95,17.95,19.4,19.65,,18.05,19.4,19.5,19.2,19.32,19.27,19.2,17.98,19.25,19.35,20.21,19.47,19.45,,,18.85,19.5,19.85,20.45,17.55,19.25,19.7,21.9,19.41,19.3,19.78,21.15,18.67,19.33,19.55,,,19.35,19.4,,17.95,18.87,19.55,20.35,18.2,20.25,19.5,,,
115230075211501,Cannanore1,11.875,75.35416667,,,,,,,,,,,,,,,,,,,,,,,,,,11.37,7.93,,10.34,,,,,,,,,,,,,,8.35,7.78,10.6,11.16,8.8,9.05,9.96,11.68,8.29,5.15,10.35,12.23,8.18,9.34,11.4,11.3,9.13,9.25,11.01,12.3,8.59,10.2,,12.8,,9.54,11.33,13.51,9.6,,12.11,,,10.9,10.37,13.2,,9.96,11.97,14.8,10.24,10.3,,11.42,9.6,,,,9.7,,12.3,,8.3,9.18,11.8,13.3,9.08,10.18,,,,9.43,11.19,,,9.7,,,8.5,6.8,9.54,,,,11.15,10.14,,
115610075422101,Kakkeyamkadu,11.93611111,75.70583333,,,,,,,,,,,,,,,,,,,,,,,,,,4.47,1.23,1.83,2.61,4.87,1.6,1.93,2.53,,,,2.33,4.73,1.33,6.03,,5.1,1.49,1.7,2.2,4.42,1.35,1.55,2.1,4.17,1.8,1.54,2.25,4.61,1.71,,3.06,4.07,1.79,1.86,3.16,4.82,1.83,2.06,2.26,4.22,0.87,1.72,2.24,3.94,1.7,1.65,2.6,3.44,,2.3,3.45,4.67,1.9,2.43,2.73,5.95,2.11,2.05,5.07,7.64,,2.48,,,2.15,2.61,3.86,4.45,1.83,2.35,3.57,4.82,1.9,2.44,3.84,4.02,1.03,,3.2,,,2.45,3.11,,1.95,1.23,2.35,4.4,,,3.59,,,
115340075485201,Kelakkam,11.89444444,75.81444444,,,,,,,,,,,,,,,,,,,,,,,,,,11.8,5.14,9.46,10.93,11.6,5.54,9.87,10.75,,,,9.94,11.25,5.43,7.96,8.58,11.58,6.89,9.13,10.8,11.43,7.25,9.45,10.73,,6.98,8.31,10.75,11.62,7.41,9.47,11.47,10.71,7.69,9.3,11.17,11.83,7.46,9.79,10.71,11.64,4.6,8.34,10.72,11.36,4.55,7.35,11.01,11.7,,10.25,11.05,11.66,8.3,10.03,10.83,,7.33,9.75,9.85,8.47,,,,,,,,,,10.8,11.25,11.79,8.29,10.06,11.13,11.22,1.3,9.15,11.68,,,,,,,,,,,,,,,
115430075263401,Kizhallur,11.90833333,75.44277778,,,,,,,,,,,,,,,,,,,,,,,,,,5.56,2.03,3.98,5.08,5.35,2.15,3.13,4.76,,,,,,,4.54,6.78,,3,4.2,4.95,5.31,2.45,3.07,4.82,5.97,4.04,4.83,4.9,5.45,1.98,2.76,5.14,5.24,2.58,2.82,5.08,5.1,2.51,4.35,4.94,6.71,2.33,3.11,4.99,5.48,,,5.55,6.44,,3.49,5.25,,,3.82,5.38,6.18,2.67,3.8,5.76,3.24,2.66,4.2,,,2.91,4.95,4.8,6.1,2.4,3.19,5.27,6.1,2.34,4.9,5.4,7.41,1.66,2.6,5.04,,,3.8,5.1,,1.65,4.11,4.3,11.3,4.95,4.5,5.3,,,
115820075244001,Kolacheri,11.97222222,75.41111111,,,,,,,,,,,,,,,,,,,,,,,,,,9.99,5.74,7.54,7.98,9.16,6.35,7.02,7.7,,,,8.04,8.99,6.04,6.39,8.96,,6.54,6.7,8.1,9.48,6.9,6.35,7.6,9.51,6.67,6.36,8.1,9.48,6.12,6.65,8.3,7.2,6.96,8.06,7.9,8.59,6.16,7.19,7.69,9.7,6.22,6.62,7.72,7.79,6.3,6.5,7.25,7.59,,6.42,8.75,9.66,6.94,7.68,8.54,9.15,3.06,7.2,8.36,10.12,6.75,8,,,7.5,8.6,8.5,9.3,6.1,5.77,7.9,8.4,6.84,8,8.1,8.53,5.04,6.76,7.72,,,7.4,7.7,,7,6.91,7.47,8.3,6.43,6.8,7.34,,,
115100075441001,Kommery,11.85,75.73611111,,,,,,,,,,,,,,,,,,,,,,,,,,4.29,2.01,3.69,3.93,3.95,1.45,3.75,3.81,,,,3.63,3.99,1.46,2.96,4.36,4.3,1.57,2,3.85,4.04,2.9,3.35,3.71,3.97,2.23,2.53,3.75,4.05,2.84,3.43,3.87,4.15,2.94,3.32,3.74,3.91,2.39,3.64,3.92,3.9,2.96,3.04,3.85,4.14,2.7,3.35,3.89,4,,3.9,4.09,4.65,3.81,3.88,4.21,4.5,3.01,3.39,4.49,4.39,2.9,3.75,,,3.35,4.05,3.25,3.66,2.02,3.47,3.71,3.32,1.91,3.51,4.21,4.01,0.7,3.44,3.13,,,3.55,3.65,,2.15,3.1,3.65,3.23,,4.34,3.87,,,
114808075324501,Kottayampoyil,11.80222222,75.54583333,,,,,,,,,,,,,,,,,,,,,,,,,,8.95,5.53,6.07,7.06,8.1,2.7,6.52,7.15,,,,6.95,8.35,5.09,6.68,6.83,9.25,4.44,5.95,4.05,8.29,4.7,5.85,6.75,8.2,3.86,5.74,6.85,8.32,3.78,5.54,7.27,8.03,4.81,6.27,7.29,8.77,5.06,6.33,6.96,8.55,4.91,5.73,6.91,8.79,0.15,6.15,7.05,8.59,,6.47,7.51,8.86,5,5.99,7.09,8.69,3.89,6.33,7.41,8.69,5.15,6.15,,,9.95,10.8,12.05,13.45,9.75,9.06,11.17,12.44,9.4,9.97,11,12.48,9.15,10.15,10.82,,,12.05,11.71,,9.25,9.35,11.05,13.75,,,,,,
120215075243001,Kurumathur,12.0375,75.40833333,,,,,,,,,,,,,,,,,,,,,,,,,,7.68,1.52,4.99,6.34,7.41,3.15,4,5.75,,,,6.26,7.71,2.83,4.95,5.71,7.78,3.48,3.25,6.25,7.63,4,3.7,6.03,8.57,3.67,3.91,6.15,9.14,3.83,4.22,6.75,5.9,4.17,,7.66,8.5,3.28,6.33,6.23,,2.78,4.23,6.19,8.94,,,,12.05,,4.46,9.63,10.75,4.8,6.41,9.53,9.3,5,,7.19,7.15,4.35,6.65,,,,7.75,8.5,9.75,4.35,3.62,8.5,11.52,4.51,6.81,9.3,12.27,,,6.48,,,,6.95,,,,,,,,,,,
115431075452101,Manathana,11.90861111,75.75583333,,,,,,,,,,,,,,,,,,,,,,,,,,7.27,1.31,6.24,6.78,7.13,2.09,6.22,6.55,,,,6.59,6.84,2.13,6.37,7.66,7.05,2.97,5.3,6.65,6.99,4.2,5.95,6.54,7.11,3.92,3.39,6.55,7.06,4.83,6.12,6.39,6.71,5.34,4.91,6.71,6.92,3.28,6.43,6.51,6.69,1.63,1.94,6.55,6.54,,1.98,6.49,,,2.52,6.89,7,5.05,6.38,6.81,2.61,5.14,5.86,6.89,3.51,5,6.5,,,4.95,6.81,6.55,7.15,2.68,4.08,6.65,7.14,3.61,6.5,7.23,7.3,0.9,6.27,6.76,,,6.55,6.48,,3.3,4.4,6.47,6.7,,7.17,6.5,,,
115355075205401,Munderi,11.89861111,75.34833333,,,,,,,,,,,,,,,,,,,,,,,,,,5.72,1.93,4.02,4.58,5.48,,,,,,,3.92,4.26,2.22,3.79,5.48,,2.43,2.4,4.1,5.04,2.95,3.43,4.17,4.61,2.38,2.95,3.45,4.93,2.57,3.49,4.3,4.87,2.79,3.35,4.47,5.39,2.89,3.92,4.18,6.41,2.46,3.28,4.09,4.02,,,,,,,4.65,4.1,2.6,3.99,4.57,4.63,3.01,3.6,4.07,3.06,3.1,4,,,3.3,,4.8,5.66,2.8,3.3,4.6,5,3.32,4.13,4.82,,,3.25,4.22,,,3.8,7.48,,2.3,3.18,3.95,8,5.72,8,,,,
120731075255001,Oduvallithattu,12.12527778,75.43055556,,,,,,,,,,,,,,,,,,,,,,,,,,12.69,11.64,12.69,12.74,12.7,12.45,12.58,12.7,,,,12.7,12.9,12.44,12.71,11.41,12.59,12.56,12.7,12.8,13.01,11.9,,12.71,12.75,12.61,2.53,12.75,12.84,12.38,12.67,13.4,12.67,12.62,3.08,12.6,13.17,12.52,12.87,13.66,12.65,12.48,,,12.74,,,,,,,,,,,,11.46,13.04,,12.14,17.76,,,,,,,12.83,13,,12.63,,,,,,14.3,,,,,,,,,,,13,,,13.1,13,,,
115830075240001,Parassinikadavu,11.975,75.4,,,,,,,,,,,,,,,,,,,,,,,,,,21.84,20.72,20.93,21.2,21.7,20.32,20.7,,,,,20.88,21.57,20.39,9.12,,21.96,20.59,20.65,20.7,21.64,20.2,20.3,21.1,21.68,19.93,20.32,20.9,21.59,19.48,20.46,,21.45,20.09,20.5,21.12,21.87,20.16,20.77,21.04,21.8,20.14,20.59,21.23,21.68,19.8,,20.8,22.77,,20.4,21.32,22.3,20.17,20.74,21.22,22.2,19.99,,19.38,19.36,20.45,2.07,,,20.7,21.1,21.45,22.4,20.38,19.99,21.18,21.95,19.77,20.66,21.5,22.5,18.9,20.21,20.88,,,20.4,21.35,,19.85,19.99,20.5,22.3,19.58,20.77,21.21,,,
121700075250001,Pulingome1,12.28333333,75.41666667,,,,,,,,,,,,,,,,,,,,,,,,,,8.48,2.43,6.33,7.3,17.25,3.26,6.3,7.44,,,,7.17,7.44,3.32,7.8,10.03,,5.36,6.03,6.8,7.78,5.25,5.7,7.14,7.6,5.94,4.63,7.5,7.56,5.79,6.12,7.49,6.18,6.59,7.42,7.12,7.33,3.56,3.78,6.54,7.45,1.96,5.08,6.66,7.09,4.3,4.75,7.56,8.84,,6.63,7.65,,3.45,6.98,8.12,7.95,4.28,6,7.16,7.76,6.25,6.8,,,6.5,7.2,8.55,39.3,5.7,6.34,,9.04,5.7,7.21,7.78,8.92,4.48,6.38,7.2,,,6.85,7.02,,3.65,4.7,6.24,7.7,4.6,6.7,7.5,,,
120200075395501,Ulikkal,12.03333333,75.66527778,,,,,,,,,,,,,,,,,,,,,,,,,,,,,,,,,,,,,,,,,,,,,7.25,,,,,8.14,,,,,,,,,,,,,,,,,,,,,,,,,,,,,,,,,,,,,,,,,,,,,,,,,,,,,,,,,,,,,,,,5.25,,,5.55,5.89,,
114500075344501,Panoor,11.75,75.57916667,,,,,,,,,,,,,,,,,,,,,,,,,,,,,,,,,,,,,,,,,,,,,,,,,,,1.75,1.77,4.05,5.07,1.89,2.79,3.75,4.85,2.31,2.63,4.18,,2.49,2.66,3.83,5.39,2.16,,,,1.4,1.21,4.06,4.25,,3.3,4.3,5.25,2.45,2.94,3.54,5.4,1.49,3.35,4.66,5.26,,3.03,,,2.6,4,5,5.55,,3.65,4.32,5.15,2.66,5.32,5.38,5.82,1.19,2.13,3.78,,,,5.2,,0.95,2.46,3.8,,,,,,,
115051075363701,Manantheri,11.8475,75.61027778,,,,,,,,,,,,,,,,,,,,,,,,,,,,,,,,,,,,,,,,,,,,,,,,,,,,,,,,,,,,,,,,,,,,,,,,,,,,7.1,7.65,9.33,6.1,6.67,7.56,9.22,5.52,6.64,7.86,8.96,5.85,6.45,7.26,,4.1,7.2,7.8,9.14,2.68,6.91,7.5,8.6,3.16,6.97,7.53,9.29,3.7,6.62,7.41,,,6.75,6.8,,4.5,6.1,7.05,8.08,5.6,6.91,7.48,8.7,,
115220075343201,Meruvambayi,11.87222222,75.57555556,,,,,,,,,,,,,,,,,,,,,,,,,,,,,,,,,,,,,,,,,,,,,,,,,,,,,,,,,,,,,,,,,,,,,,,,,,,,4.6,5.46,6.6,3.58,4.43,5.34,5.8,2.63,4.51,5.44,7.16,5.65,4.51,3.2,10.71,5.3,6.11,6.1,7.43,3.73,4.88,5.5,7.84,2.91,5.18,5.74,7.24,1.43,4.48,5.5,,,4.6,4.46,,1.82,11.22,5.42,5.73,2.2,4.94,5.56,7.15,,
114637075344301,Mokeri,11.77694444,75.57861111,,,,,,,,,,,,,,,,,,,,,,,,,,,,,,,,,,,,,,,,,,,,,,,,,,,,,,,,,,,,,,,,,,,,,,,,,,,,7.95,9.53,10.6,8.37,8.01,9.12,7.12,7.05,8.37,9.87,11.29,7.45,8.45,9.35,,7.55,9.76,7.77,12.25,4.57,8.87,10.15,11.16,7.54,9.12,10.33,,5.51,8.46,10.84,,,9.7,10.77,,5.75,7.9,11.3,13.72,8.25,8.42,10.27,13.1,,
114455075291501,Thalassery,11.74861111,75.4875,,,,,,,,,,,,,,,,,,,,,,,,,,,,,,,,,,,,,,,,,,,,,,,,,,,,,,,,,,,,,,,,,,,,,,,,,,,,3.85,4.88,5.63,3.11,3.58,4.44,5.49,2.78,3.92,4.87,5.87,2.67,3.35,4.97,11.72,3,4.35,5.39,6.51,2.67,3.2,4.82,6.11,2.32,3.54,4.84,5.85,1.82,2.32,4.13,,,3.45,4.18,,2.15,3,4.46,5,7.56,3.65,4.42,5.48,,
114937075335501,Koothuparamba,11.82694444,75.56527778,,,,,,,,,,,,,,,,,,,,,,,,,,,,,,,,,,,,,,,,,,,,,,,,,,,,,,,,,,,,,,,,,,,,,,,,,,,,,9.53,,6.94,6.22,8.61,9.35,5.21,7.02,8.33,9.62,5.95,8.5,9.6,12.1,7.62,9.46,10.2,12.72,5.32,9,12.7,12,5.98,10.39,12.75,12.83,3.49,9.12,11.06,,,9.6,12.74,,5.8,7.2,12.15,14.04,6.8,9.89,13.78,10.8,,
115300075321401,Anjarakandi,11.88333333,75.53722222,,,,,,,,,,,,,,,,,,,,,,,,,,,,,,,,,,,,,,,,,,,,,,,,,,,,,,,,,,,,,,,,,,,,,,,,,,,,,,9.75,5.93,6.93,7.94,7.5,5.28,6.92,8.26,9.39,5.7,6.9,7.81,,6,8.45,7.98,8.1,5.4,6.8,7.6,6.13,6.26,7.89,8.95,10.06,5.97,6.3,7.6,,,6.55,7.92,,4.9,5.3,7.68,10.25,5.01,7.8,8.76,9.48,,
115829075220501,Kalliassery,11.97472222,75.36805556,,,,,,,,,,,,,,,,,,,,,,,,,,,,,,,,,,,,,,,,,,,,,,,,,,,,,,,,,,,,,,,,,,,,,,,,,,,,,,8.7,6.35,6.63,7.46,9.15,6.44,6.82,7.5,9.02,8.5,6.9,7.61,,5.9,7.28,8.05,9.42,6,6.3,7.78,8.8,5.9,6.98,7.49,8.7,2.64,6.1,7.36,,,6.6,7.5,,5.75,,7.7,11.15,,,,,,
120410075230401,Kanhirangad,12.06944444,75.38444444,,,,,,,,,,,,,,,,,,,,,,,,,,,,,,,,,,,,,,,,,,,,,,,,,,,,,,,,,,,,,,,,,,,,,,,,,,,,,,9.75,11.3,11.88,13.01,,11.04,11.25,10.99,11.91,10.9,9.9,12.5,,8.75,12.3,11.05,14.53,10.84,9.13,12.04,13.23,9.05,12.35,14.22,15.06,8.1,11.16,12.9,,,11.45,12.15,,10.95,8.9,13,14.5,10.68,12.9,14.98,15.34,,
120256075131601,Kunnaru,12.04888889,75.22111111,,,,,,,,,,,,,,,,,,,,,,,,,,,,,,,,,,,,,,,,,,,,,,,,,,,,,,,,,,,,,,,,,,,,,,,,,,,,,,3.31,1.17,2.32,1.96,2.84,0.52,0.92,1.47,2.44,0.48,1.3,1.96,,1.1,2,2.4,3.02,0.35,1.55,2.06,2.68,0.96,1.27,2,2.84,0.28,1.1,1.72,,,1.2,2.1,,0.5,0.65,1.8,2.5,0.55,1.65,1.62,2.38,,
121029075140501,Mathil,12.17472222,75.23472222,,,,,,,,,,,,,,,,,,,,,,,,,,,,,,,,,,,,,,,,,,,,,,,,,,,,,,,,,,,,,,,,,,,,,,,,,,,,,,11.5,7.52,8.18,8.52,9.21,6.42,7.6,8.3,9.14,5.95,8,9.1,,6.85,8.7,10.7,12.15,6.3,6.56,,,5.48,7.85,9.97,13.48,5.83,7,8.75,,,10.35,8.7,,6,6.85,8.92,11.75,5.87,9.2,10.4,12.84,,
114435075341801,Melepukkom,11.74305556,75.57166667,,,,,,,,,,,,,,,,,,,,,,,,,,,,,,,,,,,,,,,,,,,,,,,,,,,,,,,,,,,,,,,,,,,,,,,,,,,,,,9.25,,7.56,8.18,10.26,6.23,5.79,8.25,9.37,6.75,7.55,8.03,,5.58,7.75,8.45,10.02,5.91,7.69,8.16,8.97,6.77,7.83,8.33,9.89,4.93,7.26,8.16,,,7.7,8.18,,5.7,7.15,7.98,9.07,7.25,7.97,8.5,9.55,,
114843075311701,Panunda,11.81194444,75.52138889,,,,,,,,,,,,,,,,,,,,,,,,,,,,,,,,,,,,,,,,,,,,,,,,,,,,,,,,,,,,,,,,,,,,,,,,,,,,,,15.05,,11.74,13.12,,8.72,12.02,13.64,15.38,10.35,10.5,12.95,,10.35,11.5,12.48,13.8,10.54,11.8,13.96,15.3,9.66,11.72,13.02,14.4,8.4,10.52,12.35,,,,12.48,,9.13,9.78,11.8,15.6,9.49,,,,,
115905075230501,Parassinikadavu DW,11.98472222,75.38472222,,,,,,,,,,,,,,,,,,,,,,,,,,,,,,,,,,,,,,,,,,,,,,,,,,,,,,,,,,,,,,,,,,,,,,,,,,,,,,15.86,13.4,13.96,14.2,10.6,13.4,13.75,14.46,15.27,13.6,13.6,14.24,,13.6,14.01,14.3,14.83,13.4,13.64,14,14.56,13.3,13.68,14.1,14.9,12.38,13.5,13.8,,,,13.7,,12.91,12.7,14.21,14.4,13.08,14.2,14.24,15.36,,
115149075243001,ThazheChovva,11.86361111,75.40833333,,,,,,,,,,,,,,,,,,,,,,,,,,,,,,,,,,,,,,,,,,,,,,,,,,,,,,,,,,,,,,,,,,,,,,,,,,,,,,3.2,0.55,,1.18,4.94,0.5,0.59,1.29,2.01,0.4,0.4,1.2,,0.4,1.16,1.5,2.16,0.48,0.73,1.35,1.66,0.54,0.83,1.4,2.66,0.18,0.44,1.1,,,0.7,1.17,,0.25,0.06,0.98,1.5,0.16,0.7,0.94,1.5,,
115405075250501,Varam,11.90138889,75.41805556,,,,,,,,,,,,,,,,,,,,,,,,,,,,,,,,,,,,,,,,,,,,,,,,,,,,,,,,,,,,,,,,,,,,,,,,,,,,,,6.1,4.15,4.85,5.56,6.05,3.16,4.52,5.54,6.12,3.57,4.45,,,3.39,5.51,5.7,6.5,3.5,4.72,5.52,6.06,4.04,4.97,5.43,6.53,2.2,4.05,5.37,,,4.3,5.42,,2.65,2.7,5.45,5.9,2.73,5.35,5.49,6.04,,
115650075363701,Chavassery,11.94722222,75.61027778,,,,,,,,,,,,,,,,,,,,,,,,,,,,,,,,,,,,,,,,,,,,,,,,,,,,,,,,,,,,,,,,,,,,,,,,,,,,,,,4,4.22,4,6,3.37,3.85,4.16,5.18,3.75,3.8,4.14,,3.31,4.1,3.95,4.23,2.84,4.16,3.94,5.66,3.52,3.99,4.07,5.96,2,3.8,3.86,,,4,3.93,,2.4,2.58,3.95,4.3,2.38,3.9,3.92,6,,
120638075131001,Payannur,12.11055556,75.21944444,,,,,,,,,,,,,,,,,,,,,,,,,,,,,,,,,,,,,,,,,,,,,,,,,,,,,,,,,,,,,,,,,,,,,,,,,,,,,,,3.65,4.95,6.01,6.9,3.34,4.63,5.72,6.71,3.2,4.7,5.4,,3.95,5.2,5.05,6.62,4,4.5,5.56,6.56,3.06,4.51,5.46,6.1,1.92,3.3,4.86,,,4.2,5.6,,3.15,4.13,5.1,5.6,3.45,5.2,5.48,6.15,,
114827075330301,Kottayampoil,11.8075,75.55083333,,,,,,,,,,,,,,,,,,,,,,,,,,,,,,,,,,,,,,,,,,,,,,,,,,,,,,,,,,,,,,,,,,,,,,,,,,,,,,,,6.46,7.48,8.74,5.3,6.92,7.52,9.17,5.8,6.1,7.5,,6.18,7.8,8.2,9.31,5.6,6.58,7.7,8.8,5.93,7.02,7.82,9.3,,6.6,7.2,,,6.6,7.46,,4.1,6.1,7.5,8.8,5.2,,7.82,9.17,,
114150075341601,Pallikkuni,11.69722222,75.57111111,,,,,,,,,,,,,,,,,,,,,,,,,,,,,,,,,,,,,,,,,,,,,,,,,,,,,,,,,,,,,,,,,,,,,,,,,,,,,,,,2.28,2.52,3.45,1.54,2.92,4.22,4.12,1.75,3.37,3.62,,1.91,3.9,3.17,3.98,1.58,2.9,3.4,4.01,1.39,2.89,3.44,4.32,1.03,2.44,,,,3.25,4.42,,,,5.11,,,,,,,
115236075452401,Kolakkad,11.87666667,75.75666667,,,,,,,,,,,,,,,,,,,,,,,,,,,,,,,,,,,,,,,,,,,,,,,,,,,,,,,,,,,,,,,,,,,,,,,,,,,,,,,,,9.42,9.72,8.47,8.94,9.64,9.87,8.8,3.35,9.4,,8.73,10.3,9.73,10.36,7.5,8.99,9.48,9.72,8.04,9.08,9.62,10.8,3.74,8.7,9.36,,,7.2,9.5,,7.65,6.28,9.63,8.81,8.5,8.8,9.4,9.25,,
115108075413801,Kolayad,11.85222222,75.69388889,,,,,,,,,,,,,,,,,,,,,,,,,,,,,,,,,,,,,,,,,,,,,,,,,,,,,,,,,,,,,,,,,,,,,,,,,,,,,,,,,7.48,7.28,5.08,7.32,7.32,7.39,5.95,6.71,7.28,,6,6.3,7.61,8.4,3.64,2.4,7.64,8.25,4.39,7.23,7.57,8.04,2.35,7.02,7.46,,,,7.2,,4.1,6.6,7.35,7.35,5.2,7.21,7.64,8.17,,
115429075462201,Peravoor,11.90805556,75.77277778,,,,,,,,,,,,,,,,,,,,,,,,,,,,,,,,,,,,,,,,,,,,,,,,,,,,,,,,,,,,,,,,,,,,,,,,,,,,,,,,,5.2,5.2,4.31,4.98,4.85,5.42,4.45,4.73,5.24,,4.2,5.27,5,5.48,3.6,5,5.13,5.22,3.59,4.98,5.13,5.54,2.37,4.89,5.11,,,6.7,4.24,,3.7,3.01,4.78,4.95,2.6,4.07,4.6,5,,
115407075435201,Vattiyamthodu,11.90194444,75.73111111,,,,,,,,,,,,,,,,,,,,,,,,,,,,,,,,,,,,,,,,,,,,,,,,,,,,,,,,,,,,,,,,,,,,,,,,,,,,,,,,,6.39,8.11,4.37,,4.24,7.54,4.55,4.5,6.1,,4.3,6.6,6.65,8.3,4.02,5.26,6.64,8.05,3.9,5.77,6.57,7.8,3.56,4,6,,,4.12,6.35,,3.75,4.25,5.54,6.75,3.84,4.7,6.42,7.5,,
114933075304301,Ambilad,11.82583333,75.51194444,,,,,,,,,,,,,,,,,,,,,,,,,,,,,,,,,,,,,,,,,,,,,,,,,,,,,,,,,,,,,,,,,,,,,,,,,,,,,,,,,,10.44,,,,,,14.5,13.65,,,13.3,13.31,14.62,10.8,12.48,13.91,14.5,11.05,2.96,14.07,14.7,9.16,11.9,13.55,,,11.9,13.9,,2.86,3.05,13.61,4.8,3.66,13.4,14.17,14.76,,
115218075233601,Mele Chovva,11.87166667,75.39333333,,,,,,,,,,,,,,,,,,,,,,,,,,,,,,,,,,,,,,,,,,,,,,,,,,,,,,,,,,,,,,,,,,,,,,,,,,,,,,,,,,7.98,7.52,7.65,8.01,7.96,8.1,8.6,8.1,,6.85,6.92,7.2,6.32,7.2,8.07,9.58,6.53,6.97,6.37,7.26,6.58,6.4,7.12,7.1,,,7.2,7.16,,7.3,7,7.85,8.2,6.86,7.85,7.42,7.85,,
115945075450001,Munderi,11.99583333,75.75,,,,,,,,,,,,,,,,,,,,,,,,,,,,,,,,,,,,,,,,,,,,,,,,,,,,,,,,,,,,,,,,,,,,,,,,,,,,,,,,,,9.21,5.88,6.32,7.24,8.02,3.2,4.3,,,5.85,7.3,7.5,6.71,5.8,6.59,7.16,7.63,6.22,7.23,7.95,9.04,5.1,6.6,7.35,,,3.4,,,5.55,6.11,7.5,8.1,,,7.74,7.1,,
115733075310001,Nayattupara,11.95916667,75.51666667,,,,,,,,,,,,,,,,,,,,,,,,,,,,,,,,,,,,,,,,,,,,,,,,,,,,,,,,,,,,,,,,,,,,,,,,,,,,,,,,,,14.45,7.04,8.1,9.06,11.72,7.95,9.55,9.43,,8.5,10.56,12.4,14.31,8.04,7.46,11.42,11.4,8.52,9.4,11.73,13.36,6.9,8.3,10.65,,,9.2,10.16,,6.1,5.9,9.41,10,6.62,9,12.16,13.87,,
115404075205001,Alavil,11.90111111,75.34722222,,,,,,,,,,,,,,,,,,,,,,,,,,,,,,,,,,,,,,,,,,,,,,,,,,,,,,,,,,,,,,,,,,,,,,,,,,,,,,,,,,,3.76,4.95,6.42,7.67,4.2,4.9,6.18,,4.8,6.2,7.15,8.95,3.95,4.96,6.43,7.6,3.9,4.89,6.3,6.55,2.94,2.65,5.9,,,4.45,6.2,,3.25,2.88,5.95,8.4,2.87,5.8,6.06,7.38,,
115258075211201,Chalad,11.88277778,75.35333333,,,,,,,,,,,,,,,,,,,,,,,,,,,,,,,,,,,,,,,,,,,,,,,,,,,,,,,,,,,,,,,,,,,,,,,,,,,,,,,,,,,2.19,4.43,6.91,7.51,2.95,3.85,5.89,,3.95,5.85,6.85,6.7,2.85,4.11,6.08,6.43,3.02,4.28,5.97,7.78,0.75,3.8,5.31,,,,5.63,,2,,5.36,7.2,0.65,5.05,5.1,5.86,,
121601075211901,Cherupuzha,12.26694444,75.35527778,,,,,,,,,,,,,,,,,,,,,,,,,,,,,,,,,,,,,,,,,,,,,,,,,,,,,,,,,,,,,,,,,,,,,,,,,,,,,,,,,,,3.42,4.4,5.22,5.38,4.28,4.6,5.13,,4.2,4.9,5.1,5.15,3.53,4.75,5.24,5.4,4.18,4.69,5.23,5.5,3.85,4.27,4.94,,,4.55,4.63,,3.5,3.97,4.95,5.2,3.91,5,5,,,
120338075334001,Chundaparambu,12.06055556,75.56111111,,,,,,,,,,,,,,,,,,,,,,,,,,,,,,,,,,,,,,,,,,,,,,,,,,,,,,,,,,,,,,,,,,,,,,,,,,,,,,,,,,,6.35,6.4,6.88,7.12,6.5,6.57,6.74,,6.35,6.95,6.85,7.19,6.5,6.52,6.8,7.11,6.46,6.52,6.75,7.24,4.25,6.47,6.7,,,6.6,6.78,,6.25,5.75,6.85,7.6,5.93,8.3,6.81,7.11,,
115545075322401,Elambara,11.92916667,75.54,,,,,,,,,,,,,,,,,,,,,,,,,,,,,,,,,,,,,,,,,,,,,,,,,,,,,,,,,,,,,,,,,,,,,,,,,,,,,,,,,,,3.26,3.75,4.68,5.01,3.25,4.05,4.41,,3.1,4.11,4.15,4,2.96,3.72,4.39,4.72,3.18,4.15,4.28,4.15,2.63,3.47,4,,,3.7,4.35,,2.98,3.25,4.23,5,2.92,4.2,4.53,5.47,,
120530075145601,Ezhilode,12.09166667,75.24888889,,,,,,,,,,,,,,,,,,,,,,,,,,,,,,,,,,,,,,,,,,,,,,,,,,,,,,,,,,,,,,,,,,,,,,,,,,,,,,,,,,,8.32,11.1,12.43,13.09,9.25,12.8,12.75,,8.8,12.22,13.7,14.93,8.7,10.65,13.6,14.9,9.88,11.99,14.93,14.43,6.35,10.75,12.4,,,11.75,15,,9.05,10.31,12.64,14.5,5.95,,,,,
120622075171301,Kadannapally,12.10611111,75.28694444,,,,,,,,,,,,,,,,,,,,,,,,,,,,,,,,,,,,,,,,,,,,,,,,,,,,,,,,,,,,,,,,,,,,,,,,,,,,,,,,,,,9.66,12.4,11.34,12.13,9.4,10.95,11.43,,9.25,11.35,11.35,13.47,8.25,10.58,11.27,12.45,9.75,10.98,11.17,13.3,6.31,10.15,11.23,,,10.85,11.11,,8.75,9.1,11.4,12.35,7.51,10.65,11.45,14.1,,
120247075352501,Kakkathodu,12.04638889,75.59027778,,,,,,,,,,,,,,,,,,,,,,,,,,,,,,,,,,,,,,,,,,,,,,,,,,,,,,,,,,,,,,,,,,,,,,,,,,,,,,,,,,,2.56,,3.22,4.16,3.48,3.8,3.07,,3.4,3.85,3.5,4.27,,4.68,3.74,4.4,3.46,3.67,3.79,4.16,3,3.6,3.2,,,5.75,3.8,,5.35,3.2,3.65,4.1,3.16,3.6,3.78,2.55,,
115953075410801,Kallumutty,11.99805556,75.68555556,,,,,,,,,,,,,,,,,,,,,,,,,,,,,,,,,,,,,,,,,,,,,,,,,,,,,,,,,,,,,,,,,,,,,,,,,,,,,,,,,,,5.58,,7.08,7.51,6.38,6.71,4.15,,6.6,7.1,6.85,6.24,5.52,7.02,6.79,7.53,6.61,6.83,6.13,9.24,5.6,6.1,4.18,,,6.45,4.08,,5.75,6.15,4.13,5.2,6.25,7,5.57,8.09,,
115820075243601,Kolachery,11.97222222,75.41,,,,,,,,,,,,,,,,,,,,,,,,,,,,,,,,,,,,,,,,,,,,,,,,,,,,,,,,,,,,,,,,,,,,,,,,,,,,,,,,,,,8.06,8.13,8.62,10.72,7.85,7.8,8.32,,8.1,8.8,9.8,10.8,7,7.28,8.68,9.23,8.11,8.47,8.74,9.2,5.4,8.05,8.6,,,7.4,,,7.4,5.7,8.8,9.1,7.22,7.9,7.89,8.34,,
120311075320201,Koottummukham,12.05305556,75.53388889,,,,,,,,,,,,,,,,,,,,,,,,,,,,,,,,,,,,,,,,,,,,,,,,,,,,,,,,,,,,,,,,,,,,,,,,,,,,,,,,,,,4.38,5.4,4.87,6.41,5.4,5.45,5.71,,5.45,5.9,5.77,6.3,5.45,5.38,5.81,6.25,5.59,5.6,5.66,6.85,5.13,5.4,5.79,,,6.05,5.75,,5.3,5.2,5.71,6.2,5.23,5.35,5.76,6.83,,
120527075113901,Kotty,12.09083333,75.19416667,,,,,,,,,,,,,,,,,,,,,,,,,,,,,,,,,,,,,,,,,,,,,,,,,,,,,,,,,,,,,,,,,,,,,,,,,,,,,,,,,,,1.61,1.85,2.42,2.85,1.35,1.81,2.68,,1.8,2.6,2.9,2.86,1.2,2.06,2.68,2.96,1.61,2.16,2.61,3.06,1,1.85,2.2,,,1.75,2.3,,1.4,1.8,2.25,2.6,0.81,2.2,1.77,3.02,,
120131075423001,Kunnoth,12.02527778,75.70833333,,,,,,,,,,,,,,,,,,,,,,,,,,,,,,,,,,,,,,,,,,,,,,,,,,,,,,,,,,,,,,,,,,,,,,,,,,,,,,,,,,,2.06,4.87,5.32,5.67,1.4,6.91,5.21,,,,6.6,7.06,1.55,5.45,6.96,7.74,2.72,5.72,6.6,7.8,0.87,3.75,6.28,,,5.45,6.6,,1.2,2.72,6.25,6.4,2.21,5.6,6.52,7.5,,
120252075210001,Kuppam,12.04777778,75.35,,,,,,,,,,,,,,,,,,,,,,,,,,,,,,,,,,,,,,,,,,,,,,,,,,,,,,,,,,,,,,,,,,,,,,,,,,,,,,,,,,,1.78,1.8,1.83,2.46,1.8,2.1,2,,1.65,2.02,2.1,2.94,0.95,1.75,1.96,2.3,1.7,1.79,1.84,2.69,1.16,1.7,1.88,,,1.8,1.86,,1.45,1.45,1.91,2.3,1.53,2,1.97,2.04,,
115414075355801,Kuyilur,11.90388889,75.59944444,,,,,,,,,,,,,,,,,,,,,,,,,,,,,,,,,,,,,,,,,,,,,,,,,,,,,,,,,,,,,,,,,,,,,,,,,,,,,,,,,,,1.33,2.97,3.81,5.59,2.48,3.65,5.6,,2.2,4.02,,5.11,4.6,3.61,4,3.98,2.64,3.62,3.98,4.72,0.95,2.95,3.84,,,3.55,3.85,,1.3,2.4,3.8,4.4,1.6,4,4.02,4.98,,
120242075381201,Nuchiyad,12.045,75.63666667,,,,,,,,,,,,,,,,,,,,,,,,,,,,,,,,,,,,,,,,,,,,,,,,,,,,,,,,,,,,,,,,,,,,,,,,,,,,,,,,,,,5.52,7.41,7.58,8.58,5.6,7.6,8.08,,6.62,8.16,8.31,9.32,6.2,7.54,5.05,5.4,3.7,7.75,8.1,6.4,2.8,5.48,6.12,,,7,6.1,,5.3,6.2,7.88,8.8,5.77,8.1,8.05,8.7,,
120805075262601,Oduvalli,12.13472222,75.44055556,,,,,,,,,,,,,,,,,,,,,,,,,,,,,,,,,,,,,,,,,,,,,,,,,,,,,,,,,,,,,,,,,,,,,,,,,,,,,,,,,,,15.47,15.05,16.86,17.46,15.75,16.4,16.3,,15,16.8,17.1,17.44,15.4,16.18,16.9,17.18,16,16.4,16.68,17.38,13,16.07,16.53,,,16.02,17.6,,14.9,14.8,17.2,19.15,15.56,17,17.1,18.35,,
115700075203201,Pappinissery West,11.95,75.34222222,,,,,,,,,,,,,,,,,,,,,,,,,,,,,,,,,,,,,,,,,,,,,,,,,,,,,,,,,,,,,,,,,,,,,,,,,,,,,,,,,,,1.08,1.2,1.84,2.61,1,1.2,2.6,,0.95,1.85,2.05,2.7,0.62,0.95,1.82,2.52,0.95,1.25,1.95,2.65,0.55,1.02,1.8,,,1.2,1.78,,0.53,0.5,1.75,3.2,0.26,1.4,1.54,2.25,,
120405075182001,Pariyaram,12.06805556,75.30555556,,,,,,,,,,,,,,,,,,,,,,,,,,,,,,,,,,,,,,,,,,,,,,,,,,,,,,,,,,,,,,,,,,,,,,,,,,,,,,,,,,,11.16,12.15,13.2,13.82,11.45,12.6,13.11,,11.26,12.81,13.4,14.56,9.11,12.05,13.02,14,11.48,12.54,13.25,14.88,6.78,11.75,12.85,,,12.4,12.75,,10.55,8.02,13,13.5,,,,,,
115440075215201,Puthiyatheru,11.91111111,75.36444444,,,,,,,,,,,,,,,,,,,,,,,,,,,,,,,,,,,,,,,,,,,,,,,,,,,,,,,,,,,,,,,,,,,,,,,,,,,,,,,,,,,3.92,6.6,7.86,9.56,4.35,6,7.45,,5.07,7.45,7.9,9.12,4.3,6.45,7.77,9.52,4.6,6.56,7.62,9.94,2.53,4.45,7.34,,,5.9,7.6,,,3.55,7.4,8.1,3.38,9.7,7.52,7.73,,
120232075265201,Valakkai,12.04222222,75.44777778,,,,,,,,,,,,,,,,,,,,,,,,,,,,,,,,,,,,,,,,,,,,,,,,,,,,,,,,,,,,,,,,,,,,,,,,,,,,,,,,,,,4.23,4.41,5.11,5.57,4.13,4.75,5.02,,4.19,5.05,4.25,5.33,4.35,4.19,4.86,5.26,4.32,4.76,4.97,6.22,2.25,4.43,3.6,,,4.65,3.57,,3.7,3.05,4.59,3.85,3.21,4.25,3.64,4.68,,
115152075303401,Vengad,11.86444444,75.50944444,,,,,,,,,,,,,,,,,,,,,,,,,,,,,,,,,,,,,,,,,,,,,,,,,,,,,,,,,,,,,,,,,,,,,,,,,,,,,,,,,,,8.51,10.65,14.84,17.28,13.24,14.6,15.94,,13.2,14.15,14.2,15.65,11.3,11.35,12.36,13.9,10.07,11.96,12.87,14.74,9.48,12.92,14.2,,,12.22,14,,11.14,11.4,13.65,12.93,10.21,13.8,14.42,12.95,,
115910075224401,Andoor,11.98611111,75.37888889,,,,,,,,,,,,,,,,,,,,,,,,,,,,,,,,,,,,,,,,,,,,,,,,,,,,,,,,,,,,,,,,,,,,,,,,,,,,,,,,,,,,,,7.92,5.9,7.2,8.61,,6.1,8.2,7.05,6.83,4.2,4.96,6.42,6.41,6,5.63,5.84,6.9,1.43,5.46,6.4,,,6.1,7.15,,4.85,1.4,8.6,6.2,3.64,5.7,6.04,6.08,,
115046075260501,Chala,11.84611111,75.43472222,,,,,,,,,,,,,,,,,,,,,,,,,,,,,,,,,,,,,,,,,,,,,,,,,,,,,,,,,,,,,,,,,,,,,,,,,,,,,,,,,,,,,,10.27,7.4,8.7,9.97,,7.4,8.81,11.5,10.19,7.15,8.02,9.53,9.88,7.33,8.42,12.76,9.3,4.5,7.8,11,,,4.33,8.97,,5.51,7.61,8.72,9.5,5.62,9.1,10.42,9.99,,
114700075285001,Dharmadam,11.78333333,75.48055556,,,,,,,,,,,,,,,,,,,,,,,,,,,,,,,,,,,,,,,,,,,,,,,,,,,,,,,,,,,,,,,,,,,,,,,,,,,,,,,,,,,,,,3.81,4.6,1.75,2.42,,1.5,2.35,2.88,3.71,1.6,1.77,2.55,3.6,1.5,1.72,2.57,3.8,1.35,1.55,2.3,,,1.88,2,,1.4,1.55,,4.7,1.52,2.1,2.43,3.31,,
120835075132102,Echilamvayal,12.14305556,75.2225,,,,,,,,,,,,,,,,,,,,,,,,,,,,,,,,,,,,,,,,,,,,,,,,,,,,,,,,,,,,,,,,,,,,,,,,,,,,,,,,,,,,,,3.71,1.15,3,4.37,,1.98,3.9,4.9,6.39,1.7,2.48,4.56,6.01,1.54,3.22,4.63,6.4,0.48,2,3.8,,,2.55,4.4,,1.08,1.75,4.13,5.8,0.88,3.45,4.6,6.09,,
115945075432601,Edoor,11.99583333,75.72388889,,,,,,,,,,,,,,,,,,,,,,,,,,,,,,,,,,,,,,,,,,,,,,,,,,,,,,,,,,,,,,,,,,,,,,,,,,,,,,,,,,,,,,4.16,2.5,3.55,4.05,,2.7,3.65,4.4,4.7,1.75,3.78,4.38,4.88,1.72,3.47,4.23,4.31,1.18,2.41,4.14,,,3.5,3.98,,1.85,2.45,4.13,3.82,2.15,,3.95,4.9,,
120050075122701,Ettikkulam,12.01388889,75.2075,,,,,,,,,,,,,,,,,,,,,,,,,,,,,,,,,,,,,,,,,,,,,,,,,,,,,,,,,,,,,,,,,,,,,,,,,,,,,,,,,,,,,,10.96,7.05,8.7,9.73,,7.7,9.2,10.8,10.4,7.2,8.58,10.68,10.27,7.36,8.63,10.29,10.28,6.8,7.5,9.4,,,8.05,11.15,,6.8,8.05,9,10.5,6.78,9.3,10.44,10.5,,
120031075451201,Karikottakari,12.00861111,75.75333333,,,,,,,,,,,,,,,,,,,,,,,,,,,,,,,,,,,,,,,,,,,,,,,,,,,,,,,,,,,,,,,,,,,,,,,,,,,,,,,,,,,,,,8.22,,6.65,6.34,,5.05,6.45,10.7,6.95,1.61,7.19,8.05,8.85,3.15,5.95,8.87,9.03,0.9,6.09,7.39,,,6,6.3,,2.35,4.85,6.36,5.91,2.45,,6.27,7.17,,
115346075481101,Kelakam,11.89611111,75.80305556,,,,,,,,,,,,,,,,,,,,,,,,,,,,,,,,,,,,,,,,,,,,,,,,,,,,,,,,,,,,,,,,,,,,,,,,,,,,,,,,,,,,,,9.82,7.5,9.83,10.79,,6.73,10,12.4,10.37,5.43,9.85,10.28,10.76,5.68,9.04,10.78,10.91,2.62,9.06,10.57,,,8.7,9.63,,5.65,7.85,10.2,9.8,7,8.96,10.46,10.57,,
115833075462801,Kizhpalli,11.97583333,75.77444444,,,,,,,,,,,,,,,,,,,,,,,,,,,,,,,,,,,,,,,,,,,,,,,,,,,,,,,,,,,,,,,,,,,,,,,,,,,,,,,,,,,,,,6.34,5.25,5.3,5.8,,5.45,5.6,6.6,7.3,2.9,5.48,6.48,7.27,4.06,5.41,6.17,7.39,1.08,5.35,5.89,,,,,,3.75,4.55,5.79,6.4,4.3,,6.63,8,,
114240075323001,Mahe (R1),11.71111111,75.54166667,,,,,,,,,,,,,,,,,,,,,,,,,,,,,,,,,,,,,,,,,,,,,,,,,,,,,,,,,,,,,,,,,,,,,,,,,,,,,,,,,,,,,,1.79,1.29,1.25,1.63,,1.28,1.66,1.77,1.94,1.25,1.33,1.55,1.85,1.1,1.4,1.58,1.85,1.18,1.03,1.45,,,1.35,1.43,,0.89,0.95,1.65,1.75,1.03,1.6,1.62,1.7,,
114254075343401,Mekunnu,11.715,75.57611111,,,,,,,,,,,,,,,,,,,,,,,,,,,,,,,,,,,,,,,,,,,,,,,,,,,,,,,,,,,,,,,,,,,,,,,,,,,,,,,,,,,,,,6.92,5.55,4.95,4.95,,5.1,5.05,6.2,7.46,6,5.89,6.13,7.08,4.92,5.49,6.24,7.28,4.36,5.18,6.87,,,5.1,4.81,,6.7,4.6,4.88,5.43,5.3,4.87,3.94,5.45,,
115626075234101,Palleri,11.94055556,75.39472222,,,,,,,,,,,,,,,,,,,,,,,,,,,,,,,,,,,,,,,,,,,,,,,,,,,,,,,,,,,,,,,,,,,,,,,,,,,,,,,,,,,,,,9.41,5.43,5.65,7.4,,5.44,7.21,8.3,9.4,5.9,5.66,7.7,9.27,5.1,6.42,7.98,9.43,3.7,5.4,,,,5.98,7.5,,4.71,4.52,7.7,0,,8.2,7.55,9.4,,
114558075321501,Palloor (Mahe),11.76611111,75.5375,,,,,,,,,,,,,,,,,,,,,,,,,,,,,,,,,,,,,,,,,,,,,,,,,,,,,,,,,,,,,,,,,,,,,,,,,,,,,,,,,,,,,,8.27,7.35,8,9.06,,7.6,9.1,9.5,9.62,5.98,8.57,9.26,9.7,5.31,9.23,8.96,9.74,5.77,8.03,8.72,,,8.65,9.02,,6.55,7.28,3.95,8.31,7.4,8.57,9.28,9.8,,
114506075344601,Pannoor,11.75166667,75.57944444,,,,,,,,,,,,,,,,,,,,,,,,,,,,,,,,,,,,,,,,,,,,,,,,,,,,,,,,,,,,,,,,,,,,,,,,,,,,,,,,,,,,,,4.81,,3.05,4.24,,2.45,3.91,5.75,5.63,,3.55,4.4,5.34,2.44,3.63,4.6,5.9,1.18,2.98,4.1,,,,4.41,,1.44,2.2,3.95,4.84,2.1,3.62,4.42,5.39,,
114930075315002,Pathiriyad,11.825,75.53055556,,,,,,,,,,,,,,,,,,,,,,,,,,,,,,,,,,,,,,,,,,,,,,,,,,,,,,,,,,,,,,,,,,,,,,,,,,,,,,,,,,,,,,8.72,6.31,,7.63,,6.3,7.26,8.7,8.93,6.45,6.33,7.78,8.57,5.51,7.1,8.29,8.5,,6.35,7.47,,,6.15,7.43,,4.68,,7.61,8.7,4.88,7,8.22,8.86,,
115226075225801,Kannur-Thana,11.87388889,75.38277778,,,,,,,,,,,,,,,,,,,,,,,,,,,,,,,,,,,,,,,,,,,,,,,,,,,,,,,,,,,,,,,,,,,,,,,,,,,,,,,,,,,,,,,,9.15,9.42,,8.8,9.65,9.9,11.89,9.2,11.1,9.78,9.35,10.13,9.71,13.65,10.76,7.7,9,9.93,,,9.4,8.38,,7.5,7.45,9.8,9.4,7.2,10.2,8.4,8.76,,
114846075294502,Melur,11.81277778,75.49583333,,,,,,,,,,,,,,,,,,,,,,,,,,,,,,,,,,,,,,,,,,,,,,,,,,,,,,,,,,,,,,,,,,,,,,,,,,,,,,,,,,,,,,,,2.7,3.89,,2.2,3.4,4.15,4.68,1.95,2.66,3.72,4.43,2.27,2.98,3.75,4.72,1.48,2.4,,,,2.5,3.38,,1.9,2.11,3.15,,1.88,3.1,3.56,4.48,,
120224075165501,Neruvambram,12.04,75.28194444,,,,,,,,,,,,,,,,,,,,,,,,,,,,,,,,,,,,,,,,,,,,,,,,,,,,,,,,,,,,,,,,,,,,,,,,,,,,,,,,,,,,,,,,17,15.1,,12.15,15.1,15.9,17.8,10.71,12.4,15.2,16.66,10.99,12.4,16.05,17.06,8.35,11.23,13.8,,,12.55,,,11.25,6.58,15.11,15.1,9.91,14.15,15.46,17.51,,
120040075200201,Pattuvam,12.01111111,75.33388889,,,,,,,,,,,,,,,,,,,,,,,,,,,,,,,,,,,,,,,,,,,,,,,,,,,,,,,,,,,,,,,,,,,,,,,,,,,,,,,,,,,,,,,,15.8,1.55,,14.9,15.5,15.71,15.41,13.5,14.8,1.82,2.62,0.88,13.23,,14.35,6.26,11.87,13.37,,,12.3,13.94,,9.25,9.9,15.41,13.5,8.59,,13.1,14.1,,
114846075294501,Pinarayi,11.81277778,75.49583333,,,,,,,,,,,,,,,,,,,,,,,,,,,,,,,,,,,,,,,,,,,,,,,,,,,,,,,,,,,,,,,,,,,,,,,,,,,,,,,,,,,,,,,,10.25,11.2,,9.7,13.65,14.05,13.04,10.88,11.8,13.42,12.26,9.74,11.38,11.87,12,6.88,9.8,11.2,,,9.55,10.62,,7.35,10.31,10.7,11.6,8.24,11.5,13.42,11.6,,
