station_id,station_name,latitude,longitude,1994_season1,1994_season2,1994_season3,1994_season4,1995_season1,1995_season2,1995_season3,1995_season4,1996_season1,1996_season2,1996_season3,1996_season4,1997_season1,1997_season2,1997_season3,1997_season4,1998_season1,1998_season2,1998_season3,1998_season4,1999_season1,1999_season2,1999_season3,1999_season4,2000_season1,2000_season2,2000_season3,2000_season4,2001_season1,2001_season2,2001_season3,2001_season4,2002_season1,2002_season2,2002_season3,2002_season4,2003_season1,2003_season2,2003_season3,2003_season4,2004_season1,2004_season2,2004_season3,2004_season4,2005_season1,2005_season2,2005_season3,2005_season4,2006_season1,2006_season2,2006_season3,2006_season4,2007_season1,2007_season2,2007_season3,2007_season4,2008_season1,2008_season2,2008_season3,2008_season4,2009_season1,2009_season2,2009_season3,2009_season4,2010_season1,2010_season2,2010_season3,2010_season4,2011_season1,2011_season2,2011_season3,2011_season4,2012_season1,2012_season2,2012_season3,2012_season4,2013_season1,2013_season2,2013_season3,2013_season4,2014_season1,2014_season2,2014_season3,2014_season4,2015_season1,2015_season2,2015_season3,2015_season4,2016_season1,2016_season2,2016_season3,2016_season4,2017_season1,2017_season2,2017_season3,2017_season4,2018_season1,2018_season2,2018_season3,2018_season4,2019_season1,2019_season2,2019_season3,2019_season4,2020_season1,2020_season2,2020_season3,2020_season4,2021_season1,2021_season2,2021_season3,2021_season4,2022_season1,2022_season2,2022_season3,2022_season4,2023_season1,2023_season2,2023_season3,2023_season4
185155082312001,Anta,18.86527778,82.52222222,,,,,3.03,3.64,2.14,2.47,3.41,3.64,1.36,2.57,3.2,3.61,0.91,2.83,3.56,4.27,2.28,1.84,4.52,4.04,0.97,,3.32,3.49,3.22,2.52,3.69,4.92,0.58,2.59,3.4,4.02,0.67,2.65,3.52,3.85,0.57,2.07,2.92,3.52,0.77,2.32,3.22,3.75,1.44,1.44,3.69,3.44,0.57,2.77,3.19,3.62,0.32,0.65,3.42,3.52,0.62,2.02,3.12,2.62,0.47,1.62,1.92,1.72,0.72,1.42,3.02,3.07,1.02,1.62,3.02,3.62,,1.2,2.9,3.35,0.74,1.3,2.85,3.5,0.5,2,3.35,3.6,0.25,1.75,,4.1,0.6,2.3,3.5,3.6,0.4,,0.32,3.62,0.56,,2.82,2.82,0.12,1.66,2.91,,,1.58,2.42,,0.87,2.8,3.69,3.98,1.24,2.28,,2.42,0.67,
190224082221301,Bajiguda,19.04,82.37027778,,,,,7.06,9.73,2.83,5.65,7.96,8.12,0.99,5.25,6.75,7.53,2.4,5.45,6.88,9.83,3.55,3.77,5.59,6.56,2.67,,6.35,5.97,1.5,4.85,6.4,7.52,1.05,5.07,6.13,5.35,0.57,5.63,7.73,8.66,0.75,4.42,5.05,5.95,1,4.95,6.45,9.17,1.03,5.27,6.4,5.71,1.3,4.53,6.42,6.75,1.65,4.25,6.45,7.15,7.45,5.55,6.85,8.15,2.05,4.85,7.55,8.45,2.65,4.65,6.25,7.65,5.05,5.85,6.85,9.85,,5.25,6.75,7.95,1.81,3.5,6.25,7.25,1.95,4.9,6.65,6.75,2.15,5.45,,8,1.25,5.05,6.85,7.55,2.3,1.65,2.25,5.45,0.99,,6.05,7.65,1,4.97,6.43,,,4.59,6.4,,2.85,5.22,6.19,6.99,3.13,3.33,,6.36,1.86,
190421082313101,Bijapur,19.0725,82.52527778,,,,,3.31,4.57,1.1,1.4,2.58,5.27,0.28,2.48,3.64,5.14,0.47,2.18,3.31,5.31,0.54,9.42,1.8,4.8,1.1,,4.5,4.4,2.12,1.74,3,5.06,0.46,2.03,3.22,5.75,0.37,1.6,3.1,4.47,0.46,0.9,1.9,3.6,0.4,1.2,2.43,4.97,0.92,1.12,3,3.85,0.36,1.13,1.22,4,0.4,0.9,2.4,3.8,3.47,1.4,2.6,3.8,0.75,1.8,3.05,4.4,0.6,0.7,0.9,4.6,0.6,1.2,2.5,4.1,,1.25,2.15,3.5,0.55,1.25,1.75,3.95,0.7,1.2,2.05,3.95,0.75,1.25,,4.05,0.75,1.25,2.15,4.1,1.1,0.7,1,4,0.76,,5.3,,0.6,1.44,4.28,,,1.41,2.4,,0.96,1.61,2.68,5.06,1.16,1.66,,4.58,0.79,
190305082324801,Boriguma,19.05138889,82.54666667,,,,,9.52,10.9,3.12,4.6,8.09,12.3,7.16,7.05,10.03,,9.86,6.73,9.96,,11.46,0.61,8.58,,4.65,,3.3,14.42,6.3,7.18,11.23,13.18,1.87,5.17,9.2,,1.75,5.99,12.8,13.67,3.65,2.95,8.55,,6.6,3.72,6.75,,6.07,4.1,11.23,,,,,11.7,3.45,3.85,6.45,9.85,7.33,5.35,7.95,11.7,7.55,8.55,10.35,11.7,5.25,3.7,5.15,4.65,5.65,4.55,6.85,10.05,,3.65,5.45,8.95,,1.15,4.25,7.45,2.45,2.15,5.1,8.35,2.35,2.45,,8.55,2.5,2.6,5.2,8.55,1.2,0.75,0.75,3.75,0.85,,5.05,5.75,0.75,,3.37,,,2.23,3.7,,1.21,2.75,4.24,7.44,1.87,2.21,,6.38,1.88,
190510082142501,Chandli,19.08611111,82.24027778,,,,,2.55,5.9,1.14,1.15,1.92,6.56,0.25,1.25,2.3,2.87,0.58,1.35,1.58,2.78,0.32,0.07,1.79,4.31,0.54,,1.06,4,,0.3,2.5,5.43,,1.49,2.78,5.57,0.25,1.73,3.9,5.36,0.2,1.04,1.6,4,1.15,1.1,2.16,6.42,1.62,0.85,2.5,3,0.5,1.03,1.52,4.2,0.6,1,1.8,3.7,2.81,1.3,2.5,5.8,0.3,1.35,2.7,6.15,0.5,0.7,1.6,3,0.6,1.05,1.8,3.9,,0.8,1.55,1.9,0.42,0.4,0.8,3.1,0.1,0.45,1.05,3.2,0.2,0.5,,3.45,0.15,0.5,1.1,4.1,0.5,0.1,0.7,2.7,0.02,,5.55,2.55,0.05,3.5,5.37,,,2.77,4.25,,2.77,3.93,4.88,7.36,2.12,2.64,,8.09,1.91,
190127082255001,C.kusimi-i,19.02416667,82.43055556,,,,,6.25,,,,,7.49,1.37,3.8,5.67,6.66,1.22,3.8,5.4,4.88,1.35,2.67,5.01,7.45,0.83,,6.45,7.35,1.33,4.35,6.11,7.2,0.67,4.87,3.09,8.22,1.12,5.16,6.89,8.54,0.9,3.19,5.15,6.9,1,3.52,5.68,8.83,1.4,3.81,6.11,0.93,0.85,2.77,4.56,6.55,1.1,1.95,5.45,6.1,6.43,3.65,5.45,6.95,1,4.55,5.95,8.35,1.05,2.45,4.55,5.85,3.05,3.75,5.25,7.95,,2.55,4.9,5.9,0.89,1,4.4,5.3,0.75,2.2,4.85,5.8,0.65,3.4,,6.1,0.5,2,3.95,6.8,0.8,0.5,1.05,8.55,0.65,,3.65,6.65,0.35,2.88,4.38,,,2.57,3.5,,0.95,2.6,4.59,7.93,1.05,1.61,,4.39,0.7,
190134082260301,C-kusumi-ii,19.02611111,82.43416667,,,,,7.55,13.94,2.03,3.65,6.46,7.02,1.09,3.99,5.41,6.15,1.22,3.55,4.68,11.45,1.01,2.22,2.31,2.07,2.71,,3.75,1.99,1.65,3.97,3.1,1.95,0.87,4.42,6.49,1.9,1.35,4.69,8.03,9.13,0.65,3.26,1.45,4.15,1.15,3.89,6.11,9.43,1.35,3.73,3.1,1.45,0.72,2.98,5.28,1.95,1,2.65,3.45,3.85,4.46,1.25,4.05,4.35,0.85,3.95,4.85,8.25,1.35,3,3.85,3.95,2.3,3.15,3.75,7.25,,2.3,4.3,3.6,0.7,1.8,3.6,4.5,1.4,2.55,4,4.3,0.6,3,,6.1,0.7,2.7,4.7,5.4,1.2,1.05,1.85,8.65,1.35,,4.65,6.65,0.55,2.67,4.06,,,,3.6,,1.47,3.22,3.26,6.34,1.33,1.65,,4.49,0.84,
190727082172401,Damanahandi,19.12416667,82.29,,,,,4.55,7.15,1.65,1.98,3.47,7.87,0.65,1.69,2.65,3.32,0.77,1.6,2.47,3.27,1.04,1.22,1.5,2.79,0.8,,3.25,3.71,1.2,1.37,2.53,1.62,0.67,1.47,1.9,1.16,0.75,2.46,4.4,6.23,0.65,1.35,1.7,1.6,0.75,1.45,3.2,6.98,1.03,1.4,2.53,1.65,0.67,1.5,3.02,2.55,0.85,1.3,3.05,1.55,3.36,0.65,3.35,7.35,0.7,1.95,3.75,6.35,0.75,1.8,2.6,3.65,0.75,1.6,2.95,5.25,,1.05,2.75,0.95,0.47,0.65,1.15,3.35,0.55,0.9,1.4,1.05,0.6,1.15,,3.85,,0.7,1.4,2.35,1,0.35,1.15,4.65,0.52,,1.75,2.85,0.55,1.11,2.82,,,1.16,1.6,,0.73,1.15,2.29,4.12,0.25,0.77,,1.35,0.69,
190303082554001,Dasmanthapur,19.05083333,82.92777778,,,,,2.18,3.45,2.18,1.01,2.66,3.26,1.15,2.15,2.66,2.56,0.29,2.3,2.44,3.65,2.85,2.15,2.64,4.85,1.85,,3.6,2.7,,2.19,2.15,3.57,0.96,2.1,2.62,3.35,,2.21,3.2,2.42,0.44,1.83,2.05,3.4,0.65,1.95,2.2,2.86,0.8,1.85,4.3,3.15,0.72,1.68,1.76,3.5,,2.4,2.9,3.45,3.21,2.4,2.75,3.55,1.6,2.45,2.9,4,1.6,1.6,2.2,2.5,1.7,2.9,2.4,4.2,,1.75,3.25,4.4,1.41,1.85,2.75,4.6,1.8,1.95,3.05,3.75,1.75,2,,3.95,1.75,1.85,3.05,4.75,1.5,1.5,2.2,5.8,0.62,,4.3,,2.2,,,,,,,,,,,,0.46,,,,,
184938082383001,Deoghati,18.82722222,82.64166667,,,,,4.66,5.82,3.13,4.01,4.62,5.85,2.24,4.08,4.78,5.86,2.28,3.96,4.9,6.12,4.32,4.73,5.58,6.61,2.44,,5.28,5.97,1.18,4.42,5.23,5.75,1.82,4.15,5.39,,2.89,4.69,5.35,9,1.57,3.91,4.88,4.58,2.53,3.88,4.98,9.1,2.83,3.2,5.23,,,,,,,,,,,,,,,,,,,,,,,,,,,,4.75,6.25,1.82,3.3,4.55,6.05,2.35,3.45,4.6,6.15,2.7,4.25,,6.35,1.6,4.03,4.85,6.65,2.5,2.18,3.38,8.38,0.9,,4.78,5.78,2.18,3.15,4,,,3.43,4.28,,3.13,3.93,4.27,,1.94,2.21,,5.08,2.69,
184628082193101,Dhaulapur,18.77444444,82.32527778,,,,,6.53,8.01,5.59,5.47,6.61,8.64,3.77,5.62,7.27,8.39,4.69,5.68,7.4,9.76,5.19,4.99,7.81,8.4,3.58,,6.22,8.18,3.34,5.56,6.86,8.87,2,5.28,6.52,8.62,5.82,5.66,7.06,9.1,1.9,3.91,5.97,7.92,2.97,4.62,6.22,9.64,3.2,4.92,6.86,8.18,1.98,4.7,6.05,7.92,3.22,4.72,5.82,7.72,6.53,5.32,6.62,8.68,3.42,5.02,6.42,,2.92,4.42,5.52,7.62,4.12,5.27,6.62,8.64,,5.4,6.9,9,3.98,5.2,6.7,8.9,4.85,5.5,6.8,8.8,2.9,5.8,,8.8,3.4,5.45,7.1,8.8,3.1,1.82,2.32,8.32,1.62,,5.42,6.32,0.52,4.68,5.96,,,4.91,6.02,,3.77,,6.12,7.73,,1.12,,5.69,3.43,
190126082240001,Ghatarala,19.02388889,82.4,,,,,7.05,11.05,2.74,5,7.12,5.16,1.54,5.05,4.97,3.57,1.42,3.55,6.25,10.85,2.85,3.72,5.43,5.89,5.41,,5.25,2.97,1.35,2.85,3.6,2.25,0.59,3.42,1.76,3.7,0.85,2.45,5.58,7.66,0.89,1.82,1.75,3.4,1.05,1.55,6.05,8.01,0.97,2.65,3.6,1.77,1.19,2.07,5.92,1.65,1.25,2.35,4.45,1.8,4.86,1.75,2.35,1.35,1.15,2.05,6.15,4.15,1.35,1.95,6.05,1.25,1.25,1.45,3.55,7.45,,1.25,6.2,1.25,1.22,1.3,5.8,1.3,1.2,2.4,6.3,1.55,1.1,2.2,,2,1.3,2.2,4.3,2.1,1.5,0.8,1.15,5.65,1.13,,3.65,6.65,1.15,3.22,4.72,,,2.91,2.1,,1.43,3.55,4.57,3.12,0.15,0.6,,1.76,1.23,
190601082202501,Gumur,19.10027778,82.34027778,,,,,5.45,14.29,3.59,3.97,5.33,3.53,0.01,3.84,4.5,4,1.38,3.65,4.89,6.88,2.4,3.37,4.76,4.3,3.02,,4.7,4.13,0.73,3.82,4.05,6.08,0.23,3.9,4.22,4.18,1.2,4.46,5.6,7.38,0.22,3.34,3.9,4.3,0.6,3.5,4.86,7.72,1.35,3.55,4.05,4.08,1.1,3.38,4.83,4.25,1.55,3.4,4.9,5.2,5.78,3.5,5,5.7,1.1,3.85,4.8,6.2,2.6,3.2,4.9,4.1,2.8,3.6,4.5,6.1,,3.25,4.8,3.55,1.43,2.1,4.4,3.8,2.1,3.05,4.7,3.35,0.5,3.2,,4,1.1,2.9,4.3,3.5,1,0.05,0.5,2.5,0.08,,4.2,5.2,0.1,,4.52,,,1.68,3.3,,1.05,2.93,3.8,3.39,1.32,1.8,,3.12,0.38,
185110082345301,Jeypore1,18.85277778,82.58138889,,,,,7.39,9.34,4.42,5.18,6.92,9.69,5.43,5.92,7.98,5.91,5.94,6.21,7.63,10.02,6.65,6.9,7.65,10.3,3.8,,6.28,9.76,2.68,6.15,7.95,10.04,1.92,5.62,7.56,9.83,5.42,6.28,8.14,9.3,2.03,4.83,6.68,4.28,2.18,5.18,7.14,9.06,3.53,5.01,7.95,8.7,1.78,5.06,6.36,8.13,3.18,5.03,6.78,7.78,7.55,5.53,6.88,8.98,3.93,5.88,7.28,8.18,3.58,4.28,5.98,8.08,5.33,5.88,7.28,8.18,,4.4,6.45,7.75,2.48,4.85,6.45,8.05,2.05,5.05,6.65,8.55,4.25,5.5,,8.85,2.9,5.6,7.1,8.75,3,2.53,2.78,8.78,1.64,,6.48,7.68,1.28,4.08,6.25,,,5.19,6.98,,4.5,5.52,6.69,8.42,3.88,4.18,,6.79,3.93,
190912082344001,Jujari,19.15333333,82.57777778,,,,,4.38,7.57,1.83,2.75,4.7,5.2,1.17,3.55,5.65,5,1.11,3.25,3.74,6.82,1.25,2.02,3.81,,3.51,,2.55,7.47,2.46,3.62,6.45,7.42,1.05,3.79,7.36,,1.15,3.94,5.27,,,2.05,2.85,5.15,1.1,2.4,3.8,,1.35,2.7,6.45,5.61,0.7,0.96,4.03,5.45,0.95,2.05,2.85,5.35,3.86,3.15,4.05,6.05,1.05,3.35,3.45,3.75,0.85,1.55,2.45,2.65,0.65,2.55,2.95,2.95,,2,2.95,2.2,0.56,2.95,2.2,2,0.65,1.7,2.4,2.4,0.7,2.3,,2.5,0.8,0.85,2.45,3.05,1.2,1.25,1.65,2.45,0.85,,3.05,3.85,0.45,1.94,3.23,,,2.08,3.45,,1.08,2.76,3.14,3.11,0.55,1.22,,3.77,1.23,
185521083003401,Kakriguma,18.9225,83.00944444,,,,,11.52,12.45,11.66,11.36,11.54,12.81,10.49,11.42,11.6,12.62,10.34,11.42,11.87,12.98,11.4,10.49,11.69,12.47,9.46,,11.62,12.47,9.42,11.34,11.52,12.59,7.15,11.33,3.45,12.48,11.12,11.4,11.82,,9.35,11.22,11.32,12.12,7.67,,11.38,12.32,7.12,11.28,11.52,12.12,4.42,11.3,11.09,12.02,10.12,11.12,11.42,12.02,11.32,11.22,11.42,12.26,10.92,11.52,11.52,12.26,12.26,10.72,11.52,11.72,11.42,11.32,11.42,12.12,,11.05,11.7,11.9,9.45,11.45,11.7,12,8.25,11.5,11.7,12,11.6,11.65,,12.15,8.35,11.35,11.7,11.7,5.2,4.22,6.52,11.92,6.12,,7.12,10.92,3.42,7.11,10.82,,,7.18,,,10.22,10.2,11.34,11.78,7.15,8.02,,11.67,0,
185835082324001,Kenduguda,18.97638889,82.54444444,,,,,2.3,2.07,1.57,1.9,1.76,1.83,0.96,1.95,1.9,,0.95,1.88,3.26,4.76,1.29,1.67,2.74,1.6,0.86,,3.1,1.59,2.56,1.62,1.18,1.51,0.48,1.92,1.32,1.45,0.65,1.74,1.4,1.58,0.62,1.3,1.1,2.4,3.9,1.3,5.34,1.72,4.58,1.55,1.18,,0.71,1.44,1.68,1.4,0.6,0.9,1.65,2,2.71,1.15,1.2,1.3,0.65,1.4,2.45,1.2,0.8,1.5,1.4,1.1,0.8,1.1,1.6,1.3,,0.85,2.55,1,0.58,0.8,0.8,1.1,0.6,0.9,1.3,0.7,0.55,0.7,,0.7,0.6,0.8,1,0.8,0.75,0.4,0.7,1.5,0.42,,1.8,2.1,0.4,1.17,0.92,,,1.11,1.3,,0.64,1.6,0.6,0.96,1.02,1.5,,,0.23,
190848082324501,Khaliaguda,19.14666667,82.54583333,,,,,3.68,3.61,1.66,2.02,2.39,3.95,1.01,1.85,1.7,2.8,0.91,1.87,2.2,3.66,1.05,3.02,1.11,1.21,0.61,,1.15,1.09,1.15,1.07,1.13,1.22,0.81,1.69,5.95,,1.03,1.51,2.65,3.47,1.27,1.39,1.15,1.85,1.1,1.35,1.39,4.23,1.24,1.87,5.38,2.15,1,2.48,1.97,1.35,1.25,1.65,2.75,1.55,3.94,1.55,2.55,4.15,1.35,1.65,3,4.55,1.15,1.85,2.35,1.85,0.85,1.45,2.55,4.15,,1.5,2.6,1.25,1.42,1.4,2.1,1.2,1,1.55,2.3,1.3,1.1,1.4,,1.1,1,1.4,2.35,1,1,0.65,1.05,4.05,0.6,,,6.95,1.35,4.17,5.64,,,4.16,1.15,,1.93,4.97,2.05,2.17,2.05,2.45,,3.91,2.37,
185953082283001,Konga,18.99805556,82.475,,,,,4.3,3.11,2.43,3.55,3.2,3.44,1.6,3.98,3.4,3.64,3.05,3.6,4.7,6.07,1.95,3.07,3.07,3.62,1.37,,4,3.33,1.13,3.47,4.6,4.92,0.39,4.02,2.83,3.48,2.2,3.51,4.8,3.98,0.48,,2.8,,1.65,3.3,3.45,,2.22,3.8,4.6,3.52,1.7,3.07,3.68,3.2,1.4,3.05,4.2,3.35,5.21,3.4,3.2,3.6,2.2,3.2,4.7,3.7,2.5,,3.7,3.5,2.6,3.1,4.9,3.9,,3.4,4.7,2.7,1.03,3.3,3.9,3,2.8,3.5,4.05,3.1,1.3,3.3,,3.25,1.3,2.9,3.6,2.8,2,1.3,1.6,2.6,0.58,,4,4.6,0.6,3.56,3.45,,,3.31,,,1.22,3.47,3.23,2.87,1.72,2.16,,2.36,0.66,
184843082431801,Koraput-i,18.81194444,82.72166667,,,,,7.22,9.05,7.44,6.4,6.95,9.63,8.44,7.67,8.81,9.8,9,8.5,9.07,10.35,10.06,9.17,8.73,11.66,8.95,,8.6,9.87,10.2,9.18,9.68,10.97,7.83,7.92,8.9,10.3,10.15,9.39,9.95,10.54,8.75,6.96,8.1,9.2,7.45,6.86,7.92,9.8,10,7.68,9.68,9.7,6.5,2.5,8.5,10,7.6,6.6,8.9,9.35,8.11,7.9,8.8,10,9.1,8.7,9.2,10,8.7,7,7.7,9.5,9.9,8.8,9.7,10.7,,7.05,8.8,10.7,8.08,7.3,8.4,9.9,7.6,6.9,7.8,10.8,11,7.5,,10.3,6.9,7,8.3,9.8,3.2,2.7,2.8,10.8,4.6,,6.5,10.5,3.7,6,7.97,,,7.44,9.2,,8.78,7.45,8.46,10.47,4.06,4.36,,9.54,7.96,
184841082431801,Koraput-ii,18.81138889,82.72166667,,,,,2.08,4.09,1.94,1.5,2.42,5.49,1.48,2.04,3.2,5.85,2.72,2.5,3.27,,6,3.59,4.5,,1.52,,3.1,5.89,3.2,2.97,4.76,,0.67,2.28,3.68,,4.95,6.81,,,0.7,1.1,2.2,5.4,0.8,1.34,2.45,,4.21,,,,,,,5.1,0.7,1.2,2.35,4.2,3.35,2,3.3,5.2,0.8,1.7,3.65,5.2,0.7,1.2,1.9,4.6,1.1,2.8,4.8,,,1.3,2.4,,1.05,2.4,2.4,3.9,1,2.95,2.2,2.7,2.7,3,,,1,1.6,2.8,6,5.9,4.4,4.7,5.1,0.5,,2,,4.9,0.76,1.79,,,1.46,2.5,,4.6,5.1,5.41,,2.4,2.64,,5.84,,
190830082162001,Kotpad,19.14166667,82.27222222,,,,,2.15,9.15,1.89,1.55,2.38,3.83,1.02,2.04,1.52,3.02,1.18,1.53,1.67,2.81,1.36,1.17,1.66,3.35,1.02,,2.1,2.85,1.6,1.57,2.27,3,0.78,1.4,2.18,2.95,1,1.55,2.6,5.44,0.96,1.44,1.9,3.3,1.05,1.4,2.18,6.02,1.18,1.25,2.27,3.2,0.95,1.53,2.58,3.1,1.1,1.2,3.7,3.2,3.21,1.7,2.3,3.8,1.1,1.85,2.8,3.9,1.5,1.4,1.9,3.4,1.7,1.9,2.4,4,,1.35,1.8,2.9,1.03,1.05,1.4,2.8,0.8,0.95,1.45,2.4,0.4,0.8,,2.8,0.6,0.6,1.25,2.7,1.5,0.95,1.4,7.3,1.37,,5.1,5.5,1.4,2.26,2.99,,,1.88,3.45,,0.98,2,2.58,3.11,0.22,0.92,,3.83,0.73,
183655082353901,Lamtaput,18.61527778,82.59416667,,,,,8.24,9.9,3.4,7.3,7.95,9.72,1.08,7.6,8.4,9.6,2.6,7.7,7.9,9.6,3.38,1.43,7.39,7.31,0.19,,6.26,7.7,0.84,5.68,7.46,8.91,0.8,5.31,6.4,,1.04,5.69,7.86,,1.32,0.63,6.26,7.61,1.04,3.86,6.46,7.88,0.83,4.81,7.46,6.26,,2.23,5.98,6.36,0.06,3.06,6.35,6.35,0.26,5.16,6.31,6.35,0.36,5.36,6.26,6.31,1.16,3.86,5.56,6.31,1.21,4.76,,9.86,,4.3,8,10,1.13,4.8,7.7,9.98,,4.9,8.4,9.7,3.9,6.3,,9.9,1.9,6.6,9.3,9.7,2.5,,6.06,6.96,2.16,,4.76,6.56,2.06,2.26,5.72,,,2.47,5.66,,1.06,4.32,4.99,6.96,1.02,1.28,,6.47,1.7,
190846082240101,Miriguda,19.14611111,82.40027778,,,,,5.87,8.77,1.28,3.5,4.1,5.66,0.01,3.76,7.31,4.9,0.07,3.73,5.54,6.95,0.47,0.77,3.72,9.3,1.48,,3.2,4.47,0.5,3.5,7.78,5.82,,3.88,7.74,5.42,0.17,3.53,8.88,5.07,0.04,1.73,4.3,4.7,0.1,1.68,5.62,5.37,0.65,2.31,7.78,4.25,0.1,2.32,6.73,6.4,3.25,2,6,7.65,7.19,3.2,7.65,7.64,0.05,3.9,9.2,9.8,1.8,4.5,3.5,1.7,1.5,2.9,8.8,9.1,,3.9,9.35,3.8,0.38,0.7,5.45,5.75,0.7,2.6,8.15,5.35,0.55,3.9,,4.65,0.25,2.75,5.85,6.45,0.5,,5.73,7.1,0.4,,3.8,4.4,0.5,2.57,4.56,,,1.73,4.15,,1.2,2.92,3.08,5.08,0.72,1.1,,5.73,0.97,
183200082443001,Nandapur,18.53333333,82.74166667,,,,,3.97,5.53,3.57,2.93,3.73,6.11,1.96,3.57,4.26,5.37,2.59,4.33,4.9,6.11,3.17,1.85,4.01,5.79,1.95,,3.93,5.39,0.93,3.63,4.2,4.8,1.58,3.41,4.06,4.53,2.33,3.9,6.73,5.47,1.55,2.45,3.43,4.53,1.98,3.28,3.58,4.95,2.33,3.33,4.2,4.96,1.43,2.35,2.96,4.33,2.53,3.03,3.98,4.83,4.44,3.68,4.23,5.63,2.53,4.23,4.73,6.43,2.73,3.33,3.88,,3.33,3.98,4.43,5.93,,2.65,3.75,5.05,2.34,2.65,3.75,5.25,2,2.8,3.75,4.45,2.85,3.25,,5.25,1.95,3.35,4.05,5.95,2.75,3.23,3.53,4.03,1.23,,3.73,5.73,1.73,3.12,3.95,,,3.26,3.93,,3.4,3.93,4.24,5.24,2.03,2.51,,4.92,3.07,
185232083101501,Narayanpatna,18.87555556,83.17083333,,,,,12.11,13.35,13.9,10.55,11.96,12.52,11.64,10.55,12.06,12.67,13.05,10.92,12.2,13.4,10.81,9.82,1.32,,12.8,,9.25,13.02,9.57,10.33,11.95,12.85,,9.45,11.98,,,,,,,,,,2.45,,,,,,11.95,,,,,,,,,,,,,,,,,,,,,3.75,,,,,,,,,,,,,,,,,,,,,,,,,,,,,,,,,,,,,,,,,,,,,,,,,,
184847082325201,Panasaputbagh,18.81305556,82.54777778,,,,,1.42,1.62,2.26,1,1.63,1.52,1.47,1.96,4.15,4.95,1.61,1.53,1.7,1.85,1.67,2.72,2.42,2.11,6.88,,4.3,1.77,2.3,1.89,3.8,4.06,1.54,2.25,1.77,1.95,1.21,2.11,1.3,1.81,1.56,2.61,1.9,3.2,1.95,2.95,3.24,1.31,2.31,2.9,3.8,1.36,2.12,1.72,1.73,1.8,2.5,1.95,2.9,1.8,3.9,2.15,1.9,1.5,1.6,1.8,3.1,1.7,1.5,2.3,2.1,1.4,1.7,1.5,2.7,0.9,,1.4,3,1.9,1.58,1.8,1.1,1.3,1.3,1.8,1.6,1.3,1.35,0.8,,0.6,1.1,1.1,0.75,0.6,1,3.2,1.45,1.7,0.66,,1.8,3.8,0.1,1.56,2.3,,,1.68,0.3,,1.06,1.85,,0.5,,,,1.4,0.84,
184622082314001,Patraput,18.77277778,82.52777778,,,,,4.72,6.02,2.67,3.25,4.62,6.22,1.57,3.87,5.21,6.2,1.71,4.5,5.63,6.77,3.15,2.55,5.49,6.96,1.84,,5,6.52,2.06,4.02,5.45,7.15,1.38,4,5.38,5.9,1.65,4.71,6.17,8.58,0.83,2.48,5,6.8,1.35,3.03,4.86,8.12,2.43,2.43,6.3,6.92,1.5,2.17,5.6,6.65,2,1.6,5.2,6.58,0.7,4.1,5.6,8.3,1.6,4.45,6.3,6.9,3.3,2.8,4.75,6.7,3.85,4.4,6,7.2,,3.4,5.55,7.15,2.03,2.85,5.05,6.65,1.55,2.7,4.95,6.4,2.15,4.05,,7.15,1.8,3.65,5.8,6.85,2,1.4,7.7,8,1.4,,4.9,8.3,1.3,2.7,4.74,,,3.06,4.8,,1.95,4.22,5.39,6.94,,2.8,,8.48,2.33,
185120082521201,Podagada,18.85555556,82.87,,,,,6.32,5.44,5.87,7.2,5.29,5.33,5.03,5.27,5.53,5.34,3.43,5.3,5.35,5.48,5.23,5.3,5.24,,3.12,,,6,4.73,5.33,5.4,,,5.28,5.36,,5.33,5.34,5.48,,3.98,5.3,5.38,5.48,3.93,5.33,,,4.08,,5.4,,,6.22,,5.43,5.23,5.33,5.48,5.43,6.22,5.23,5.33,6.23,4.08,5.38,5.58,6.23,5.33,5.43,5.53,5.43,5.23,5.48,5.43,6.13,,5.45,5.45,5.6,3.2,5.45,5.35,5.35,3.65,,5.35,5.35,5.15,6.95,,,3.75,5.35,5.35,7,5.5,5.23,4.43,6.13,2.13,,1.83,,1.73,5.07,4.72,,,,,,,,,,,,,10.56,3.04,
183348082574201,Potangi,18.56333333,82.96166667,,,,,5.18,5.6,4.01,3.03,4.57,5.93,2.53,3.93,5.25,5.99,4.89,5.73,5.96,8.28,5,2.4,5.05,6.43,4.88,,8.13,8,2.13,5.23,5.63,6.4,2.64,4.72,5.66,1.68,3.77,4.79,6.13,7.87,2.63,2.83,4.53,4.53,2.43,3.81,5.13,7.87,2.18,3.13,5.63,5.43,2.43,3.02,4.4,5.63,3.38,3.13,4.86,5.58,,5.13,5.43,6.13,4.13,5.33,5.54,6.63,3.83,3.63,4.73,5.63,4.83,4.83,5.73,5.63,,3.3,4,5.1,3.54,3.7,4.6,5.3,3.25,3.2,4.6,5.3,3.95,3.7,,5.6,3.58,3.6,4.7,5.22,3.5,,8.23,9.63,2.27,,8.43,8.63,6.53,3.37,4.49,,,3.17,4.13,,3.83,3.12,4.11,4.96,0.89,1.23,,11.33,3.42,
190632082282601,Sasanhandi-ii,19.10888889,82.47388889,,,,,6.12,8.43,1.74,2.9,5.82,3.3,1.02,2.76,2.05,2,0.98,2.2,5.54,8.68,1.28,2.39,1.63,2.12,1.23,,5.2,1.52,1.15,1.88,1.26,1.57,0.92,2.52,1.33,1.08,0.77,1.52,5.07,5.38,0.62,1.91,1.2,2.9,1,1.29,1.85,4.92,1.42,2.36,1.13,1.1,1.05,0.62,1.62,1.1,1.05,1.1,4.7,1.4,5.71,1.1,5.1,2.2,0.6,1.6,4.1,1.5,0.95,1.1,3.9,1.5,0.9,0.95,4.4,5.7,,1.1,5.4,1.05,1,1.1,4.8,1.1,0.7,1.5,5.35,1.2,0.85,1.4,,1.2,1,1.3,1.55,1.1,1,0.3,0.9,1.9,0.5,,1.7,4.7,0.4,2.54,4.87,,,3.06,0.8,,0.93,2.42,4.52,1.29,0.78,1.14,,0.7,0.59,
183053082365801,Soguru,18.51472222,82.61611111,,,,,7.2,7.78,6.48,6.42,7.29,8.37,5.63,6.67,7.37,7.97,5.97,7.02,7.3,8.34,6.24,6.09,7.08,8.23,5.32,,7.27,7.94,4.47,6.87,7.42,7.74,4.89,6.63,7.4,8.27,5.84,6.9,7.67,,4.67,5.57,7.27,7.62,3.42,5.97,7.1,7.8,3.43,5.86,7.42,7.79,3.82,5.72,7.09,7.92,4.97,5.47,7.12,7.67,7.58,6.47,7.27,8.16,5.27,6.97,7.77,8.15,5.67,5.72,7.07,7.77,5.72,6.32,,8.07,,5.77,7.17,,0.72,4.77,7.27,8.27,5.97,6.17,7.47,8.77,6.37,6.97,,8.75,5.57,6.57,7.57,8.8,2.4,5.47,6.27,6.77,3.47,,3.57,7.07,4.77,5.73,7.55,,,5.97,7.27,,,,7.63,8.07,,3.05,,7.97,5.78,
190447082352501,Tikaguda,19.07972222,82.59027778,,,,,3.71,4.8,3.12,3,3.9,5.7,1.6,3.28,4.12,5.1,1.88,3,3.77,5.51,2.47,2.67,4.73,5.41,1.88,,1.9,5.54,3.26,3.27,4.3,,1.42,3.26,4.36,,4.7,3.41,13.38,,1.6,2.8,3.4,4.8,0.1,2.9,3.87,,0.52,2.9,0.55,5.2,1.8,2.77,3.71,5.3,2,2.5,3.3,5.5,4.01,2.65,5,5.65,2.2,3.6,5.55,5.65,2.6,2.5,3,5.65,2.6,2.8,4.3,,,2.05,4.4,,,1.95,4.25,,1.1,2.65,3.95,2.15,2.15,2.75,,,2.25,3.05,4.03,6.6,2.3,2.5,3.2,3.8,0.2,,3.3,,0.2,2.8,3.5,,,3.32,4.1,,1.3,,,,,,,13.2,,
184530082261801,Baipariguda,18.75833333,82.43833333,,,,,,,,,,,,,,,,5.46,6,9.41,4.78,6.07,6.01,,6.7,,5.6,9.44,2.3,5.07,6.62,7.92,4.28,4.46,6.14,6.8,2.33,5.12,6.25,7.61,1.5,3.72,5.5,7.5,1.9,4.36,5.66,7.83,4.2,2.8,6.3,7.55,1.5,2.75,6.35,7.2,1.8,1.56,6.9,6.98,5.7,2.66,5.1,7.3,2.05,4.1,5.2,7,2.2,3.7,4.7,6.7,2,4.4,5.6,7.3,,4.1,5.3,7.3,1.79,3.4,5.2,5.1,1.78,3.7,5.2,7.5,4,4.6,,7.25,2.5,4.2,5.55,7.15,0.1,2.3,4.8,5.8,1.1,,6.5,7.5,0.8,3.27,5.21,,,3.21,4.45,,2.94,4.43,5.57,7.26,2.32,3.2,,7.05,3.89,
184918082301601,Balia,18.82166667,82.50444444,,,,,,,,,,,,,,,,,,,,,,,,,,,,,,,,,,,,,,,,,,,,,,,,,,,,,,,,,,,,,,,,,,,,,,,,,,,,,4,2.35,0.95,0.25,1.35,2.15,0.1,0.25,1.25,1.75,0.1,0.25,1.85,2.35,0.05,0.55,2.55,3.15,0.25,,0.45,2.45,0.2,,0.95,2.35,0.25,0.15,0.72,,,0.17,1.3,,0.08,0.37,1.7,2.08,0.03,0.39,,2.6,0.06,
191204082333401,Bangalaguda,19.20111111,82.55944444,,,,,,,,,,,,,,,,,,,,,,,,,,,,,,,,,,,,,,,,,,,,,,,,,,,,,,,,,,,,,,,,,,,,,,,,,,,,,9.8,9.3,1.08,1.85,7.4,8.1,0.65,3.8,8.7,5.1,0.4,4,5.65,7,0.7,2.7,6.3,7.5,1.3,3.2,3.6,7.6,0.4,,3.4,8.4,0.2,4.2,6.44,,,2.49,3.25,,0.69,4.1,4.25,6.02,2.56,3.3,,4.31,0.84,
184541082283401,Doraguda,18.76138889,82.47611111,,,,,,,,,,,,,,,,,,,,,,,,,,,,,,,,,,,,,,,,,,,,,,,,,,,,,,,,,,,,,,,,,,,,,,,,,,,,,7.1,7.35,4.57,5.4,6.05,6.55,5.15,5.25,6.25,7.25,6.15,5.9,6.65,7.55,5.55,6.05,6.75,7.5,5.7,4.65,5.35,6.55,3.65,,6.5,6.9,0.75,5.6,6.39,,,5.59,6.35,,5.5,5.47,6.12,7.79,3.03,3.31,,6.8,7.27,
184702082470201,Dumuriput,18.78388889,82.78388889,,,,,,,,,,,,,,,,,,,,,,,,,,,,,,,,,,,,,,,,,,,,,,,,,,,,,,,,,,,,,,,,,,,,,,,,,,,,,8.7,10.6,2.65,6.6,7.8,10.7,2.6,6.9,7.7,9.6,6.2,7.6,8.6,10.2,2.7,7,8.2,10.15,4,3.8,6.4,8.7,1.4,,7,9,2.2,6.2,7.14,,,6.25,7,,6.3,6.36,7.23,9.74,4.12,4.52,,8.67,7.33,
185805083021701,Kusumguda,18.96805556,83.03805556,,,,,,,,,,,,,,,,,,,,,,,,,,,,,,,,,,,,,,,,,,,,,,,,,,,,,,,,,,,,,,,,,,,,,,,,,,,,,7.5,7.6,6.2,6.2,7.4,8,6.2,6.6,7.4,7.4,7.05,6.3,7.35,7.5,5.9,6.5,7.6,5,7.2,7,4.3,8.3,5.9,,6.7,8.2,4.7,6.39,7.66,,,6.34,6.75,,6.51,6.95,,8.5,,,,8.85,4.52,
184601082231601,Mundaguda,18.76694444,82.38777778,,,,,,,,,,,,,,,,,,,,,,,,,,,,,,,,,,,,,,,,,,,,,,,,,,,,,,,,,,,,,,,,,,,,,,,,,,,,,6.9,6.7,2.96,4.4,5.65,7.5,1.8,4.6,6.15,7.6,2.1,4.9,6.7,7.2,2,4.7,6.3,7.5,2.3,1.9,2.2,7.4,2.3,,5.7,6.7,1.9,4.09,5.51,,,4.37,5.7,,3.24,4.61,5.82,8.05,2.7,3.2,,6.18,3.26,
183839082491601,Pitaguda,18.64416667,82.82111111,,,,,,,,,,,,,,,,,,,,,,,,,,,,,,,,,,,,,,,,,,,,,,,,,,,,,,,,,,,,,,,,,,,,,,,,,,,,,13.5,13.7,11.73,12.1,12.7,13.6,12.3,11.5,12.2,13.1,12.9,13.2,13,14.2,11.4,,12.6,13.7,13.2,12.2,13.4,15.3,11.36,,12.4,,10.7,11.1,11.72,,,12.76,13.2,,13.74,13.6,14.2,14.53,8.22,8.9,,14.17,9.25,
183517082460801,Chingudichuan,18.58805556,82.76888889,,,,,,,,,,,,,,,,,,,,,,,,,,,,,,,,,,,,,,,,,,,,,,,,,,,,,,,,,,,,,,,,,,,,,,,,,,,,,,,,,3.6,3.85,3.25,3.7,3.75,3.7,3.65,3.75,3.7,3.8,2.2,3.8,3.75,3.7,3,3.7,3.5,3.5,0.42,,3.95,4.95,0.4,,3.65,,,3.51,3.45,,3.65,3.72,3.77,3.78,2.4,3.1,,3.98,2.29,
190853083125001,Mandalguda Colony,19.14805556,83.21388889,,,,,,,,,,,,,,,,,,,,,,,,,,,,,,,,,,,,,,,,,,,,,,,,,,,,,,,,,,,,,,,,,,,,,,,,,,,,,,,,,7.8,8.5,7.6,6.8,7.9,8.5,8.4,7.8,7.95,,8.2,7.9,8,8.25,7.5,7.1,8.3,8.3,2.5,,2.5,6.1,7.1,6.99,7.71,,,7.81,8,,7.8,7.93,7.9,8.98,4.76,5.2,,8.91,5.14,
183134082413601,Satsimile,18.52611111,82.69333333,,,,,,,,,,,,,,,,,,,,,,,,,,,,,,,,,,,,,,,,,,,,,,,,,,,,,,,,,,,,,,,,,,,,,,,,,,,,,,,,,7.65,7.75,4.45,7.55,7.7,7.65,6.85,7.55,7.75,7.85,2.95,7.65,7.85,8.95,2.5,3.35,4.05,9.45,1.6,,7.45,10.25,2.95,6.45,7.61,,,7.62,7.85,,7.59,7.6,7.8,8.44,4.93,5.33,,6.11,7.42,
183706082481901,Subai,18.61833333,82.80527778,,,,,,,,,,,,,,,,,,,,,,,,,,,,,,,,,,,,,,,,,,,,,,,,,,,,,,,,,,,,,,,,,,,,,,,,,,,,,,,,,8.4,8.4,5.5,5.2,8.2,8.3,8.1,7.7,8.4,8.5,4,5.75,8.1,8.5,3.5,6.2,7.45,8.6,1.1,,6,7.2,3.7,6.95,8.14,,,7.38,8.2,,8.15,8.2,8.58,8.53,4.68,5.3,,9.56,5.61,
183636082533001,Kunduli,18.61,82.89166667,,,,,,,,,,,,,,,,,,,,,,,,,,,,,,,,,,,,,,,,,,,,,,,,,,,,,,,,,,,,,,,,,,,,,,,,,,,,,,,,,,5.75,3.15,3.25,5.05,5.75,3.85,3.9,5.1,5.85,3.8,3.95,4.15,,4,3.98,6.48,6.48,3.97,,6.47,,5.48,5.15,5.6,,,5.24,7.08,,9.08,9.23,9.28,7.89,4.74,5.68,,7.48,7.01,
184224082242001,Tanginiguda,18.70666667,82.40555556,,,,,,,,,,,,,,,,,,,,,,,,,,,,,,,,,,,,,,,,,,,,,,,,,,,,,,,,,,,,,,,,,,,,,,,,,,,,,,,,,,4.1,1.4,2.1,3.4,4.1,1.2,2.8,3.9,,1.5,2.7,3.85,4.4,1.35,3.5,3.5,3.5,1.2,,2.5,,0.3,1.99,3.33,,,1.96,3.15,,1.64,2.22,3.22,4.14,0.34,0.72,,3.53,1.58,
182833082410801,Bheja 1,18.47583333,82.68555556,,,,,,,,,,,,,,,,,,,,,,,,,,,,,,,,,,,,,,,,,,,,,,,,,,,,,,,,,,,,,,,,,,,,,,,,,,,,,,,,,,,,,3.6,3.95,2.95,3.2,3.9,6.2,2.85,6.9,4,5,3.2,2.4,2.9,4.1,1.6,,3.6,3.2,1.6,2.77,3.43,,,3.02,3.6,,3.11,3.38,3.46,3.48,1.76,2.6,,3.49,3.02,
185055082322401,Kantarkhal 1,18.84861111,82.54,,,,,,,,,,,,,,,,,,,,,,,,,,,,,,,,,,,,,,,,,,,,,,,,,,,,,,,,,,,,,,,,,,,,,,,,,,,,,,,,,,,,,,3.4,1.3,2.35,3.8,3.6,1.45,2.5,4.2,3.5,1.45,0.9,1.3,5.4,0.22,,3.6,,0.4,3.58,2.22,,,1.31,,,1.81,2.51,3.1,0.44,1.34,2.28,,,0.31,
185800082334501,Ambaguda1,18.96666667,82.5625,,,,,,,,,,,,,,,,,,,,,,,,,,,,,,,,,,,,,,,,,,,,,,,,,,,,,,,,,,,,,,,,,,,,,,,,,,,,,,,,,,,,,,,,,,5.3,1.6,4,5.1,5.7,3.75,3.2,3.5,4.5,0.75,,4.4,5.5,0.8,3.64,4.99,,,3.83,5,,2.4,4.19,5.03,5.28,1.4,2.1,,5.13,1.87,
190051083075901,Burja,19.01416667,83.13305556,,,,,,,,,,,,,,,,,,,,,,,,,,,,,,,,,,,,,,,,,,,,,,,,,,,,,,,,,,,,,,,,,,,,,,,,,,,,,,,,,,,,,,,,,,8.3,1,5,5.9,7.3,1.5,4.1,4.3,7.3,0.5,,5.4,6.4,1.2,,5.15,,,4.23,6,,4.8,6.5,8.64,6.96,3.42,4.18,,11.17,4.59,
190541083113601,Dhamanaganda,19.09472222,83.19333333,,,,,,,,,,,,,,,,,,,,,,,,,,,,,,,,,,,,,,,,,,,,,,,,,,,,,,,,,,,,,,,,,,,,,,,,,,,,,,,,,,,,,,,,,,3,0.1,0.05,0.06,2.95,1,1.2,1.3,2.7,0.5,,3.7,4.7,0.05,0.2,0.15,,,0.02,0.1,,1.04,0.4,0.3,2.05,,2.6,,1.24,0.05,
184718082450201,Disarikaraguda-New Colony,18.78833333,82.75055556,,,,,,,,,,,,,,,,,,,,,,,,,,,,,,,,,,,,,,,,,,,,,,,,,,,,,,,,,,,,,,,,,,,,,,,,,,,,,,,,,,,,,,,,,,8.4,4.8,7,7.3,8.7,3.2,2.8,3.4,8.5,3.06,,7.2,7.9,3.3,,7.2,,,7.04,7.2,,7.2,7.41,7.43,8.47,3.48,4,,7.28,6.29,
185954083073501,Laxmipur1,18.99833333,83.12638889,,,,,,,,,,,,,,,,,,,,,,,,,,,,,,,,,,,,,,,,,,,,,,,,,,,,,,,,,,,,,,,,,,,,,,,,,,,,,,,,,,,,,,,,,,10.85,8.55,9.03,8.75,9,1.3,0.95,1.75,5.95,7.45,,7.75,9.75,1.85,10.83,9.5,,,9.32,8.85,,9.4,9.82,8.85,9,6.25,6.51,,9.05,5.33,
184848082290401,New Ghasarda,18.81333333,82.48444444,,,,,,,,,,,,,,,,,,,,,,,,,,,,,,,,,,,,,,,,,,,,,,,,,,,,,,,,,,,,,,,,,,,,,,,,,,,,,,,,,,,,,,,,,,6.65,1.85,3.05,5.5,6.65,3,1.9,2.35,6.65,0.19,,2.95,5.95,0.25,2.24,3.75,,,2.23,3.45,,4.65,6.2,6.6,,3.57,3.85,,5.3,2.23,
185519082572701,Panchada,18.92194444,82.9575,,,,,,,,,,,,,,,,,,,,,,,,,,,,,,,,,,,,,,,,,,,,,,,,,,,,,,,,,,,,,,,,,,,,,,,,,,,,,,,,,,,,,,,,,,7.2,4.5,7.1,8.2,8.7,1.5,3.2,6.5,7,0.62,,2.9,3.9,0.3,4.44,4.88,,,4.52,,,7.52,7.69,4.49,5.82,5.09,5.3,,6.9,6.99,
184636082152801,Ramgiri1,18.77666667,82.25777778,,,,,,,,,,,,,,,,,,,,,,,,,,,,,,,,,,,,,,,,,,,,,,,,,,,,,,,,,,,,,,,,,,,,,,,,,,,,,,,,,,,,,,,,,,6.7,0.85,1.05,3.1,5.2,0.45,,0.2,6,0.8,,2.7,8.7,0.2,2.02,3.39,,,1.86,3.9,,1.38,1.4,1.9,4.82,0.36,0.64,,2.1,1.17,
185552082340601,Randapalli-Bj-I,18.93111111,82.56833333,,,,,,,,,,,,,,,,,,,,,,,,,,,,,,,,,,,,,,,,,,,,,,,,,,,,,,,,,,,,,,,,,,,,,,,,,,,,,,,,,,,,,,,,,,1.5,0.3,1.1,2.4,1.5,5.3,3.2,3.9,4.6,0.24,,1.7,6.4,1,2.81,4.39,,,3.28,3.3,,2.38,3.57,4.52,4.46,0.9,1.36,,4.48,1.36,
184237082520901,Similiguda1,18.71027778,82.86916667,,,,,,,,,,,,,,,,,,,,,,,,,,,,,,,,,,,,,,,,,,,,,,,,,,,,,,,,,,,,,,,,,,,,,,,,,,,,,,,,,,,,,,,,,,5.85,2.35,4.15,4.65,5.55,3,3.35,3.85,4.65,1.65,,3.85,4.85,1.85,3.56,4.18,,,3.42,4.15,,3.63,3.93,4.32,4.42,1.63,2.31,,3.31,3.42,
183036083032401,Sunki 1,18.51,83.05666667,,,,,,,,,,,,,,,,,,,,,,,,,,,,,,,,,,,,,,,,,,,,,,,,,,,,,,,,,,,,,,,,,,,,,,,,,,,,,,,,,,,,,,,,,,8.85,6.5,4.5,6.8,8.1,4.6,6.2,6.5,8.5,8,,7.9,7.9,7.4,,,,,5.34,6,,6.6,2.4,,4.49,,,,,7.34,
183934082350801,Teraguda,18.65944444,82.58555556,,,,,,,,,,,,,,,,,,,,,,,,,,,,,,,,,,,,,,,,,,,,,,,,,,,,,,,,,,,,,,,,,,,,,,,,,,,,,,,,,,,,,,,,,,9.3,4.7,7,7.9,8.9,3.7,6.7,7.4,8.4,0.9,,7,8.4,0.65,5.38,8.02,,,6.79,8.05,,8.18,7.67,8.3,9.42,3.82,4.36,,9.42,7.27,
185400082341101,Umeri1,18.9,82.56972222,,,,,,,,,,,,,,,,,,,,,,,,,,,,,,,,,,,,,,,,,,,,,,,,,,,,,,,,,,,,,,,,,,,,,,,,,,,,,,,,,,,,,,,,,,6.35,2.2,4.35,5.45,6.5,7.3,4.15,4.85,1.85,1.55,,5.45,6.95,0.65,1.01,3.12,,,2.84,5.7,,3.55,4.85,5.57,5.59,1.95,2.55,,7.55,3.34,
