station_id,station_name,latitude,longitude,1994_season1,1994_season2,1994_season3,1994_season4,1995_season1,1995_season2,1995_season3,1995_season4,1996_season1,1996_season2,1996_season3,1996_season4,1997_season1,1997_season2,1997_season3,1997_season4,1998_season1,1998_season2,1998_season3,1998_season4,1999_season1,1999_season2,1999_season3,1999_season4,2000_season1,2000_season2,2000_season3,2000_season4,2001_season1,2001_season2,2001_season3,2001_season4,2002_season1,2002_season2,2002_season3,2002_season4,2003_season1,2003_season2,2003_season3,2003_season4,2004_season1,2004_season2,2004_season3,2004_season4,2005_season1,2005_season2,2005_season3,2005_season4,2006_season1,2006_season2,2006_season3,2006_season4,2007_season1,2007_season2,2007_season3,2007_season4,2008_season1,2008_season2,2008_season3,2008_season4,2009_season1,2009_season2,2009_season3,2009_season4,2010_season1,2010_season2,2010_season3,2010_season4,2011_season1,2011_season2,2011_season3,2011_season4,2012_season1,2012_season2,2012_season3,2012_season4,2013_season1,2013_season2,2013_season3,2013_season4,2014_season1,2014_season2,2014_season3,2014_season4,2015_season1,2015_season2,2015_season3,2015_season4,2016_season1,2016_season2,2016_season3,2016_season4,2017_season1,2017_season2,2017_season3,2017_season4,2018_season1,2018_season2,2018_season3,2018_season4,2019_season1,2019_season2,2019_season3,2019_season4,2020_season1,2020_season2,2020_season3,2020_season4,2021_season1,2021_season2,2021_season3,2021_season4,2022_season1,2022_season2,2022_season3,2022_season4,2023_season1,2023_season2,2023_season3,2023_season4
221000088344501,Ambikanagar,22.16666667,88.57916667,,,,,,,,,4.15,,4.01,2.82,2.58,3.2,3.88,4.1,,3.4,2.08,,2.64,5.59,,2.14,2.43,4.38,3.85,3.65,3.75,3.94,3.68,3.01,3.84,4.41,3.78,3.51,3.8,,,4.07,4.15,4.99,4.25,3.9,4.03,4.8,4.16,3.65,4.16,,,,1.77,4.49,3.4,,,4.53,,,,5.02,3.86,3.38,5.07,6.21,4.33,1.95,4.38,,4.23,3.45,5.5,6.71,,7.99,5.81,9.19,4.43,5,6.42,7.84,7.34,,4.82,6.78,4.2,,,6.72,7.75,4.44,10.44,8.05,4.04,5.05,6.06,11.01,11.3,5.75,8.78,7.64,5.47,6.28,6.47,,6.14,2.42,16.88,,9.24,8.58,12.38,16.68,10.38,7.2,19.84,7.41,,
220405088140501,Andhamanitala,22.06805556,88.23472222,,,,,,,,,1.26,,2.3,1.95,2.6,2.9,1.75,1.08,2.66,3.16,0.67,2.9,3.12,4.35,1.13,2.65,1.64,4.26,2.85,2.8,2.83,3.37,3.17,3.08,3.1,3.24,3.06,2.41,2.44,3.37,2.98,2.66,1.33,3.05,5.87,2.38,2.62,3.45,1.77,2.23,1.77,3.56,2.15,4.3,4.44,2.06,5.88,1.54,5.5,4.3,3.06,3.85,1.95,4.75,5.15,2.61,5.34,,2.5,4.2,6.95,,5.49,,,,,7.1,6.15,7.04,6.87,,,6.45,7.3,,,,,,,9.26,,,8.03,,11.4,,6.55,10.57,4.1,8.06,8.97,,,,,,,,11.55,,,,,,,,,,,
222045088140501,Athaarobanki,22.34583333,88.23472222,,,,,,,,,2.57,2.64,1.5,1.71,2.02,2.6,0.87,2.12,2.8,2.84,1.25,1.05,2.18,3.34,1.71,1.93,2.54,4.17,2.31,1.96,2.1,2.34,2.22,2.16,2.89,3.21,2.14,1.58,2.85,1.91,1.09,1.1,1.03,2.49,0.87,0.56,1.21,2.3,4.17,0.56,4.17,2.7,1.3,1.35,1.55,2.45,1.53,1.25,0.8,2.48,2,1.5,2.09,3.35,2.8,2.3,2.35,,,2.06,,,,1.79,4.09,,,2.25,,4.84,2.36,1.97,1.98,4.72,,,,3.75,3.32,,,5.05,3.57,,4.96,5.79,7.56,,4.71,,3.22,,,5.4,4.85,3.05,3.06,,3.73,,0.52,,3.58,2.92,0.76,6.15,6.37,6.07,9.3,7.54,,
222930088190001,Barisha,22.49166667,88.31666667,,,,,,,,,0.43,0.63,0.28,1.39,0.12,0.3,0.13,0.27,0.27,0.16,0.1,0.23,0.34,0.27,0.22,0.28,0.52,0.23,0.1,0.28,0.29,0.43,0.32,0.29,0.26,0.33,0.1,0.2,0.18,,0.12,0.21,0.24,0.11,0.17,0.34,0.45,0.37,1.92,0.42,1.92,0.13,1.73,,0.5,0.23,0.26,0.45,1.1,0.38,0.27,0.8,0.43,0.23,0.32,0.63,0.27,0.07,0.42,0.07,1.25,0.13,0.1,0.02,0.13,0.26,,0.21,0.22,0.4,0.11,0.65,0.09,0.52,1.72,,0.96,,,0.25,,0.23,0.87,0.34,0.39,0.07,0.61,,0.23,0.21,3.08,0.43,0.23,0.73,0.1,,1.93,,0.05,,0.23,,0.12,0.13,,0.53,0.63,0.53,1.35,,,
222130088271001,Baruipur,22.35833333,88.45277778,,,,,,,,,4.05,3.31,5.32,1.34,6.01,6.26,5.66,5.71,6.87,6.52,5.76,5.55,5.58,7.31,5.77,5.29,5.78,7.55,6.43,5.77,6.16,7.61,6.13,5.91,6.82,7.5,5.63,5.95,6.76,,6.15,5.85,5.94,7.05,6.08,5.88,5.74,6.44,5.82,7.16,5.82,5.4,6.4,6.3,5.7,6.95,6.2,6.16,5.84,4.99,3.35,5.87,6.7,8.12,5,6.3,6.67,8.49,7.86,8.22,,10.05,7.2,7.63,6.96,,,,9.11,11.18,9.1,8.7,7.04,10.95,10.29,,10.02,12.07,11.02,9.71,,11.75,,,10.79,12.54,11.12,8.56,10.05,12.1,11.86,10.58,10.87,12.58,10.38,10.77,10.11,,10.28,0.67,8.05,,11.86,10.4,,11.45,11.75,11.15,12.88,11.35,,
222900088120001,Budge Budge,22.48333333,88.2,,,,,,,,,1.05,1.25,1.04,1.55,1.19,1.8,1.59,1.47,1.12,2.37,1.07,0.49,0.98,0.56,1.03,1.05,1.07,0.8,0.91,1.07,1.13,1.26,0.95,0.91,1.04,1.15,1.07,0.89,0.94,1.94,1.82,1.34,0.89,1.97,1.31,1.31,1.07,1.5,1.35,1.47,1.35,0.7,1.35,0.3,0.88,1.05,1.88,1.77,1.25,2.38,0.96,1.8,1.54,1.05,1.82,1.8,1.39,0.32,0.63,0.68,0.56,0.36,0.8,1.18,0.76,0.8,,0.3,0.36,0.92,0.56,0.45,0.49,2.1,1.69,,1.67,1.2,1.4,0.78,,1.18,1.24,0.55,0.79,0.39,1.85,,1.68,1.64,2.51,2.61,1.08,1.17,0.48,0.58,0.71,,0.75,,1.8,,3.85,0.65,,1.6,1.1,1.7,2.1,1.11,,
220910088251501,Burarghat,22.15277778,88.42083333,,,,,,,,,3.57,3,,,1.45,2.08,,4.34,2.57,2.73,1.5,1.03,1.53,2.88,1,1.53,2,2.58,1.6,1.69,1.86,2.23,2.03,1.99,2.11,2.47,2.07,1.26,,2.13,0.56,0.81,1.32,2.85,0.75,0.44,0.79,2.22,0.32,1.02,1.32,5.64,4.8,5.28,5.32,2.11,4.9,0.92,4.92,5.62,5.15,4.9,5.07,5.46,5.45,3.15,5.11,,6.36,6.66,5.4,6.73,6.22,5.95,,7.98,,7.29,5.89,7.17,4.74,,6.74,,4.74,,,6.66,,,,,,,7.97,9.48,9.88,,8.12,10.4,9.42,8.98,9.24,10.27,9.31,9.08,9.84,,8.85,9.62,9.05,,11.95,10.05,7.45,12.05,11.38,,13.4,10.4,,
221930088393001,Canning,22.325,88.65833333,,,,,,,,,1.57,2.58,,,,,,,,,,,,,,,,,,,,,,,,,,,,,,,,,,,,,,,,,,,,,,,,,,,,,,,,,,,,,,,,,,,,,,,,,,,,,,,,,,,,,,,,,,,,,,,,,,,,,,,,,,,15.24,8.73,,
222050088260101,Chandipur,22.34722222,88.43361111,,,,,,,,,3.5,,3.41,1.91,3.61,3.81,1.83,,3.09,3.86,3.01,2.93,3.17,4.05,2.6,2.69,2.83,2.91,2.61,2.7,2.78,2.96,2.57,2.51,,,,2.8,,3.55,2.15,2.4,2.9,4.12,2.46,3.46,3.61,4.36,2.73,2.17,2.73,3.68,1.58,2.68,4.32,,1.92,2.51,2.64,3.5,,2.44,,1.77,5.78,1.66,1.86,,3.3,2.78,2.85,2.81,1.83,1.7,5.11,3.81,,2.12,4.88,6.29,2.19,3.25,2.88,6.1,,,3.72,2.88,2.88,2.98,,3.53,2.9,,6.55,2.6,2.56,,3.28,2.38,3.05,,,4.7,1.54,0.94,1.32,,2.48,2.85,4.98,,5.14,4.38,2.18,4.4,6.94,1.38,6.1,1.73,,
221500088453001,Dakshin Barasat,22.25,88.75833333,,,,,,,,,4.1,4.64,3.82,3.84,4.01,4.65,3.3,4.68,4.91,4.63,4.24,4.21,4.15,5.1,4.42,4.14,4.24,5.27,5.37,4.35,4.69,5.31,4.65,4.54,5.26,5.59,4.96,4.74,5.37,5.43,4.74,4.58,4.43,5.53,4.9,4.56,4.82,5.86,4.4,4.64,4.4,5.18,5.33,4.98,5.03,5.93,5.32,5.43,4.68,5.79,5.27,5.08,5.69,6.63,5.08,6.16,5.36,,5.68,5.9,5.93,7.18,5.9,5.62,6.09,,,5.19,6.37,7.69,3.14,5.58,6.49,8,7.68,,,7.9,7.75,7.45,,8.64,7.75,,8.07,9.66,,,,,5.36,8.78,,9.84,,9.08,7.05,,,10.26,9.18,,8.82,7.88,6.58,10.97,10.58,10.48,12.81,10.63,,
222050088240501,Dhopagachi,22.34722222,88.40138889,,,,,,,,,3.35,,3.64,,4.6,4.87,4.09,4.92,,4.91,3.13,3.55,3.62,4.59,4.28,3.62,3.99,4.19,3.91,4.13,4.59,6.22,4.46,4.28,4.89,5.99,4.51,4.32,,5.81,4.52,3.93,4.31,5.95,4.86,4.28,4.32,5.7,4.37,4.18,4.37,5.12,4.85,4.5,4.8,6.3,5.03,,4.8,3.51,5.91,5.75,6.31,7.73,6.95,6.35,6.58,8.29,6.49,7.13,7.16,5.48,5.32,7.01,9.17,,,3.38,7.69,9.65,6.1,6.3,9.36,8.64,9.03,,8.5,9.5,7.1,8.23,,9.57,10.06,8.16,9.16,8.28,9.57,8.3,8.84,9.98,5.23,9.12,9.4,10.35,10.07,10.22,10.43,,8.6,13.15,10.6,,10.08,8.15,8.04,9.7,5.42,9.25,13.5,9.42,,
223141088363201,Katalia,22.52805556,88.60888889,,,,,,,,,2.38,3.58,1.83,,2.61,,1.99,2.75,3.5,3.6,1.61,1.89,3.63,3.65,1.08,1.68,2.54,,,1.8,,5.75,2.43,2.67,3.21,,2.38,1.64,,,1.19,,,3.23,3.13,2.98,,3.03,,,,4.33,1.73,2.77,3.71,,0.93,0.78,,,,3,3.36,,,,,5.38,3.93,3.65,0.95,5.45,2.97,3.53,4.85,7.22,,3.25,5.48,5.78,2.65,3.53,3.93,,,,5.58,4.93,3.13,3.9,,5.9,5.22,5.62,5.72,6.48,3.25,,3.37,,2.58,,4.1,5.82,,2.85,2.58,,,,4.3,,3.37,2.8,,7.1,3.4,7,6.11,8.55,,
214546088143201,Namkhana,21.76277778,88.24222222,,,,,,,,,3.69,2.6,3.6,3.61,,3.16,,3.04,3.3,3.23,3.03,,2.39,3.41,,,,,,,,,,,,,,4.53,,,,,,,,,,,,,,,,,,,,,,,,,,,,,,,,,,,,,,,,,,,,,,,,,,,,,,,,,,,,,,,,,,,,,,,,,,,,,,,,,13.9,,,
220400088273001,Radhakantapur,22.06666667,88.45833333,,,,,,,,,3.57,2.27,2.2,,2.37,3.02,,,,3.11,2.12,2.56,2.61,3.67,2.31,2.15,2.3,4.74,,3.37,3.46,3.6,3.41,3.32,3.51,3.77,3.46,3.21,3.43,3.97,3.81,5.68,5.86,5.92,3.82,3.66,4.11,5.89,5.38,3.8,5.38,5.74,4.77,5.34,5.51,5.45,5.82,5.62,5.74,5.03,2.5,5.31,,3.44,6.2,,,,2.79,3.88,6.08,5.02,4.32,3.72,6.35,8.44,,6.15,6.44,7.8,5.46,5.82,6.51,8.24,,,,7.8,,,,,,,,,,,,,6.54,,,,,,11.47,,,,11.12,,,8.22,9.12,13.12,,8.62,,,,
215900088260001,Raidighi,21.98333333,88.43333333,,,,,,,,,2.88,3,3.54,3.07,3.63,4.08,,,,,,,,,,,,,,,,,,,,,,,,,,,,,,,,,,,,,,,,,,,,,,,,,,,,,,,,,,,,,,,,,,,,,,,,,,,,,8.9,13.75,18.61,11.96,11.85,,11.25,12.96,8.4,12.63,8.91,13.63,,10.82,10.97,,,,11.08,,13.5,11.68,,13.63,11,12.18,15.3,13.04,,
222532088241501,Rajpur,22.42555556,88.40416667,,,,,,,,,2.86,4.65,,2.83,,,,,,,,,,,,,,,,,,,,,,,,,,,,,,,,,,,,,,,,,,,,,,,,,,,,,,,,,,,,,,,,,,,,,,,,,,,,,,,,,,,,,,,,,,,,,,,,,,,,,,,,,11.78,,,
220246088284001,Sonakhali.c,22.04611111,88.47777778,,,,,,,,,2.08,1.68,2.5,2.73,2.73,3.3,2.28,2.59,2.25,3.53,2.23,1.05,1.49,2.62,1.13,1.36,1.98,2.54,3.09,2.69,2.87,3.1,2.98,2.79,2.99,3.33,2.89,2.65,2.96,,2.29,2.59,2.48,4.01,2.4,2.12,2.4,4.13,3.86,3.31,3.86,4.18,4.16,3.83,3.97,3.73,2.68,3.23,3.65,3.08,3.16,3.34,3.68,4.38,4.28,3.18,2.58,4.32,2.97,3.71,,3.3,,3.18,3.73,3.54,,2.55,3.84,3.84,3.08,2.38,2.41,5.52,4.7,,1.94,4.8,4.8,4.06,,1.83,3.95,2.09,4.52,7.48,,,3.45,5.75,4.45,,,,2.98,3.87,4.67,,3.13,0.17,19.68,,2.9,2.5,6.81,9.73,6.91,6,9.82,12.49,,
220930088175001,Anchana Pz-1,22.15833333,88.29722222,,,,,,,,,,5.2,,,,,,,,,,,,,,,,,,,,,,,,,,,,,,,,,,,,,,,,,,,,,,,,,,,,,,,,,,,,7.84,,,,,,,,,,,,,,,,,,,,,,,,,,,,,,,,,,,,,,,,,,,,,,,,,,
221940088344501,Ramdhari,22.32777778,88.57916667,,,,,,,,,,3.07,1.94,1.15,2.1,2.5,2.35,2.64,3.72,2.92,1.35,1.75,2.13,3.95,1.66,2.01,2.3,4.03,2.55,2.43,2.51,2.64,2.56,1.93,3.53,3.75,2.59,1.37,3.45,3.07,1.56,1.32,1.59,3.49,1.83,1.46,2.04,3.63,2.07,0.97,2.07,2.5,2,1.7,2.19,3.87,1.93,1.87,1.78,3.64,1.95,1.48,,3.58,2.2,1.8,2.4,5.61,3.44,2.38,2.85,5.18,2.44,4.58,,,,,,6.38,6.87,,2.74,5.3,4.15,,6.6,5.93,2.7,2.85,,,,,,6.29,0.68,,3.36,6.66,6.24,,,5.4,4.84,3.83,6.88,,2.9,,7.8,,4.83,5.3,9,3.57,,,10.5,6.03,,
220930088175501,Anchna Pz-ii,22.15833333,88.29861111,,,,,,,,,,,1.94,,2.35,2.39,1.9,2.09,2.41,2.69,2.15,2.22,2.28,,,,,3.15,2.96,3.19,3.27,3.51,3.31,3.19,,,,,,,,3.8,,,4,3.89,3.98,,4.12,3.87,4.12,4.9,4.6,4.2,4.36,5.6,4.3,4.28,4.25,5.05,5.82,4,4.52,5.02,7,7.5,6.38,7.47,,,7.14,,4.98,4.22,7.02,,,,,8.54,,5.8,,5.85,9.8,,,8.96,,10.98,,11.68,,,,,,,,,,,,,11.1,11.62,11.01,,10.93,0.66,12.1,,11.2,9.05,12.03,13.6,4.9,13.2,13.98,16.18,,
220530088153001,Kulpi,22.09166667,88.25833333,,,,,,,,,,,4.87,5.67,4.95,5.05,,5.75,5.95,5.55,5.33,5.78,5.67,5.6,5.92,6.03,6.1,5.85,6.79,6.1,6.15,6.35,6.15,6.1,5.6,6.37,5.1,6.19,4.95,31.5,9.2,5.3,4.31,4.48,4.12,4.01,4.18,4.3,3.76,3.46,3.76,,,,,,,,,,,,,5.84,5,4.9,5.82,6.11,5.36,5.03,5.37,,,,,,,,5.51,8.45,,,,,,,,,,,,,5.56,6.53,10.51,11.46,12.2,,11.4,6.92,12.26,11.51,12.81,11.25,12.2,12.13,11.93,,12.25,,11.9,,13.37,13.5,12.77,12.1,9.06,12.4,13,,,
222956088361001,Bhangar,22.49888889,88.60277778,,,,,,,,,,,,,,,,,,,,,,,,,,,,,,,,,,,,,,,,,,,,,4.7,3.92,2.2,2.3,2.2,4.3,2.72,2.58,4.35,4.89,2.44,1.81,,,1.26,2.11,2.41,4.84,,,,5.51,2.72,3.38,2.38,4.88,,,,,,3.93,,7.06,,,,,,,,,,,,,1.7,,2.59,3.67,2.78,,2.83,3.97,10.91,1.05,,,,,,,,,0.7,,,,,,4.78,4.46,7.4,4.86,,
221744088063001,Falta Dw,22.29555556,88.10833333,,,,,,,,,,,,,,,,,,,,,,,,,,,,,,,,,,,,,,,,,,,,,2.87,5.29,1.57,1.45,1.57,4.48,1.13,1.73,2.83,4.86,0.98,1.45,3.03,3.68,0.91,1.73,4.02,2.84,1.21,2.01,3.93,3.05,1.58,1.98,3.16,2.48,,,,,,1.67,2.27,3.03,,,,,,,,,,,,,1.45,1.8,2.52,5.83,1.37,0.66,1.94,3.78,0.76,1.43,2.65,,,1.51,,,0.3,,0.6,,,0.73,1.8,,,,,2.26,,
222917088152401,Goragacha,22.48805556,88.25666667,,,,,,,,,,,,,,,,,,,,,,,,,,,,,,,,,,,,,,,,,,,,,1.06,0.38,5.98,0.71,3.4,0.35,1.5,0.45,0.66,0.7,1.55,1.61,2.24,0.39,,,,,,,,,,,,,,,,,,,,,,,,,,,,,,,,,,,,,,,,,,,,,0.69,,,,,,3.15,,,1.35,,1.1,0.41,0.56,2,1.28,,
220440088323001,Jamtala hat,22.07777778,88.54166667,,,,,,,,,,,,,,,,,,,,,,,,,,,,,,,,,,,,,,,,,,,,,3.2,3.18,5.14,3.19,5.14,4.4,3.08,3.36,3.53,3.98,3.18,3.01,3.25,4.43,3.16,3.5,3.74,4.69,4.38,2.73,3.84,5.73,4.2,4.39,4.31,5.81,,,,,,5.19,4.48,6.42,,,,,,,,,,,,,,8.34,,,6.33,,9.45,13.91,4.85,10.94,13.37,,9.46,11.69,12.49,,,,,,11.82,9.48,9.82,14.13,10.89,9.58,17.1,,,
220926088253801,Jaynagar,22.15722222,88.42722222,,,,,,,,,,,,,,,,,,,,,,,,,,,,,,,,,,,,,,,,,,,,,4.45,5.01,4.21,4.48,4.21,5.4,5.1,4.9,5.09,5.7,5.1,3.28,4.4,5.52,4.75,8,4.91,6.9,6.4,6.2,5.55,6.54,6.3,6.41,4.92,,,,,,,6.7,6.51,7.69,,,,,,,,,,,,,,10.07,7.94,9.63,9.18,8.6,8.25,10.34,8.57,9.37,11.29,9.94,9.28,3.54,3.74,,8.7,,8.55,,8.94,7.95,9.1,11.73,10.85,10.38,12.46,13.29,,
223335088350701,Kashipur,22.55972222,88.58527778,,,,,,,,,,,,,,,,,,,,,,,,,,,,,,,,,,,,,,,,,,,,,,4.9,3.45,2.8,3.45,4.6,3.23,2.78,4.7,5.08,3.2,2.73,,,3.85,3.29,4,,,,4.06,,4.92,4.48,2.54,6.08,,,,,,4.97,5.05,6.78,,,,,,,,,,,,,5.18,3.03,4.52,4.83,0.64,1.31,4.1,4.56,2.94,2.59,3.37,4.41,3.98,3.84,4.03,,4,0.47,11.1,,,7.04,,7.6,4.44,3.37,9.31,3.81,,
221442088424601,Panikhali Bazar,22.245,88.71277778,,,,,,,,,,,,,,,,,,,,,,,,,,,,,,,,,,,,,,,,,,,,,,,3.54,,3.54,4.14,4.1,,,,,,,,,,,,,,,,,,,,,,,,,,,,,,,,,,,,,,,,3.44,,3.53,6.55,3.34,,4.8,6.58,5.69,4.15,,6.81,5,3.45,3.55,,3.9,1.29,,,5.52,3.55,4.3,7.4,6.22,5.83,7.18,7.68,,
213538088160001,Bakkhali,21.59388889,88.26666667,,,,,,,,,,,,,,,,,,,,,,,,,,,,,,,,,,,,,,,,,,,,,,,,,,,,,,,,,,,,,,,,,,,,,,,,,,,,3.98,,,3.16,,,,,,,,5.68,5.82,6.67,,,,,,,,,,,,,,,,,,,,,,,,,,,,10.5,9.1,,
223205088365201,Bankchua,22.53472222,88.61444444,,,,,,,,,,,,,,,,,,,,,,,,,,,,,,,,,,,,,,,,,,,,,,,,,,,,,,,,,,,,,,,,,,,,,,,,,,,,3.55,,,3.41,5.75,4.17,,,,,,,,,,,,,,,,,,,,,,,,,,,,,,,,,,,,10.34,,,
222905088184801,Behala,22.48472222,88.31333333,,,,,,,,,,,,,,,,,,,,,,,,,,,,,,,,,,,,,,,,,,,,,,,,,,,,,,,,,,,,,,,,,,,,,,,,,,,,12.46,12.62,1.21,12.78,1.12,10.97,,13.2,,,13.38,1.06,1.12,12.79,,,,,,,,,,,,,,,,,,,,,,,,,,,,,,,
222905088184901,Behala1,22.48472222,88.31361111,,,,,,,,,,,,,,,,,,,,,,,,,,,,,,,,,,,,,,,,,,,,,,,,,,,,,,,,,,,,,,,,,,,,,,,,,,,,1.23,1.14,13.76,4.49,11.77,1.11,13.88,1.06,,,1.92,9.47,12.26,,,,,,,,,,,,,,,,,,,,,,,,,,,,,,,,
222624088344801,Bhojerhat1,22.44,88.58,,,,,,,,,,,,,,,,,,,,,,,,,,,,,,,,,,,,,,,,,,,,,,,,,,,,,,,,,,,,,,,,,,,,,,,,,,,,1.64,1.43,3.55,1.37,1.18,1.22,2.51,1.1,1.46,2.18,,7.27,1.25,1.9,3.28,,,1.54,2.84,,,1.2,,6.75,,,1.47,,,,,,,,,,,,,,,,,,
222351088101101,Dongaria,22.3975,88.16972222,,,,,,,,,,,,,,,,,,,,,,,,,,,,,,,,,,,,,,,,,,,,,,,,,,,,,,,,,,,,,,,,,,,,,,,,,,,,2.43,4.02,10.72,10.58,3.43,3.51,13.93,11.58,4.48,4.9,4.33,12.19,4.13,4.33,,,,,,,,,,,,,,,,,,,,,,,,,,,,16.45,16.27,,
221614088130601,Dostipur,22.27055556,88.21833333,,,,,,,,,,,,,,,,,,,,,,,,,,,,,,,,,,,,,,,,,,,,,,,,,,,,,,,,,,,,,,,,,,,,,,,,,,,,0.5,1.28,6.4,0.29,1.04,1,2.33,1.2,0.71,1.6,1.2,0.4,0.9,1.36,3.13,,,,,,,,,,,,,,,,,,,,,,,,,,,1.5,,,
221800088063601,Falta Dw,22.3,88.11,,,,,,,,,,,,,,,,,,,,,,,,,,,,,,,,,,,,,,,,,,,,,,,,,,,,,,,,,,,,,,,,,,,,,,,,,,,,1.67,2.27,3.03,1.14,2.18,2.03,2.64,2.3,,,3.64,,,,,,,,,,,,,3.26,,,2.3,0.28,,,,,,0.73,,1.25,0.86,1.83,10.96,2.76,2.75,,,,
215536088220501,Gurudaspur1,21.92666667,88.36805556,,,,,,,,,,,,,,,,,,,,,,,,,,,,,,,,,,,,,,,,,,,,,,,,,,,,,,,,,,,,,,,,,,,,,,,,,,,,7.26,0.35,,7.15,,,,,8.43,8.8,,,9.6,9.98,,,,,,,,,,,,,,,,,,,,,,,,,,,,15.25,,,
221026088250801,Jaynagar1,22.17388889,88.41888889,,,,,,,,,,,,,,,,,,,,,,,,,,,,,,,,,,,,,,,,,,,,,,,,,,,,,,,,,,,,,,,,,,,,,,,,,,,,6.7,6.51,7.69,4.6,4.4,6.78,7.54,3.25,,,8.3,,,,,,,,,,,,,4.04,,,,,,,,,,8.2,,,7,,11.78,10.9,11.2,12.46,,,
222721088180801,Joka,22.45583333,88.30222222,,,,,,,,,,,,,,,,,,,,,,,,,,,,,,,,,,,,,,,,,,,,,,,,,,,,,,,,,,,,,,,,,,,,,,,,,,,,8.3,8.63,9.97,8.74,7.78,,10.27,,,,,,,,,,,,,,,,,,,,,,,,,,,,,,,,,,,18.19,25.81,,
215548088120001,Kamarhat,21.93,88.2,,,,,,,,,,,,,,,,,,,,,,,,,,,,,,,,,,,,,,,,,,,,,,,,,,,,,,,,,,,,,,,,,,,,,,,,,,,,7.25,8.53,7.84,7.16,,5.4,9.9,,,,,,,,,,,,,,,,,,,,,,,,,,,,,,,,,,,15.57,,,
223401088353501,Kashipur1,22.56694444,88.59305556,,,,,,,,,,,,,,,,,,,,,,,,,,,,,,,,,,,,,,,,,,,,,,,,,,,,,,,,,,,,,,,,,,,,,,,,,,,,4.97,7.31,6.78,2.88,4.13,4.09,,,1.5,,5.03,3.6,6.11,5.87,,,,,,0.46,,4.53,,5.7,,,5.8,2.54,2.39,3.51,,4.02,,11.24,,6.12,5.2,,8.74,,,6.1,4.92,,
222308088241801,Langalberia1,22.38555556,88.405,,,,,,,,,,,,,,,,,,,,,,,,,,,,,,,,,,,,,,,,,,,,,,,,,,,,,,,,,,,,,,,,,,,,,,,,,,,,3.28,8.73,10.44,9,8.25,3.1,10.62,9.9,9.64,10.6,12.12,9.6,9.77,9.71,,,,,,,,,,,,,,,,,,,,,,,,,,,,13.37,,,
221948088090001,Nungi2,22.33,88.15,,,,,,,,,,,,,,,,,,,,,,,,,,,,,,,,,,,,,,,,,,,,,,,,,,,,,,,,,,,,,,,,,,,,,,,,,,,,12.18,11.28,14.57,13.08,0.9,11.83,9.65,14.3,13.05,,14.73,14.03,14.67,,16.04,,,,,,,,,,,,,,,,,,,,,,,,,,,17.09,,,
222808088092001,Pujali,22.46888889,88.15555556,,,,,,,,,,,,,,,,,,,,,,,,,,,,,,,,,,,,,,,,,,,,,,,,,,,,,,,,,,,,,,,,,,,,,,,,,,,,1.98,2,2.34,4,9.93,4.5,9.4,11.88,7.05,7.6,12.11,11,11.2,7.17,,,,,,,,,,,,,,,,,,,,,,,,,,,,15.9,16.96,,
221030088121301,Rajar Taluk,22.175,88.20361111,,,,,,,,,,,,,,,,,,,,,,,,,,,,,,,,,,,,,,,,,,,,,,,,,,,,,,,,,,,,,,,,,,,,,,,,,,,,2.1,0.76,0.77,2.5,0.92,0.85,4.6,1.74,0.57,,0.8,0.7,1.9,1.47,0.75,0.9,0.3,2.5,0.5,0.5,,0.46,,0.46,0.33,0.1,,,1.44,1.65,,,0.45,0.7,,,,,,,,,,,
214017088150501,Rajnagar2,21.67138889,88.25138889,,,,,,,,,,,,,,,,,,,,,,,,,,,,,,,,,,,,,,,,,,,,,,,,,,,,,,,,,,,,,,,,,,,,,,,,,,,,6.22,5.14,,6.11,,,,,,,,7.13,8.08,8.58,,,,,,,,,,,,,,,,,,,,,,,,,,,,,,,
221154088110901,Uttar Hazipur,22.19833333,88.18583333,,,,,,,,,,,,,,,,,,,,,,,,,,,,,,,,,,,,,,,,,,,,,,,,,,,,,,,,,,,,,,,,,,,,,,,,,,,,0.85,1.48,1.23,0.75,1.2,1.16,1.48,1.52,1.54,1.58,1.3,,1.13,0.95,2.99,0.95,,,0.88,0.3,,0.62,,1.15,,,0.8,,,0.74,,,0.04,0.75,,0.27,0.4,0.8,1.2,0.71,,1.6,1.42,,
222155088161801,Amtala1,22.36527778,88.27166667,,,,,,,,,,,,,,,,,,,,,,,,,,,,,,,,,,,,,,,,,,,,,,,,,,,,,,,,,,,,,,,,,,,,,,,,,,,,,9.13,10.09,10.89,9.17,8.98,10.1,5.9,,,,,3.1,,,,,,,12.03,0.87,11.34,12.28,10.84,12.33,,13.32,11.57,13.75,13.77,,11.12,11.2,11.9,,12.63,9.85,7.7,13.81,15.7,,16.2,9.72,,
215022088155501,Budhakhali Ashram More,21.83944444,88.26527778,,,,,,,,,,,,,,,,,,,,,,,,,,,,,,,,,,,,,,,,,,,,,,,,,,,,,,,,,,,,,,,,,,,,,,,,,,,,,7.81,7.17,,7.95,7.17,7.37,,,,,,,10.45,,,,,,,,,,,,,,,,,,,,,,,,,,,,14.5,15.75,,
221611088264201,Mathurapur (Ramnagar),22.26972222,88.445,,,,,,,,,,,,,,,,,,,,,,,,,,,,,,,,,,,,,,,,,,,,,,,,,,,,,,,,,,,,,,,,,,,,,,,,,,,,,8.53,,,8.25,8.52,7.27,8.45,,7.86,8.88,8.2,8.29,8.88,,,,,,,,,,,,,,,,,,,,,,,,,,,,12.4,13.97,,
221802088275201,Surjapur-Hut,22.30055556,88.46444444,,,,,,,,,,,,,,,,,,,,,,,,,,,,,,,,,,,,,,,,,,,,,,,,,,,,,,,,,,,,,,,,,,,,,,,,,,,,,2.6,3.49,2.84,4,2.64,4.63,2.55,3.09,3.69,6.1,2.2,2.82,3,,,,,,,,,,,,,,,,,,,,,,,,,,,,11.25,4.28,,
221124088112401,Uttar Hajipur,22.19,88.19,,,,,,,,,,,,,,,,,,,,,,,,,,,,,,,,,,,,,,,,,,,,,,,,,,,,,,,,,,,,,,,,,,,,,,,,,,,,,7.77,0.93,,8,8.14,1.18,0.9,3.91,,,1.2,0.98,,,,,,,,,,,,,,,,,,,,,,,,,,,,,23.2,18.88,,
222625088395901,Akratala,22.44027778,88.66638889,,,,,,,,,,,,,,,,,,,,,,,,,,,,,,,,,,,,,,,,,,,,,,,,,,,,,,,,,,,,,,,,,,,,,,,,,,,,,,4.64,3.08,1.85,2.69,7.56,,,,,,,,,,,,,,,,,6.1,2.88,3.98,4.82,2.68,2.55,4,,2.69,5.4,11,,5.24,2.95,2.48,6.1,,,,3.54,,
221850088393701,Canning1,22.31388889,88.66027778,,,,,,,,,,,,,,,,,,,,,,,,,,,,,,,,,,,,,,,,,,,,,,,,,,,,,,,,,,,,,,,,,,,,,,,,,,,,,,4.85,,2.99,2.13,6.45,4.53,,,,4.05,5.45,7.45,,,3.02,7.56,,4.3,,1.74,7.39,4.01,3.63,,6.02,4.79,3.58,4.01,,4.73,8.42,10.05,,6.11,4.35,6.73,9.44,8.93,8.71,14.9,7.51,,
220213088253801,Companitthek,22.03694444,88.42722222,,,,,,,,,,,,,,,,,,,,,,,,,,,,,,,,,,,,,,,,,,,,,,,,,,,,,,,,,,,,,,,,,,,,,,,,,,,,,,10.17,5.25,6.8,7,7.4,8.37,7.64,8.24,9.62,4.5,4.87,8.4,,,,8.33,,9.3,,7.61,10.84,7.82,7.04,9.18,11.06,12.21,9.73,9.99,,11.68,13.6,8.6,,10.71,8.95,11.5,13.85,13.8,17.5,13.5,17.86,,
222652088101701,Gobarjuri,22.44777778,88.17138889,,,,,,,,,,,,,,,,,,,,,,,,,,,,,,,,,,,,,,,,,,,,,,,,,,,,,,,,,,,,,,,,,,,,,,,,,,,,,,11.15,3.3,9.72,8.49,10.28,7.05,5.92,6.75,15.22,11.88,13.51,11.99,,,,,,12,,11.03,12.87,13.38,12.19,16.69,14.39,14.27,12.4,12.57,,14.21,,12.6,,13.79,11.75,12.8,14,15.16,13.7,16.2,17.86,,
222325088244501,Gobindapur2,22.39027778,88.4125,,,,,,,,,,,,,,,,,,,,,,,,,,,,,,,,,,,,,,,,,,,,,,,,,,,,,,,,,,,,,,,,,,,,,,,,,,,,,,8.08,10.26,5.72,5.61,12.01,9.89,10.22,10.45,12.22,8.81,10.07,10.6,,,,8.67,,6.37,13.15,10.08,,10.89,9,,12.88,,10.78,10.78,,3.65,3.99,11.8,,12.35,10.65,9.87,12.3,2.86,9.3,12.85,9,,
222639088420301,Jaikhali,22.44416667,88.70083333,,,,,,,,,,,,,,,,,,,,,,,,,,,,,,,,,,,,,,,,,,,,,,,,,,,,,,,,,,,,,,,,,,,,,,,,,,,,,,4.54,,2.47,1.64,8.3,,,,,,,,,,,,,3.92,,2.29,6.18,,3.18,3.68,5.02,4.53,3.53,3.72,,4.47,,10.5,,3.05,1.05,3.05,5.3,5.15,7.1,,7.17,,
222437088251301,Kadalia,22.41027778,88.42027778,,,,,,,,,,,,,,,,,,,,,,,,,,,,,,,,,,,,,,,,,,,,,,,,,,,,,,,,,,,,,,,,,,,,,,,,,,,,,,6.99,7.82,,5.34,7.7,,,,,,,,,,,,,,,,,7.98,,,,,,9.4,,,,11.9,,,10.15,,14.1,,0.4,10.3,,,
215229088141601,Kakdwip2,21.87472222,88.23777778,,,,,,,,,,,,,,,,,,,,,,,,,,,,,,,,,,,,,,,,,,,,,,,,,,,,,,,,,,,,,,,,,,,,,,,,,,,,,,9.51,,9.65,9.7,9.18,10.58,10.07,10.8,11.4,5.15,6.17,10.64,,,,10.86,,11.8,,12.1,,9.94,,13.31,,,,,,,,,,14.73,12.22,14.1,15.4,17.8,17.26,,,,
220416088255301,Khanrapara,22.07111111,88.43138889,,,,,,,,,,,,,,,,,,,,,,,,,,,,,,,,,,,,,,,,,,,,,,,,,,,,,,,,,,,,,,,,,,,,,,,,,,,,,,7.37,,6.94,6.91,7.94,,,,,,,,,,,8.13,,9.4,,9,10.84,8.82,10.22,8.32,10.76,9.82,9.5,10.19,,10.42,7.42,12.2,,14.79,11.85,10.76,13.36,12.12,10.2,14.05,10.57,,
221802088275001,Kumarhat1,22.30055556,88.46388889,,,,,,,,,,,,,,,,,,,,,,,,,,,,,,,,,,,,,,,,,,,,,,,,,,,,,,,,,,,,,,,,,,,,,,,,,,,,,,5.23,5.19,4.25,4.4,5.3,3.25,,,10.53,7.97,8.23,6.75,,,,,,7.43,,,,,,,,,7.16,,,,,,,13.28,,,,,,,,,
221422088362001,Nalia Khali,22.23944444,88.60555556,,,,,,,,,,,,,,,,,,,,,,,,,,,,,,,,,,,,,,,,,,,,,,,,,,,,,,,,,,,,,,,,,,,,,,,,,,,,,,6.03,3.84,3.25,3.63,6,4.87,3.52,4.35,5.79,2.79,3.85,5.1,,,,,,5.22,,4.98,9.02,,4.65,5.47,6.74,5.44,4.59,6,,,11.01,12.7,,6.41,5.75,,9.8,3.88,5.2,16,,,
221551088410901,Narayantala,22.26416667,88.68583333,,,,,,,,,,,,,,,,,,,,,,,,,,,,,,,,,,,,,,,,,,,,,,,,,,,,,,,,,,,,,,,,,,,,,,,,,,,,,,5.57,3.47,2.8,2.82,5.2,4.13,1.93,2.49,,2.9,1.7,5.14,,,,,,,,,,6.73,14.02,12.59,8.65,7.59,3.99,4.27,,4.62,2.94,8.42,,5.02,3.62,6.13,9.08,13.38,12.38,10.82,9.31,,
221653088381701,Paranikkheko,22.28138889,88.63805556,,,,,,,,,,,,,,,,,,,,,,,,,,,,,,,,,,,,,,,,,,,,,,,,,,,,,,,,,,,,,,,,,,,,,,,,,,,,,,5.93,3.03,1.7,1.86,4.95,3.51,2.03,2.85,3.16,2.79,2.34,6.7,,,,,,3.7,,4.17,7.44,3.57,4.94,2.5,5.98,6.1,2.94,3.4,,6.07,6.17,9.7,,5.75,4.35,,9.5,5.64,4.8,12.75,,,
221723088415501,Purba Bhangankhali,22.28972222,88.69861111,,,,,,,,,,,,,,,,,,,,,,,,,,,,,,,,,,,,,,,,,,,,,,,,,,,,,,,,,,,,,,,,,,,,,,,,,,,,,,5.17,3.64,2.7,2.57,5.12,,,,,,,,,,,,,3.67,0.85,2.83,,5.33,2.73,,4.85,3.64,3.17,3.05,,3.05,2.87,,,3.33,2.25,3.94,6.65,6,5.28,10.85,10.37,,
221612088264201,Sarberia,22.27,88.445,,,,,,,,,,,,,,,,,,,,,,,,,,,,,,,,,,,,,,,,,,,,,,,,,,,,,,,,,,,,,,,,,,,,,,,,,,,,,,6.86,5.29,5.42,5.4,7.01,6.79,5.78,6.4,6.82,5.8,6.8,7.2,,,,,,7.32,,7.58,8.67,9.98,7.48,,7.36,7.86,7.04,7.23,,7.3,12.87,8.8,,3.18,1.95,6.9,12.95,10.2,3.8,11.38,3.83,,
221749088102801,Sargaria,22.29694444,88.17444444,,,,,,,,,,,,,,,,,,,,,,,,,,,,,,,,,,,,,,,,,,,,,,,,,,,,,,,,,,,,,,,,,,,,,,,,,,,,,,7.13,8.21,,,7.02,,,7.55,,,,,,,,,,,,,,12.46,,,,,,,,,,11.25,,,7.75,6.9,13.75,,13.45,14.1,,,
222201088225701,Tangtala,22.36694444,88.3825,,,,,,,,,,,,,,,,,,,,,,,,,,,,,,,,,,,,,,,,,,,,,,,,,,,,,,,,,,,,,,,,,,,,,,,,,,,,,,8.69,7.15,5.7,7.37,9.61,9.01,9.92,10.6,9.82,9.78,8.92,10.7,,,,,,10.33,8.74,10.8,12.65,11.08,10.27,,12.67,7.23,9.95,10.16,,9.04,12.31,10.1,,9.97,8.25,8.93,13,11.3,9.15,11.6,8.95,,
222033088450201,Bhawankhali,22.3425,88.75055556,,,,,,,,,,,,,,,,,,,,,,,,,,,,,,,,,,,,,,,,,,,,,,,,,,,,,,,,,,,,,,,,,,,,,,,,,,,,,,,,,,,,,3.09,7.65,3.75,,,,,,,,,,,,,,,,,,,,,,,,,,,,,,9.69,10.27,,
222409088300101,Champahati,22.4025,88.50027778,,,,,,,,,,,,,,,,,,,,,,,,,,,,,,,,,,,,,,,,,,,,,,,,,,,,,,,,,,,,,,,,,,,,,,,,,,,,,,,,,,,,,5.95,5.67,2.95,,,,,,,,,,,,,,,,,,,,,,,,,,,,,,7.24,7.61,,
223246088261001,Dhapa1,22.54611111,88.43611111,,,,,,,,,,,,,,,,,,,,,,,,,,,,,,,,,,,,,,,,,,,,,,,,,,,,,,,,,,,,,,,,,,,,,,,,,,,,,,,,,,,,,13.58,,12.76,,,,,,,,,,,,,,,,,,,,,,,,,,,,,,14.82,,,
215823088123201,Nischintapur1,21.97305556,88.20888889,,,,,,,,,,,,,,,,,,,,,,,,,,,,,,,,,,,,,,,,,,,,,,,,,,,,,,,,,,,,,,,,,,,,,,,,,,,,,,,,,,,,,11.15,11.75,10.49,,,,,,,,,,,,,,,,,,,,,,,,,,,,,,15.25,,,
223455088340901,Polerhut,22.58194444,88.56916667,,,,,,,,,,,,,,,,,,,,,,,,,,,,,,,,,,,,,,,,,,,,,,,,,,,,,,,,,,,,,,,,,,,,,,,,,,,,,,,,,,,,,6.8,7.19,5.29,,,,,,,,,,,,,,,,,,,,,,,,,,,,,,9.8,5.8,,
214203088064501,Digambari-rudranagar,21.70083333,88.1125,,,,,,,,,,,,,,,,,,,,,,,,,,,,,,,,,,,,,,,,,,,,,,,,,,,,,,,,,,,,,,,,,,,,,,,,,,,,,,,,,,,,,,,8,8.59,10.1,,,,8,,9.83,9.16,10.83,,9.85,9.36,,10.03,,,,,,12.55,9.6,,9.11,5.85,12.06,13.46,14.33,12.72,,,,
215848088104801,Dholerhat,21.98,88.18,,,,,,,,,,,,,,,,,,,,,,,,,,,,,,,,,,,,,,,,,,,,,,,,,,,,,,,,,,,,,,,,,,,,,,,,,,,,,,,,,,,,,,,,,,,,,,,,,,,11.01,,10.15,,10.2,,10.1,,,11.27,10.77,,,7.45,10.76,12.6,13.87,13.05,,,,
221012088480001,Jotirampur Ferryghat,22.17,88.8,,,,,,,,,,,,,,,,,,,,,,,,,,,,,,,,,,,,,,,,,,,,,,,,,,,,,,,,,,,,,,,,,,,,,,,,,,,,,,,,,,,,,,,,,,,,,,,,,,,,,,,,,,,,,,,,,,,,,18.79,,,
215215088141301,Kakdwip,21.87083333,88.23694444,,,,,,,,,,,,,,,,,,,,,,,,,,,,,,,,,,,,,,,,,,,,,,,,,,,,,,,,,,,,,,,,,,,,,,,,,,,,,,,,,,,,,,,,,,,,,,,,,,,,,,,,,,,,,,,,,,,,,15.78,,,
