station_id,station_name,latitude,longitude,1994_season1,1994_season2,1994_season3,1994_season4,1995_season1,1995_season2,1995_season3,1995_season4,1996_season1,1996_season2,1996_season3,1996_season4,1997_season1,1997_season2,1997_season3,1997_season4,1998_season1,1998_season2,1998_season3,1998_season4,1999_season1,1999_season2,1999_season3,1999_season4,2000_season1,2000_season2,2000_season3,2000_season4,2001_season1,2001_season2,2001_season3,2001_season4,2002_season1,2002_season2,2002_season3,2002_season4,2003_season1,2003_season2,2003_season3,2003_season4,2004_season1,2004_season2,2004_season3,2004_season4,2005_season1,2005_season2,2005_season3,2005_season4,2006_season1,2006_season2,2006_season3,2006_season4,2007_season1,2007_season2,2007_season3,2007_season4,2008_season1,2008_season2,2008_season3,2008_season4,2009_season1,2009_season2,2009_season3,2009_season4,2010_season1,2010_season2,2010_season3,2010_season4,2011_season1,2011_season2,2011_season3,2011_season4,2012_season1,2012_season2,2012_season3,2012_season4,2013_season1,2013_season2,2013_season3,2013_season4,2014_season1,2014_season2,2014_season3,2014_season4,2015_season1,2015_season2,2015_season3,2015_season4,2016_season1,2016_season2,2016_season3,2016_season4,2017_season1,2017_season2,2017_season3,2017_season4,2018_season1,2018_season2,2018_season3,2018_season4,2019_season1,2019_season2,2019_season3,2019_season4,2020_season1,2020_season2,2020_season3,2020_season4,2021_season1,2021_season2,2021_season3,2021_season4,2022_season1,2022_season2,2022_season3,2022_season4,2023_season1,2023_season2,2023_season3,2023_season4
173200074030001,Atit,17.53333333,74.05,,,,,,,,,2.6,4.3,1.7,2,2.08,4.38,1.65,20.2,2,4.85,1.9,1.95,2.15,2.2,1.92,2.3,2.4,2.3,2.3,2.35,1.95,2.6,2.1,2.05,2.16,2.7,2.45,2.25,2.25,2.8,2.9,2.45,2.3,2.55,,,1.5,2.05,1.7,2.15,2.48,2.38,1.55,2.07,1.96,3.3,1.45,1.97,2.2,2.75,1.9,2.25,2.35,1.8,1.65,1.75,2,2.3,1.75,2.34,2.09,2.4,2.25,2.35,2.45,1.6,,2.42,6.1,3.6,3.1,2.2,3.2,2.85,1.9,2.4,2.4,2.5,2.45,2.1,,3.7,2.1,2.4,2.55,2.95,2.1,1.9,2.5,,2.1,,3.1,3.3,1.8,2.7,2.3,,,,2.2,,2.6,2.55,2.3,3,1.9,1.48,2.28,2.6,,
173200074200001,Aundh,17.53333333,74.33333333,,,,,,,,,7.9,10.25,6.45,5.4,7,10.38,6.75,3.98,7.75,,6.2,5.37,6.8,8.2,6.3,5.9,7.25,8.5,8.1,7,8.84,9.3,8.22,7.28,4.85,9.4,7.35,8.05,9.3,10.2,8.25,9,11.3,13.15,,,5.75,8.4,4.37,6.38,7.35,13.15,5.05,5.95,6.9,6.9,5.1,6.92,9.25,4.9,3.9,6.45,7.65,8.15,5.45,4.15,6.2,8.5,4.55,2.68,6.95,9.86,8.3,8.56,,5.1,,9.72,3.15,11,3.3,6,8.8,11.7,4.4,6.3,7.15,10.1,13.15,6.2,,10.5,5.1,5.8,9.65,10.22,9.8,4.7,7.4,7.4,6.1,,9.35,13.14,4.5,6.1,7.5,,,7.1,7.35,,9,6.45,8.2,4.94,1.9,5.28,3.2,4.18,,
180610074050001,Bhade,18.10277778,74.08333333,,,,,,,,,6.3,,8.84,5.4,5.86,8.35,9.05,,7,,5.6,2.42,,8.45,8,,,7.9,10.6,7.1,6.1,,6.3,4.55,6.48,,7.5,4.6,,,7.55,,,,,,3.15,8.05,5.06,3.85,5.6,10.76,3.65,3.2,6.3,12.5,7.37,4.9,7,9.8,8.4,6.98,6.98,11.2,8.33,3.98,4.73,7.98,5.08,,6.16,8,5.94,7.17,7.3,,,5.12,8.45,,9.7,,8.4,8.28,7.5,7,6.58,10.2,12.17,4.15,,9.38,9.75,7.4,0.9,12.5,9.2,6.5,7.6,,8.7,,9.45,,2.95,,5,,,,2.3,,7.5,4.9,5.8,12.7,12.55,5.18,6.7,3.1,,
171400073580001,Dhebevadi,17.23333333,73.96666667,,,,,,,,,5.85,9.64,1.27,1.72,5.5,8.01,,4.9,6.46,8.03,1.55,2.09,5.25,5.9,1.8,3,5.45,5.6,4.85,2.52,5.8,9,2.7,3.76,5.61,9.1,3.7,2.7,7.45,10.9,1.9,6.9,7.35,9.8,,,5.13,8.34,0.43,2.74,5.45,6.2,0.48,3.8,6,1.9,0.61,3.62,6.45,9,5,3.43,6.03,7.73,0.43,1.13,4.93,8.6,1.23,4.11,5.88,8.19,1.18,3.85,7.1,6.73,,4.95,7.7,,2.7,3.9,8,7.43,0.45,2.2,6.68,6.9,4.6,6.7,,8.65,1.65,4.3,7.1,7.6,1.8,3.9,6.1,4,1,,7.7,8.3,1.25,2.7,4.6,,,,6.1,,2.5,11.3,4.9,9.7,7.8,2.6,3.2,5.8,,
175305074353001,Javali,17.88472222,74.59166667,,,,,,,,,4.4,12.85,8.6,3.45,3.76,13.52,11,4.3,4.4,10.8,3.5,3.98,1.88,10.43,7.3,4,4.29,12.5,3.2,6.9,10.65,1.3,10.5,3.95,2.45,10.6,,3.5,4.25,9.73,5.85,3.9,8.88,8.88,,,4.4,8.88,8.2,3.56,3.67,8.5,3.46,3.52,4.63,8.88,3.62,4,5.8,13.2,10.5,3.05,2.85,7.35,1.35,1.6,1.9,2.7,1.6,3.1,4.12,4.4,4.9,11.9,11.9,11.6,,5.15,12.1,13,7.3,4.45,4.2,9.5,3.85,3.8,3.6,10.2,5.5,4.3,,10.7,9.5,3.5,5.5,13.5,10.8,3.25,5.9,6.7,10.5,,9.65,13.5,2.7,3.55,3.7,,,,4.1,,5,3.7,3.6,,,,6.1,6.2,,
173400074310001,Katar Khatav,17.56666667,74.51666667,,,,,,,,,9,,4.57,3.55,4.1,8.34,8.5,4.7,4.1,,4.05,3.83,6.59,6.55,4.85,4.3,7.21,,9.8,5.96,,,8.2,3.22,4.9,,9.1,8.6,,,,10.25,10.25,10.25,,,4.85,10.12,4.12,3.78,5.52,7.15,4.07,3.65,3.95,5.85,3.2,3.81,6.1,8.2,7.35,4.6,7.6,7.3,4.3,4.3,5,6.3,4.5,5.72,5,7.8,8.8,5.02,7,,,6.75,,,6.4,4.6,4.55,,10.2,4.5,5.3,10.25,10.25,5,,9.5,5.2,2.4,5.3,10.2,5.3,2.9,4.7,7,8.65,,7.2,10.24,7.9,3.9,4.6,,,,4.9,,6,4.7,5.3,7.11,4.7,4.48,2.1,5.2,,
174230073585001,Kondve,17.70833333,73.98055556,,,,,,,,,2,4.3,0.75,0.7,1.3,3.67,0.55,2.05,4,4.07,0.6,0.92,2.55,2.95,0.5,1,2.37,4,,0.76,1.6,3.9,0.6,1.05,2.1,4.6,0.15,2.05,2.9,5.42,1.05,1.9,2.65,4.1,,,1.75,4.15,0.75,0.65,1.9,4.5,0.52,0.93,2.12,4.8,0.52,1.37,2.9,5.4,0.55,4.25,4.55,,,,,,,3.78,4.83,10.51,5.4,8,5,,,5.2,1.45,10.8,3.6,4,5.05,4.45,1.7,3.6,4.45,11,,4.1,,9.85,3.25,3.8,5.4,11.59,,3.2,3.2,,3.15,,7.5,6.8,2.6,0.9,6.5,,,4.1,5.15,,4.4,4,2.7,5.4,,5.8,2.9,4.8,,
174200074110001,Koregaon,17.7,74.18333333,,,,,,,,,4.4,6.05,4.23,3.4,4.57,5.68,3.7,4.64,4.5,5.65,5.1,3.74,4,5.35,4.03,2.8,4.3,5.2,4.85,4.25,5.23,6.7,6.55,5.53,5.83,7.4,5.8,6,6.85,7.32,7.05,6.95,8.15,9.45,,,5.7,7.2,1.26,1.94,3.5,5.5,0.37,2.1,3.55,11.5,2.42,3.7,5.8,6.9,5.9,5,5.65,6,4.6,3,4,6,2.1,3.62,4.2,6.4,6.75,5.2,6.2,6.6,,6.11,,7.5,6.1,4.5,5.9,6.7,3.5,3.6,4.65,6.4,6.7,4.4,,8.15,5.5,3.9,6.4,8.4,7.2,5.2,6.6,7.5,5.7,,7.1,8.2,2.2,2.3,3.1,,,2.9,3.8,,3.6,4.6,4.8,7.08,4.15,3.3,4.71,5.3,,
175500073390001,Mahabaleswar,17.91666667,73.65,,,,,,,,,13.5,15.2,9.95,12.45,13.58,14.87,8.6,13.06,13.5,16,10.5,13.45,13.9,14.62,11.1,13.4,14.24,14.8,7.5,12.8,13.9,14.9,10.83,13.52,14.51,14.9,10.85,14.2,13.8,14.1,8.7,9.1,13.75,13.05,,,14.5,15.8,11.95,13.39,13.4,14.1,6.96,13.4,13.35,9.6,8.3,13.65,14.3,16.1,13.1,14.4,14.6,14.15,11.64,12,13.65,14.55,7,14.95,14,16.2,12.75,13.6,14,14.2,,14.02,2.95,14.8,12.4,13.1,14.7,15.9,11.2,14,13.85,14.4,11.4,14.3,,15.7,9.9,12,14.1,11.2,11.4,10.55,,,9.4,,,12.1,,13.8,,,,3.6,,,,,15.2,16.2,4.38,4.92,14.1,13.1,,
172000074010001,Malharpeth,17.33333333,74.01666667,,,,,,,,,9.9,10.1,7.6,9.08,10.54,11.75,5,9.35,11.7,10.44,10,11.16,13.25,11.7,7.6,9,11.6,11.55,9.9,10.1,9.8,11.7,10.8,9.42,10.17,12.2,10.1,10,10.7,11.65,0.95,11.35,12.1,12.45,,,11.2,12.35,6.14,8.39,13.22,16,6.92,9,9.82,14.2,6.8,9.45,10.1,11.9,8.9,10.2,11.65,10.3,6.5,8,8.8,11,7.3,9.67,,12.4,6,8.84,10.3,10.4,,10.72,12.4,11.6,7.85,10,11.1,11.1,6.4,9.4,9.4,11.3,10.65,9.7,,11.6,7.3,10,11.25,12.32,8.7,9.3,10.2,11.5,7.3,,12.3,12.7,6.6,8.1,10.1,,,,10.9,,9.4,9.7,11.3,10.6,6.28,5.92,11.1,5.9,,
171500074110001,Malkapur,17.25,74.18333333,,,,,,,,,2,4.32,3.07,2.96,5,7.36,3.05,4.12,6.22,3.27,2.6,3.87,5.32,6.15,4.6,4,6.6,4.75,4,4.5,3.9,5.7,4.02,2.9,4.86,8.3,8.85,4.5,11.3,4.4,10.35,9.35,7.9,9.45,,,4.65,11.05,4.49,3.93,9.6,10.9,3.7,1.92,3.9,4.8,2.97,2.26,3.2,5.2,3.2,0.85,2.65,2.25,2.29,0.65,2.6,3.9,0.8,1.55,2.15,3.25,2.3,2.7,3.6,3.95,,2.7,4.8,,1.75,2.2,3.1,1.2,1,,1.95,2.9,,2.9,,,,,,,,,,,1.8,,3.45,,3,,5.7,,,,3.5,,,3.2,3.7,,,,3.8,3.5,,
172342073444801,Manainagar,17.395,73.74666667,,,,,,,,,2.7,2.73,1.52,2.3,2.6,4.23,0.45,2.37,2.1,,1.75,1.57,1.67,3.9,0.73,2.3,2.15,1.9,1.5,2.35,2.4,3.6,1.6,2.3,1.85,,1.9,2.5,2.25,4.5,1.85,2.4,2.5,3.3,,,1.12,4.4,0.21,0.95,2.52,3.56,1.78,2.4,2.38,1.1,1.6,2.37,3.3,4.3,2.1,2.43,2.72,,1.53,2.23,2.5,4.5,0.54,1.88,2.48,3.49,1.73,2.4,2.55,,,2.12,2.1,,2.55,1.5,3.5,,1.7,2.3,2.63,1.9,1.9,3.1,,4.4,1.65,0.9,2.2,2.3,1.6,1.1,2.6,,1.8,,3.1,2.9,1,,2.5,,,2.4,1.75,,2.5,2.6,2.5,3.05,1.25,1.82,,3.1,,
175015074161001,Manjarvadi (Mol),17.8375,74.26944444,,,,,,,,,0.5,3.85,0.39,0.4,0.4,3.61,0.3,2.32,0.3,3.76,0.42,0.01,1.4,3.5,1.06,0.5,2.03,3.2,0.01,0.12,0.39,3.3,1.83,0.37,0.45,5.9,1.15,1.8,2.9,,1.9,2.9,7.77,7.77,,,1.2,5.1,0.34,0.34,1,1.2,0.5,0.01,0.28,3.2,0.01,0.01,0.01,6.3,0.01,2,7.35,4.5,1.7,1.6,1.15,4.1,0.65,1.68,0.31,4.55,1.1,2.7,3.5,,,0.48,6,5.5,8,0.25,1.05,,1,0.05,1.2,3.9,1.7,0.4,,9,0.9,0.5,0.1,4.95,3.5,0.6,1.9,1,0.4,,5.3,7.3,5.5,2.2,2.4,,,,0.01,,6.4,2.3,1.2,1.92,,0.9,2.1,2.18,,
175000073462001,Medha,17.83333333,73.77222222,,,,,,,,,1.2,5.1,0.32,0.16,1.83,4.42,0.28,,1.8,6.4,0.01,0.97,2.73,2.1,0.01,,2.67,3.2,0.01,0.48,0.9,3.9,0.01,,1.49,3.8,0.05,1,2.8,4.41,1.1,2.7,2.85,5.1,,,3.55,4,0.61,0.69,3.9,1.2,0.01,0.15,1.05,5.1,0.21,0.9,3.2,6.1,3.55,2.45,3.2,5.45,2.38,0.65,0.95,4.25,,1.17,3.18,4.45,2.62,0.2,3.3,5.75,,2.2,2.4,3.7,2.2,1.5,2.6,4.45,1.4,0.5,0.85,4.1,,1.75,,4.75,1.8,1.6,2.8,4.7,,2.2,2.6,,1.5,,4.25,4.9,1.4,1.1,1.1,,,,,,1.4,0.85,1.2,4.3,,3.18,2.55,4.2,,
173800074470001,Mhaswad,17.63333333,74.78333333,,,,,,,,,3.6,5.55,7.5,5.58,7.3,5.72,,3.85,7.4,,2.2,5.25,3.39,4.04,4.3,6.7,3.7,,4,6.12,7.5,6.8,5.42,4.16,7.31,6.9,,4.5,7.5,,8.1,7.9,6.05,16.53,,,5.18,5.54,3.27,4.26,7.9,8.8,7.62,6.18,3.22,,1.42,4.3,6.5,,,,,5.35,1.8,3.8,2.55,,3.6,,,6.6,,6.25,6.82,5.7,,6.98,,14.2,15.8,8.5,10.9,9,5.15,5.8,16.5,7.7,,8.15,,5.5,7.5,4.2,6.2,14.4,11.6,3.85,8.7,10.1,6.4,,8.9,16.52,,,,,,7.3,8.05,,,,,,16.52,16.52,5.76,5.8,,
175800074210001,Mirgaon,17.96666667,74.35,,,,,,,,,6,9.4,8,1.3,1.9,,8.8,9.35,8.6,12.5,10.2,2.44,2.78,5.1,7.8,2,1.2,11.15,,9.2,9.9,,11.85,2.7,9.6,10.4,11.05,10.4,,10.1,,,,,,,8.3,10.6,3.15,1.85,3.8,5.1,1.65,1.3,1.7,4.3,1.3,1.5,2.1,8.3,6.3,4.8,8.45,7.7,1.9,1.3,1.9,3.3,0.9,1.38,1.83,5.7,6.6,7.5,9.4,7.9,,8.74,6.1,10,10,3,3.32,11.4,7,4.5,11.5,10,10.3,3.2,,13,9.6,1.6,3.9,12.15,12.2,1.2,2.3,8.9,11.3,,11.8,10.5,8.2,1.4,2.3,,,,1.8,,9.4,3.1,2.3,,,,2.21,8.86,,
175330074301501,Mogarle,17.89166667,74.50416667,,,,,,,,,4.2,5.1,4.45,0.45,3.2,5.16,6.1,0.1,2.98,5.78,1.14,2.68,3.35,6.5,3.6,,3.45,4.3,,3.86,4.64,8,,0.58,3.01,5.8,,1.2,4.7,7.41,,4.4,7.63,7.63,,,2.83,6.63,2.96,2.34,3.9,4.8,1.05,2.48,3.9,4.2,1.55,3.15,5.3,7.2,1.3,,7.63,3.33,0.33,0.43,2.53,4.73,0.23,1.27,3.93,5.43,5.83,3.63,5.01,6.23,,4.73,6.68,6.9,5.25,2,4.25,,1,3.2,5.7,6.3,4.1,2.2,,7.4,3.3,2.5,4.4,7.62,4.3,3.1,4.4,3.6,7.1,,6.6,,3.8,1.2,3.5,,,2.3,3.1,,3.4,,2.8,,,,4.61,7.82,,
171918073534201,Morgiri (Shivpurpeth),17.32166667,73.895,,,,,,,,,1,,0.74,1,1.05,4.85,0.8,0.94,1.2,,0.8,1.02,0.67,2.77,0.74,1,1.27,3.1,1,0.9,0.92,4.2,0.76,1.15,0.84,2.2,0.35,0.8,0.95,2,0.95,1.1,1.35,1,,,0.8,0.97,0.15,0.73,0.85,1.1,0.87,0.66,0.67,1,0.84,1.39,1,1.8,1,0.7,0.75,0.9,0.5,0.8,0.7,1.85,0.5,1.17,0.55,1.37,0.65,0.73,0.6,0.3,,0.9,2,1.3,1.7,1,1.6,1.2,0.2,0.9,0.9,1,1.1,1.5,,1.25,0.9,0.5,0.5,0.56,1.4,0.4,1.6,,0.5,,1.2,,1.2,,1.6,,,,,,,,,,,3.2,0.3,2.2,,
170830073584501,Muttalvadi,17.14166667,73.97916667,,,,,,,,,1.5,,2.19,2.07,4,4.16,,2.73,3.48,,1.9,2.21,2.95,5.9,1.95,2.6,3.06,,2.4,1.23,,,1.83,2,2.96,,1.3,4,3.8,,2.15,2.3,2.9,3.9,,,2.68,6.64,0.32,2.12,3,5.8,1.98,2.4,,1.4,1.42,1.79,4.4,4.61,2.2,,1.03,0.53,,0.93,1.33,1.43,,,1.38,1.55,,,5.8,4.43,,1.65,3.45,,1.2,0.7,3.1,3.53,1.65,1.8,2.63,5,1.8,3.05,,4.2,1.5,1.8,4,5.45,1.6,2,3,1.3,1.7,,4.9,,1.45,1.5,2.1,,,,3.3,,1.8,1.9,1.8,2.8,1.35,1.2,4.6,4.18,,
175900074340001,Nimblak,17.98333333,74.56666667,,,,,,,,,4.4,5.15,2.52,2.26,4.2,4.53,2.45,4.25,2.32,4.39,2.7,7.15,3.95,3.78,3.1,2.4,4.4,5.25,3.15,7.8,4.11,6.5,4,3.9,4.17,4.8,5.65,5.3,5.4,7.1,6.1,5.7,,,,,4.2,9.18,2.97,2.5,4.18,7.45,2.75,3.55,8.28,5.3,1.38,2.7,10.15,7.65,7,2.45,4.75,5.4,2.52,1.75,3.95,4.15,2.95,3.33,3.2,3.6,3.25,4.84,3.67,3.85,,3.62,3.9,4.7,3.4,3,4.35,3.3,1.45,4.5,1.95,2.3,5.2,3.1,,6.3,,2.1,3.65,2.5,,,3.6,2.4,2.4,,4.25,2.6,2.6,3.2,2.6,,,1.9,3.3,,3,2.1,2.5,,,,2.95,3.45,,
175500073450001,Panchgani,17.91666667,73.75,,,,,,,,,14.6,17.5,4.02,5.52,11.53,16.44,4.65,10.07,12.62,18.15,7.05,5.62,11.22,8.35,4.3,6,11.09,15.5,10.5,7.9,10.1,15,4.13,7.58,10.85,15.2,4.25,9.85,10.05,10.27,6.9,7.1,12.65,17.2,,,10.65,17.76,2.6,7.01,8.95,12.3,2.22,8.2,12.2,20.5,1.57,8.7,12.15,17.3,5.4,8.3,9.5,11.5,4.95,4.3,9.15,10.5,3.25,7.33,7.9,10.55,4.65,7.7,8.3,9.75,,,9.6,9.7,4.8,8,9.7,10.85,2.5,7.3,9.65,10.9,7.2,7.8,,10.85,3.55,5.9,9.45,9.2,6.7,5.4,6.5,,3,,10.3,10.1,2.7,5.4,7.8,,,,9.15,,4.8,6.45,,8.2,,6.2,7.55,7.2,,
173900074310001,Pingli,17.65,74.51666667,,,,,,,,,5.4,,4.7,0.44,4.7,,8.8,6.7,6.6,,2.95,0.8,5.15,,8.1,2,7.02,,4.73,3.5,6.7,,8.82,0.6,5.15,,6.15,6.1,7.45,,7.05,7.45,9.96,9.96,,,6.35,9,1.8,2,5.3,9.96,,,6.35,10.1,0.6,4.7,8.1,10.2,3,3.9,7.1,5.15,,0.55,4.9,9.6,0.95,0.5,4.57,9.25,,8.5,8.9,11.55,,5.42,,,8.2,3.5,7.5,,6.9,3.3,7.8,8.6,7.2,3.85,,8.6,2.3,0.8,6.48,,4.9,1,7.1,7.2,7,,9.2,11.74,3.5,1,4,,,1.6,6.3,,7.5,2.85,2.5,9.13,3.9,4.18,6.6,,,
173600074120001,Rehmatpur,17.6,74.2,,,,,,,,,9,10.5,5.52,3.76,9,9.16,4.35,8.82,7.1,10.52,5.7,4.67,6.16,6.2,5.1,4,7.4,5.8,6.7,7.7,10.3,8.5,8.98,9.05,10.12,9.7,7.1,10.5,10.75,11.4,8.9,9.1,11.1,11.9,,,5.5,11.9,3.05,5.7,4.85,5.5,2.92,6.1,5.92,8.5,4.2,5.3,6.2,7.3,6.5,4.3,5.2,9.8,10.8,4.2,9.5,7.1,4.1,,14.23,7.25,6.95,6.2,7,8.8,,7.22,4.6,12.6,11,5.3,7.5,7.5,5.2,7,6.6,8,9.7,5.4,,11.9,9.08,6.9,7.45,10.75,9.8,6,6.1,7,5,,5.4,9.2,2.8,3.2,5,,,,7.1,,8.8,5.2,5.8,12.72,,7.48,11.95,7.82,,
171312073523001,Savantwadi (Jinti),17.22,73.875,,,,,,,,,2,5.65,0.74,1.82,2.5,6.01,,2.76,2.67,,1,1.9,2.6,3.9,,2.4,2.69,6.1,,2.05,2.98,6.4,0.79,2.18,2.11,,1.7,1.8,2.95,5.55,2.3,1.9,3.1,3.9,,,3.15,5.04,0.59,2.43,2.95,3.45,1.12,2.15,2.21,2.1,,3.3,3.4,2.4,1,7.4,2.95,4.35,2.56,2.25,2.7,4.4,2.2,,,,,,,,,5.15,4.91,,,,3.7,,0.01,2.1,2.6,6.2,1.86,3.55,,4.2,1,1.3,4.45,7.5,,2.7,,2.7,1.2,,,5.78,,,,,,,,,,1.55,1.9,3.86,2.18,3.18,3.19,4.1,,
173818074030001,Shendre,17.63833333,74.05,,,,,,,,,0.9,1.1,0.35,0.18,0.35,1.17,0.6,0.6,0.5,2.25,0.15,1.04,1.2,0.9,0.2,0.9,1.02,1.1,0.01,0.29,0.8,1,0.35,0.34,0.58,1.05,0.2,0.6,1.9,1.4,0.8,3.15,3.65,1.7,,,1.3,1.06,0.37,0.43,0.65,0.85,0.95,0.86,0.62,1.9,0.7,0.67,1.2,1.9,1,0.5,0.7,0.35,0.37,0.5,0.55,0.85,0.55,0.22,1.9,0.9,0.8,0.3,0.8,0.1,,,0.9,0.9,1.7,0.8,0.89,1.1,0.8,0.9,0.8,1.65,0.9,0.9,,1.4,0.6,1.2,1.65,1.7,1.5,0.65,1.5,1.6,1,,1.65,1.37,1,1.5,1.7,,,,0.5,,2.4,0.95,1.7,1.47,3.1,1.03,,1.02,,
172800074490001,Shenwadi,17.46666667,74.81666667,,,,,,,,,4.8,7.7,7.45,1.52,3.85,4.86,,4.16,4.12,,2.4,2.14,4.46,4.5,4.4,3.1,4.58,5.3,4.8,3.52,4.54,5.6,,1.42,3.68,5.3,,3.8,5.5,8.33,,9.1,8.32,8.32,,,4.44,4.9,3.54,3.55,4.3,8.32,1.76,3.6,4.28,6.6,4.05,4.3,5.55,5.6,3.85,3.8,4.6,4.9,1.15,1.8,3.55,4.9,2.45,2.37,3.46,3.95,4.3,4,5.08,,,5.32,,,,2.3,4.68,4.7,4.8,3.4,3.15,4.8,4.05,2.4,,5.35,3.35,3.2,4.1,8.32,8.32,2.5,4.1,4.1,5.2,,6.45,8.32,5.5,2,2.9,,,2.2,3.3,,5.6,2.9,2.7,5.32,4.47,3.9,4.15,6.2,,
180900073583001,Shirwal,18.15,73.975,,,,,,,,,11.6,13.8,12.43,9.7,11.63,11.6,6.95,,8.8,10.22,10.1,5.68,5.76,7.56,6.6,5.3,8.21,8.55,7,8.35,8.9,7.8,8.3,7.43,7.91,8,6.5,7,7.5,9.22,7.05,4.9,10.35,12.7,,,5.35,7.47,3.98,3.86,7.05,7.2,1.9,2.78,5.6,10.7,3.41,3.85,7.8,8.7,7.2,6.38,11.1,11.7,9.78,3.3,8.7,12.6,4.75,5.12,7.2,9.45,12.2,7.1,10.6,9.4,,7.14,10.4,9.8,6.6,6.2,10.7,9.3,,6,7.95,12.8,6.7,6.3,,7.6,8.3,4.8,10.5,11.25,9.7,4.2,5.63,7.45,8.3,3.4,5.47,8.85,2.95,1.8,2.9,,,6.8,9.2,,,3.35,3.7,7.6,3.9,3.2,4.03,7.79,,
175800073590001,Surur,17.96666667,73.98333333,,,,,,,,,10.4,,5.12,6.02,7.2,5.56,6.2,7.42,7.2,10.32,8.6,6.92,8.65,,9.4,5.5,7.41,10,,8.55,,,,8.44,,,,9.8,,,,11.1,11.1,11.1,,,7.9,11.1,5.72,6.9,99.99,11.1,,6.5,6.82,,,5.02,6.4,6.9,5.4,8.2,8.5,8.5,,6.4,8.3,10.4,6.7,6.09,5.18,11.62,8.8,6.4,8.9,11.79,,13.22,9,13.6,8.6,6.9,7.7,9.5,13.8,14.9,15.35,14,13.9,7.1,,17,6.2,8.9,9.3,,10.7,7.5,6.3,,10.3,,21.2,21.5,5.9,4.7,6.3,,,,6.4,,8.4,6.9,7.1,9.5,5.9,4.2,4.91,7.18,,
175200074193001,Tathvade,17.86666667,74.325,,,,,,,,,6.2,10.4,5,4.2,6.55,3.67,5.05,4.94,8.5,13.6,4.9,4.8,7.1,11.4,7.45,4.7,7.85,11.7,5.7,4.72,6.44,,12.09,4.1,6.63,10.7,4.15,5.5,8.1,12.85,,11,11,11,,,6,8.18,4.25,4.85,6.72,7.9,4.65,4.55,5.44,7.8,4.54,5.68,7.8,10.2,8.8,3.48,9.1,6.65,2.51,4,5.2,10.4,4.15,5.05,5.9,12,10.7,8.1,12,13.4,,5.11,6.85,11,6,5,7.05,13.3,6.75,5.2,6.9,12.5,5.6,5.3,,12.75,4.5,4.1,6.8,12.9,5.9,3.35,7.6,6,7.76,,10,14,4.6,3.4,5.3,,,,6.4,,5.6,5.9,5.4,,,,7,9.8,,
170933074043001,Undale,17.15916667,74.075,,,,,,,,,6.3,8.6,2.33,2.42,5.9,7.63,,4.84,5.5,6.86,2.6,6.1,4.1,5.15,4.9,4.7,4.71,9.2,6.1,3.9,8.2,10,5.18,4.5,6.34,7.4,1.15,5.3,9.3,10.45,4.85,8.9,9.55,11.35,,,6.25,8.45,2.45,4.15,9.02,10.2,2.32,4.58,4.88,7,3.17,4.47,11.2,7.4,1.5,4.03,5.58,8.73,1.68,2.23,5.53,7.63,1.03,2,5.83,7.03,3.08,2.3,7.8,5.23,,5.22,9,7.3,4.9,3.85,9.2,8.53,0.5,4.6,6.43,3.8,3.9,4.15,,7,3,3.7,7.1,7.4,1.8,2.6,4.8,4,1.35,,4.7,7.2,1.6,2.9,3.7,,,,2.25,,2.2,1.9,3.6,,,,3.9,2.3,,
174510074030501,Vaduth,17.75277778,74.05138889,,,,,,,,,5.3,5.1,4.83,4.54,4.65,4.67,3.05,4.55,4.53,5.22,4.78,4.96,5.52,5.12,4.47,4.65,4.54,5.2,4.95,4.54,5.3,5.5,5.55,5,5.46,5.35,,4.9,4.65,5.85,5.5,5.2,7.05,8.2,,,5.7,4.63,3.15,4.35,5,3.78,4.4,4.34,4.32,4.8,4.5,5.42,6.1,3.8,3.8,4.6,4.1,5.5,5.2,3.7,4,3.9,3.9,4.98,4.14,5,5.1,4.07,3.9,5.3,,4.02,4.1,4,,4.5,4.5,4.5,3.3,3.7,4,4.2,3.7,3.9,,4.7,3.95,3.9,4.3,3.8,3.9,4.5,4.2,,4.05,,5.1,,3.95,4.5,5.45,,,,5.2,,5,5.05,4.9,4.98,4.4,4.11,5.06,3.96,,
172321074065601,Varade,17.38916667,74.11555556,,,,,,,,,3.3,4.12,3.47,3.07,3.34,3.14,0.6,3.22,2.8,4.52,2.92,3.44,3.78,3.2,3.38,3,2.8,3.4,3.1,3.25,4.17,6.8,3.02,2.5,2.7,4.1,4.45,3.1,4.35,3.7,3.5,4.1,4.2,5.1,,,2.94,3.3,1.2,3.25,3.87,4.1,2.65,2.25,2.6,7.2,2.1,3.07,4.3,7.1,1.95,4.1,4.9,12.6,2.35,1.1,3.4,,2,4.21,3.83,2.15,3,3.4,3.3,5.15,,3.72,6.1,2.4,,3,9,5.8,1.25,5,2.05,3.2,3.9,3,,10.15,3.1,3.4,4.1,8.5,3.3,4.25,5.8,,3.8,,6,,2.9,3.35,5,,,3.2,4.75,,4.7,3.4,4.3,,,,,6.4,,
172900073585501,Velkhandwadi (Tarli),17.48333333,73.98194444,,,,,,,,,5.5,6.8,4.9,4.2,4.8,6.38,,4.82,4.54,6.71,4.3,2.24,2.5,6.5,4.05,4.6,2.98,6.9,5,4.5,4.8,7.6,4.64,4.43,4.84,2.35,2.9,1.5,3.15,7.4,3.5,3.95,4.45,5.2,,,4.21,8.62,4.05,4.58,4.62,7.55,2.69,5,5,9.1,4.33,5.21,5.2,9.2,6.4,,,,,,,7.55,4.86,5.31,5.1,7.86,,5.2,5.8,,,2.02,3.55,8.2,5.6,4.9,6.05,8.76,4.45,4.8,5.16,7.8,5.3,5.7,,8.1,4.8,1.8,2.3,9.1,4.8,2.5,5.9,1.3,4.9,,6.8,4.8,4.3,5.4,4.9,,,,4,,5.3,5.1,4.7,7.4,4,4.6,6.01,5.5,,
175700073540001,Wai,17.95,73.9,,,,,,,,,3.1,3.84,2.36,1.88,2.7,3.22,0.85,2.37,2.54,4.37,1.92,2.47,2.67,4.85,2.63,2.3,2.79,2.65,2.62,2.72,2.62,3.5,2.35,2.32,4.17,3.05,2.55,,2.5,3.27,2.95,1.9,2.85,4.1,,,2.6,3.16,1.59,2.31,2.48,2.4,1.1,2.49,2.55,4.3,1.2,2.4,3.2,3.9,2.1,3.2,3.25,3.45,2.6,2,3.1,3.75,2,3.39,2.88,3.9,4.15,3.1,3.6,3.5,,,2.4,3,2.85,2.9,3.75,4.2,0.01,3.2,3,3.8,3.35,3.4,,5.2,1.95,2.4,3.21,4.2,2.8,2,3.9,,2.8,,4.3,2.4,1.7,2.65,2.7,,,2.9,2.6,,3.2,2,3.1,3.5,1.62,2.8,3.1,3.6,,
175400074080001,Wathar (Station),17.9,74.13333333,,,,,,,,,14.6,19,15.3,10.28,12.19,17.31,15.7,14.2,13.77,14.51,16.3,6.81,9.39,15.9,15.5,8.1,10.7,15.8,15,13.55,16,20.2,20.52,9.73,12.41,16.6,18.1,19,21.4,,,13.5,13.5,13.5,,,11.09,17.27,6.27,5.83,8.05,15.3,5.45,7.15,8.67,14.5,8.08,9.67,12.7,17.5,14.3,10.29,11.89,18.29,8.89,5.39,7.29,18.15,5.45,5.13,6.91,13.29,14.34,10.55,13.37,17.59,,19.72,,,16.8,11,14.42,17.29,16,13.3,15.14,5.5,5.5,10.8,,20,16.8,9.9,14.9,,5.4,11.05,15.2,19.4,19.8,,20,20,,4.6,7.5,,,5.1,,,10.3,11,9.2,17.76,,14.2,10.8,,,
180116074004501,Khandala_Pz,18.02111111,74.0125,,,,,,,,,,,,,,,,,,,,,,,,,,16.3,,,,,,,,,,,,,,,29.65,34.05,,,25.7,28.62,8.63,3.76,7.1,10.15,2,2.93,4.17,28.9,2.81,3.22,,29.1,6.2,,,,,,,,,3.78,,,,,,,,,11.1,,6.7,5.4,20.5,,4.3,7.2,12.75,4.92,4.92,5.45,,29.7,5.95,,,15.3,19,6,8.9,,4.8,,,,4.1,3.2,,,,4.3,11.2,,5.8,4.2,4.5,,,,,,,
175935074313001,Nimblak_Pz,17.99305556,74.525,,,,,,,,,,,,,,,,,,,,,,,,,,4.65,,,,,,,,,3.1,,3.1,3.5,3.9,3.95,4.25,4.95,,,1.95,4.32,3.05,2.6,3.5,4.8,1.92,2.98,2.21,4.1,1.45,2.37,4.6,4.4,1.2,3.1,3.63,4.2,2.7,1.8,3.51,3.55,2,3.19,5.4,3.85,2.87,4.26,3.67,,,2.65,4.65,4.2,,1.5,2.9,3.3,1.6,4.4,3.1,4.2,4.2,1.7,,5.8,2.8,,,9.6,3.6,,4.5,,3.1,,4.35,,2.7,3,3.3,,,1.5,4.2,,3.1,2.95,2.8,,,,3.18,2.86,,
170720074014501,Yelgaon_Pz,17.12222222,74.02916667,,,,,,,,,,,,,,,,,,,,,,,,,,9.5,,,,,,,,,,,,,,,4.05,5.35,,,2.95,4.22,2.97,2.32,2.55,12.3,0.98,0.65,3.05,6.9,0.61,2.21,5.2,7.2,0.5,2.25,3.43,5.7,1.2,1.7,2.55,4.08,1.5,2.33,3.05,5.25,1.52,2.3,3.35,,,2.22,3.45,5.4,,2.7,3.25,5,1,2,3.35,1.9,1.9,3.85,,5.8,1.1,,,5,2,1.8,2.5,,1.1,,3.1,,,1.2,1.7,,,,2,,1,1.95,1.9,,,,2.4,4.73,,
173032074134001,Arvi-1,17.50888889,74.22777778,,,,,,,,,,,,,,,,,,,,,,,,,,,,,,,,,,,,,,,,,,,,,,,,,,,,,,,,,,,,,,,,,,,,,,,,,,,,,5.6,,7.2,7.3,9.2,9.3,1.6,7.2,8.6,8.1,7.7,7,7.6,8.7,5.1,6.75,6.22,11.23,5.1,5.7,8.6,5.5,5.2,,7.75,7.6,3.6,6.5,8.2,,,,7.9,,6.6,7,6.6,7.14,3.9,6.9,8.36,7.7,,
175448074053201,Pimpode (Bk)-1,17.91333333,74.09222222,,,,,,,,,,,,,,,,,,,,,,,,,,,,,,,,,,,,,,,,,,,,,,,,,,,,,,,,,,,,,,,,,,,,,,,,,,,,,4.2,8.8,,1,2.8,4.35,0.2,1.2,2.15,3.5,1.8,0.95,1.9,8.4,0.4,0.5,2.1,,4,0.45,1.7,2.4,1.8,,4.3,8.9,0.3,0.35,0.9,,,0.5,2.45,,0.8,1.5,1.3,4.67,,1.02,3.05,3.96,,
175703074351001,Barad,17.95083333,74.58611111,,,,,,,,,,,,,,,,,,,,,,,,,,,,,,,,,,,,,,,,,,,,,,,,,,,,,,,,,,,,,,,,,,,,,,,,,,,,,,,,,,15.8,17.3,10,11.6,,,3.15,14.8,19,12.1,12.3,13.85,19,19,10.9,12.2,12.8,14.2,,17.4,19,16.2,9.2,8.15,,,8.8,8,,18,9.15,5.6,,,,6.9,8.12,,
171218074084901,Bhairavnath Nagar,17.205,74.14694444,,,,,,,,,,,,,,,,,,,,,,,,,,,,,,,,,,,,,,,,,,,,,,,,,,,,,,,,,,,,,,,,,,,,,,,,,,,,,,,,,,5.7,0.2,4.1,3.8,6.2,3.5,4,5.8,8.2,3.9,5.8,9.4,5,4.5,5.3,5.5,5,2.9,,7.3,10,3.5,3.4,4.1,,,,4.4,,4.3,3.2,4.2,,,,6.2,7.9,,
173916074052001,Chinchner Vandan,17.65444444,74.08888889,,,,,,,,,,,,,,,,,,,,,,,,,,,,,,,,,,,,,,,,,,,,,,,,,,,,,,,,,,,,,,,,,,,,,,,,,,,,,,,,,,2,0.01,1.3,1.6,1.5,1.1,,1,1.75,0.7,1.1,3.1,1.3,0.5,0.8,1.6,0.6,0.15,,2.1,0.8,1.7,6.45,1.7,,,,0.6,,2,1.9,1.4,1.5,,0.8,0.55,2.25,,
174522073541201,Chinchni Kanher,17.75611111,73.90333333,,,,,,,,,,,,,,,,,,,,,,,,,,,,,,,,,,,,,,,,,,,,,,,,,,,,,,,,,,,,,,,,,,,,,,,,,,,,,,,,,,4.5,4.5,5,5.9,7,,3.5,6.8,8.55,5.35,2.9,3.45,5.2,5.4,2.45,7,,5.4,,9.85,6.3,7.1,1.6,5.5,,,,8.35,,4.8,4.4,5.2,6.7,3.85,4.6,6.93,6.8,,
172930074021001,Pal,17.49166667,74.03611111,,,,,,,,,,,,,,,,,,,,,,,,,,,,,,,,,,,,,,,,,,,,,,,,,,,,,,,,,,,,,,,,,,,,,,,,,,,,,,,,,,3,1,1.2,1.8,2.8,2.1,1.9,2,3,1.7,2.3,0.95,0.7,1.7,2.8,1.7,1,1.75,,2.6,2.7,1.4,1.4,4.9,,,,1.7,,2,1.7,,,,,1.35,,,
170751074020201,Yelgaon-1,17.13083333,74.03388889,,,,,,,,,,,,,,,,,,,,,,,,,,,,,,,,,,,,,,,,,,,,,,,,,,,,,,,,,,,,,,,,,,,,,,,,,,,,,,,,,,5.21,1.3,2,3.4,5,2.8,3.8,4.6,5.8,1.2,2.6,4.1,4.5,2.1,2.85,3.8,4.7,1.9,,,3.5,,2,2.2,,,,2.95,,2.9,2.9,2.4,,,,4.9,4.2,,
172743074370501,Vikhle,17.46194444,74.61805556,,,,,,,,,,,,,,,,,,,,,,,,,,,,,,,,,,,,,,,,,,,,,,,,,,,,,,,,,,,,,,,,,,,,,,,,,,,,,,,,,,,,3,1.8,4.4,,,9.5,7.75,7.1,4.1,4.55,7.2,11.5,5,9.6,3.6,7,,6.6,12.04,3.7,1.4,2.6,,,,,,4.6,6,6.4,8.65,4.25,3.9,2.5,4.13,,
174609074195101,Budh,17.76916667,74.33083333,,,,,,,,,,,,,,,,,,,,,,,,,,,,,,,,,,,,,,,,,,,,,,,,,,,,,,,,,,,,,,,,,,,,,,,,,,,,,,,,,,,,,6.65,,7.3,3.55,8.5,9.8,5,4.3,5.3,10,5.3,4,5.9,5,5,,8.5,10,4.3,3.45,4.15,,,2.9,4.9,,6.4,4.7,5.6,8.95,4.28,4.3,5.31,4.1,,
174226074330501,Dahivadi,17.70722222,74.55138889,,,,,,,,,,,,,,,,,,,,,,,,,,,,,,,,,,,,,,,,,,,,,,,,,,,,,,,,,,,,,,,,,,,,,,,,,,,,,,,,,,,,,3.5,5.1,,3.5,3.25,3.05,3.65,2.55,3.4,5.7,,2.15,2.6,2.6,,,3.1,4.1,,,2.4,,,,3.1,,,,2.8,9.7,2.9,2.28,4.05,3.1,,
174427074414901,Mardi,17.74083333,74.69694444,,,,,,,,,,,,,,,,,,,,,,,,,,,,,,,,,,,,,,,,,,,,,,,,,,,,,,,,,,,,,,,,,,,,,,,,,,,,,,,,,,,,,1.8,6,8.1,,6.5,10,2.75,1.4,5.1,8.23,10,1,2.1,5.1,9.1,,4.9,10,5.1,,1.5,,,2.3,4.2,,3,1.7,1.3,4.02,2.18,1.92,2.41,5.2,,
174704074361501,Wavarhire-1,17.78444444,74.60416667,,,,,,,,,,,,,,,,,,,,,,,,,,,,,,,,,,,,,,,,,,,,,,,,,,,,,,,,,,,,,,,,,,,,,,,,,,,,,,,,,,,,,3.65,8.3,5.1,3.6,9.5,10,4.8,2.7,4.85,10,3.6,2.2,4,4.3,4.8,,5.8,10,2.7,2.65,5.5,,,4.4,3.2,,4.3,3,3.3,5.28,7.6,6.82,3.7,7.8,,
174621074002701,Limb Sheri,17.7725,74.0075,,,,,,,,,,,,,,,,,,,,,,,,,,,,,,,,,,,,,,,,,,,,,,,,,,,,,,,,,,,,,,,,,,,,,,,,,,,,,,,,,,,,,,,,,,,16.9,18,18.9,14.3,13.1,,9.6,14.1,11.9,,11.5,18.3,7,6.1,8.6,,,3.2,8.25,,9,9,8.5,,9.3,7.6,10.05,9.8,,
180245074111801,Lonand,18.04583333,74.18833333,,,,,,,,,,,,,,,,,,,,,,,,,,,,,,,,,,,,,,,,,,,,,,,,,,,,,,,,,,,,,,,,,,,,,,,,,,,,,,,,,,,,,,,,,,,6.4,2.9,3.15,6.85,6.7,3.2,4.3,,5.5,,5.4,,3.9,2.1,3.4,,,,,,5.5,4.5,4.2,,,,4.9,4.15,,
172614074324801,Mayani,17.43722222,74.54666667,,,,,,,,,,,,,,,,,,,,,,,,,,,,,,,,,,,,,,,,,,,,,,,,,,,,,,,,,,,,,,,,,,,,,,,,,,,,,,,,,,,,,,,,,,,8.8,8.5,10.2,12,12.2,7.8,11.1,9.6,10.4,,12.3,12.59,8.7,6.4,6.6,,,,6.15,,11.4,8.1,7.8,6.7,8.05,6.9,9.8,6.75,,
180039074210101,Nimbore_1,18.01083333,74.35027778,,,,,,,,,,,,,,,,,,,,,,,,,,,,,,,,,,,,,,,,,,,,,,,,,,,,,,,,,,,,,,,,,,,,,,,,,,,,,,,,,,,,,,,,,,,3.4,0.5,3.7,11.2,4.1,0.8,1.7,6.2,3.9,,10.9,11.85,8.1,1.6,4.15,,,3.5,5.4,,10.3,4.85,6.2,,,,4.12,7.28,,
174151074002901,Satara,17.6975,74.00805556,,,,,,,,,,,,,,,,,,,,,,,,,,,,,,,,,,,,,,,,,,,,,,,,,,,,,,,,,,,,,,,,,,,,,,,,,,,,,,,,,,,,,,,,,,,1.4,1.6,2.25,2,2.6,2.5,2.6,1.6,2.4,,3.1,2.3,2.2,2.3,2.9,,,,1.9,,2.7,2.85,2.5,2.2,1.35,2.6,1.8,2.3,,
175911074245401,Thakurki_Phaltan,17.98638889,74.415,,,,,,,,,,,,,,,,,,,,,,,,,,,,,,,,,,,,,,,,,,,,,,,,,,,,,,,,,,,,,,,,,,,,,,,,,,,,,,,,,,,,,,,,,,,9.2,7.3,8.95,11.4,10.7,8.45,,8.8,6.2,,10.3,13.4,,6.5,7.5,,,4.9,6.5,,,6.9,6,,,,8.12,8.26,,
175908074262101,Phaltan,17.98555556,74.43916667,,,,,,,,,,,,,,,,,,,,,,,,,,,,,,,,,,,,,,,,,,,,,,,,,,,,,,,,,,,,,,,,,,,,,,,,,,,,,,,,,,,,,,,,,,,,2,2.4,4.1,,1.7,,3.5,8.7,,4,4.18,3.7,6,2.7,,,,,,3.4,,2.6,,,,4,4.1,,
