station_id,station_name,latitude,longitude,1994_season1,1994_season2,1994_season3,1994_season4,1995_season1,1995_season2,1995_season3,1995_season4,1996_season1,1996_season2,1996_season3,1996_season4,1997_season1,1997_season2,1997_season3,1997_season4,1998_season1,1998_season2,1998_season3,1998_season4,1999_season1,1999_season2,1999_season3,1999_season4,2000_season1,2000_season2,2000_season3,2000_season4,2001_season1,2001_season2,2001_season3,2001_season4,2002_season1,2002_season2,2002_season3,2002_season4,2003_season1,2003_season2,2003_season3,2003_season4,2004_season1,2004_season2,2004_season3,2004_season4,2005_season1,2005_season2,2005_season3,2005_season4,2006_season1,2006_season2,2006_season3,2006_season4,2007_season1,2007_season2,2007_season3,2007_season4,2008_season1,2008_season2,2008_season3,2008_season4,2009_season1,2009_season2,2009_season3,2009_season4,2010_season1,2010_season2,2010_season3,2010_season4,2011_season1,2011_season2,2011_season3,2011_season4,2012_season1,2012_season2,2012_season3,2012_season4,2013_season1,2013_season2,2013_season3,2013_season4,2014_season1,2014_season2,2014_season3,2014_season4,2015_season1,2015_season2,2015_season3,2015_season4,2016_season1,2016_season2,2016_season3,2016_season4,2017_season1,2017_season2,2017_season3,2017_season4,2018_season1,2018_season2,2018_season3,2018_season4,2019_season1,2019_season2,2019_season3,2019_season4,2020_season1,2020_season2,2020_season3,2020_season4,2021_season1,2021_season2,2021_season3,2021_season4,2022_season1,2022_season2,2022_season3,2022_season4,2023_season1,2023_season2,2023_season3,2023_season4
201000078090001,Akolabazar,20.16666667,78.15,,,,,,,,,4.84,7.03,4.1,4.83,6.2,7,5.8,6,5.7,7.75,5.8,4.9,6.4,8,5.15,3.66,6.3,7,3.61,6.06,6.94,8,2.74,4.71,6.34,8.22,3.66,5.5,7.14,9.8,6.01,6.1,7.4,8.98,,,9.44,9.84,4.64,7.34,7.45,9.35,5.05,7.4,6.89,9.2,5.84,7.16,,8.7,7.29,8,8.9,,,10.3,9.9,10.36,5.25,6.1,7.1,8.35,3.95,5.8,6.4,7.9,,6,5.14,7.74,1.14,3,6.15,5.7,6.04,5.8,7.34,8.4,4.79,8.3,,11.8,5,5.85,7.69,11.1,8.3,8.7,9.03,11,2.72,2.7,7.52,10.23,6.4,6.55,6.45,,,,7.74,,3.54,3.73,6.4,12,2.84,4.5,7.13,7.35,,
202520078162501,Chaparda,20.42222222,78.27361111,,,,,,,,,3.7,4.5,2.7,3.13,3.8,4.45,3.7,4.1,5.25,5.4,2.1,3.3,3.5,4.23,2.85,3.45,3.5,4.35,2.01,3.8,3.7,4.55,3.35,3.45,4,4.2,1.72,3.52,3.89,3.2,1.6,3.5,3.7,3.96,,,5.1,5.43,2.85,3.6,3.5,4.79,3.07,3.45,2.95,4.32,3.1,3.5,3.65,4.5,3.35,4,4.4,5.4,5,4.55,4.7,6.85,1.8,3,3.7,4.65,3,3.9,4,6.3,,3.8,3.6,4.7,2.55,3.45,3.6,4.3,3.35,4,3.55,4.2,3.15,4,,7.45,2.55,3.88,3.65,4.72,4.1,4.3,5.4,5.55,0.72,,4.8,5.53,2.6,3.75,3.9,,,,3.85,,1.45,3.27,4.09,5.05,1.2,3.95,4.63,4.35,,
203145077553001,Dhanaj (Manekwada),20.52916667,77.925,,,,,,,,,3.19,5.45,3.8,3.2,4,7.35,5.1,5.4,3.4,6.5,4.6,3.1,3.4,6.9,2.45,1.43,2.6,5.1,2.5,3.34,2.95,8.45,2.6,2.98,4.2,5.33,1.08,1.86,4.11,10.4,3.4,4.4,4.7,9.3,,,5.8,5.65,2.9,3.23,3.1,5.55,1.45,2.62,9.15,5.1,2.65,3.3,4.95,5.95,4.35,4.95,5.2,7.1,4.75,4.5,3.1,7.1,3,1.8,3.1,6.2,2.5,3.2,3.8,,,2.9,3.6,5.88,2.25,2.65,4.05,7.8,3,4.1,4.2,5.2,3.4,,,8.35,3.1,3.43,3.33,6,3.6,2.7,2.8,3.3,2.43,,3.5,6.32,2.5,1.7,2.4,,,,3.1,,1.7,2.55,2.6,3.6,,1.7,3.36,3.6,,
193420077510001,Dhanki,19.57222222,77.85,,,,,,,,,6.9,,3.5,3.3,6.6,4.7,,,1.05,,5.3,3.6,6.7,,5.1,2.47,4.3,,,2,,,,,,,,4.05,7.79,,1.45,3.95,11.2,11.2,,,11.2,11.2,2.23,4.75,11.2,4.58,4.1,4.75,,11.2,4.45,1.66,8.65,11.2,7.62,7.87,5.4,,,,,,,,,,1,,,,,,,,,,,,,,,,,,,,,,,,,,,,,,,,,,,,,,,,,,,,,,9.7,9.75,,
195130077523001,Dhanoda,19.85833333,77.875,,,,,,,,,8.1,8.82,8,7.61,8.4,7.1,9,8.1,9.78,9.3,8.3,8.05,8.4,8.4,6.5,7.2,8.1,8.2,7.56,7.91,8.4,9.2,7,7.6,8.2,8.9,7.28,8.12,8.56,9.2,6.8,8.3,8.7,9.55,,,10.05,11.75,9.5,8.85,9.68,10.2,8.4,8.28,8.37,9.35,8.5,9,8.65,9.15,8.2,8.6,8.85,9.7,10.15,10,10.25,11.65,10,8.9,9.3,9.6,5.3,6.7,5.6,9.8,,5.9,8.3,8.95,6.1,7.3,6.85,6.7,8.5,8.5,8.2,9.9,9.1,9.3,,11.4,8.4,8.1,9.8,10.9,10.9,4.5,11.9,12,9.32,,10.3,12.25,9.8,,10.3,,,,10.3,,10,7.85,9,10.34,,3.25,9.2,7.2,,
200600077430001,Digras,20.1,77.71666667,,,,,,,,,6.39,7.9,7.7,6.56,6.8,8.8,8.6,7.65,7.56,9.3,8.3,8.1,7.7,,5.35,4.45,5.9,7.4,4.17,5.65,6.3,8.45,5.72,6.08,7.35,8.92,6.98,5.02,6.54,8.1,5.25,8.05,7.45,9.1,,,8.95,8.35,6.05,6.85,5.37,6.95,3.4,2.95,3.78,5.9,2.95,5.33,4.35,5.45,5.55,4.85,5.85,6.9,7.2,4.92,5.55,7.55,2.2,3.4,3.9,5.95,0.6,2.3,3.05,5.4,,1.7,2.85,4.5,0.5,1.8,2.5,3.8,3.85,3.8,3.55,6.3,2.75,3.6,,6.3,1.85,3.2,3.37,5.5,3.8,4.7,5.8,6.75,1.08,,5.1,7.25,7.4,3.65,6,,,,4.55,,2.95,3.2,3,6.85,,2.25,4.53,5.25,,
200800078190001,Ghatanji,20.13333333,78.31666667,,,,,,,,,4.55,5.96,4,3.6,4.6,5.9,5.3,5,5.31,7.25,6.6,4.5,4.9,,6,4,4.5,6.7,3.43,5.2,5.35,7.15,3.45,4.65,5.75,8.22,2.92,,5.73,8.4,3.1,4.55,5.55,7.65,,,7.55,8.6,4.85,5.15,6.3,8,4.27,4.65,5.65,7.45,5.75,5.82,6.15,7.95,6.5,7.95,6.95,,8.5,8.4,8.45,9,4.8,4.85,5.65,10.2,5.5,4.8,7.7,8.6,,4.4,5.05,,2.35,4,2.65,4.7,,5.9,7.35,9.1,,6.7,,10.5,4.05,,5.45,8.95,6.9,6.1,8,10,2.25,,7.2,9.5,5.8,,7.6,,,,5.95,,6.55,3.8,4.7,8.05,,4.25,7,7.15,,
195900077350001,Ghatwadi,19.98333333,77.58333333,,,,,,,,,5.25,6.75,3.82,4.23,6.6,7.25,4.5,3.65,4.02,6.15,2.9,3.6,4.6,6.05,4.2,2.49,5.2,6.8,3.23,5.25,6.07,,2.04,4.57,6.72,,1.59,4.74,6.61,,2.6,5.7,6.8,7.7,,,7.7,7.7,3.01,4.9,6.77,8.7,4.02,3.89,6.22,8.1,4.22,6.42,7.37,8.1,3.07,6,7.75,7.92,,7.67,7.52,8.1,2.6,4.2,6.35,,2.85,3.6,5.9,,,4.1,5.72,7.82,2.22,4.4,6,5.7,7.32,6.6,7.62,8.05,3.72,5.2,,8.7,3.45,4.68,5.94,8.55,4.2,6.3,8,7.82,1.4,,8,8.5,3.8,4.7,4.6,,,,5.62,,2.42,3.94,3.65,9,,3.3,,,,
194900077350001,Harsi,19.81666667,77.58333333,,,,,,,,,1.7,7.35,3.4,0.65,1.9,7.45,6.7,2.88,1.95,5.5,0.35,0.5,6.85,5.56,0.5,0.51,1.6,,0.44,2,4.13,,0.38,1,2.1,,0.34,0.52,2.53,,,0.85,3.3,6.8,,,6.8,6.8,0.46,0.73,2.28,7.7,0.42,0.58,2.88,7.4,5.83,5.1,5.7,7.5,3.63,2.5,3.4,,,,7.08,7.5,0.3,1.1,2.2,7.55,3.5,1.4,4.2,,,0.9,2.28,7.38,11.28,1,2.25,5.05,7.08,3.2,4.68,11.1,4.08,1.6,,6,0.5,1.1,2.68,7.9,4,4,5.4,11,0.85,,5,11.49,2.4,0.6,0.8,,,,3.08,,1.78,2.88,2.4,11.5,,0.7,,,,
200500078190001,Injhala,20.08333333,78.31666667,,,,,,,,,10.75,12.3,9.65,9.2,10.5,11.5,11.5,10.46,,11.8,9.8,9.1,9.4,12.03,8.25,8.71,10.3,11,9.28,10.2,9.63,11.68,8.61,,11.01,11.92,1.51,7.26,11.3,13.75,8.36,3.15,10.9,12.59,,,12.9,12.91,10.05,10.2,10.95,12.41,9.8,10.2,9.46,12.7,9.76,6.36,10.56,11.5,11.06,10.3,11.2,12.56,13.15,12.81,12.86,14,10.4,11.1,11.65,13.1,11,10.6,11,13.1,,10,10.86,12.76,1.56,10,10.4,12.5,12.86,11.9,11.76,12.7,11.86,12.3,,13.6,5.5,11.52,11.7,13.2,12.1,11.7,12.6,12.86,8.71,,12.3,14.49,8.8,11.3,11.4,,,,10.66,,11.46,9.51,10.12,13.21,,9,10.08,12.51,,
202145078010001,Jamwadi,20.3625,78.01666667,,,,,,,,,1.25,3.13,1.8,1.22,1.5,2.7,2.4,2.95,2.52,3.25,5.3,3.05,1.5,3.57,0.65,0.68,1.6,2.85,2.12,5.45,2.05,3.05,1.08,4.15,1.35,3.14,0.95,2.1,3.71,3.3,2.45,8.8,1.8,3.35,,,4.15,5.7,1.9,2.6,1.75,2.7,1.79,2.3,1.7,3.35,1.85,5.95,2.61,2.95,2.4,2.9,2.65,2.85,3.4,2.8,3.15,3.35,1.2,2.9,1.4,2.58,1.5,2.7,2,3.3,,3.3,1.35,2.95,1.25,2.35,2,2.4,2.55,2.9,1.95,2.8,2.15,2.8,,3.55,2.6,4.12,3.62,3.4,2.55,4,4.35,5.05,1.72,,3.1,3,1.8,2.6,1.6,,,,1.95,,1,3.1,1.55,,,2.6,2.03,2.65,,
201900078180001,Jodmoha,20.31666667,78.3,,,,,,,,,6.1,,3,4.2,5.4,11.05,1.8,6.12,4.1,8.6,1.4,1.35,5,11.05,1.2,2.45,5.05,10.3,2.97,5.9,5.9,10.6,1.15,5.3,5.6,10.59,1.3,5.37,6.42,10.9,4.3,3.88,6.75,11.1,,,10.1,10,4.35,5.4,5.34,7.68,4.58,5.35,5.5,6,4.1,5.08,9.32,9.7,3.3,3.95,6.8,10.5,4.7,6.75,8.45,11.35,1.4,3.5,4.2,,2.7,6.1,7.5,11,,3,5,10.8,2.8,5.2,6.3,9.3,4.1,5.6,7.1,7,3.6,5.6,,11.1,3.2,5.7,5.76,10.9,8.1,8,10.2,11,2.25,,5.17,10.4,2.55,5.05,5.78,,,,5.5,,2.4,2.25,4.8,6.2,,5.7,5.08,6.35,,
202700078200001,Kalamb,20.45,78.33333333,,,,,,,,,7.3,10.2,8,8.7,8.4,8.65,10,9.3,9.56,11.4,9.08,8.7,8.7,10.32,8.3,7.58,8.65,9.1,7.76,8.45,9.1,11.3,7.65,8.3,9.13,11.4,3.07,8.42,10.09,11.6,7.6,8.95,8.75,11.74,,,11.3,9.95,7.65,7.7,8.31,11,7.73,7.5,8.1,10.5,8.45,9.35,9.45,11.9,9.7,10.2,10.08,13.25,12.9,12.44,12.64,14.35,8.9,7.7,8.5,10.6,8.3,8.4,9,11.7,,4.7,6.84,10.04,,8.16,8.5,10.4,9.04,9.4,9.34,14,9.69,10.6,,12,8.25,9.35,9.62,12.17,10.1,9.5,10.3,14,9.86,,9.6,12.3,9.6,8.7,9.2,,,,9.24,,6.94,7.96,8.8,12.26,,7.3,,9.54,,
201430078110001,Kolambi,20.24166667,78.18333333,,,,,,,,,4.1,5.6,1.55,3.7,5.2,7.65,3.7,3.95,3.8,5.25,3.9,3.9,4.85,9.6,3.6,2.45,4,3,2.53,5.15,5.9,6,1.4,3.33,4.3,8.55,1.99,4.58,5.56,2.2,1.55,3.4,3.95,6.71,,,7.25,5.69,2.7,3.2,4.4,5.45,2.45,3.07,4,5.67,2.6,4.43,,7.55,4.3,4.9,5.4,7.44,5.75,7.46,7.44,8,2,2.5,7.3,5.25,2.5,1.75,3.2,7.35,,4.1,4.64,6.19,3.14,3.6,4.6,6,4.74,4.8,5.39,7.1,3.94,4.8,,8.25,3.4,4.65,5.14,7.3,4.95,5.7,5.2,9,1.77,,5.9,7.32,3.7,3.7,4.2,,,,4.96,,3.94,3.76,4.8,5.54,,4,5,5.44,,
203150078164001,Kotha,20.53055556,78.27777778,,,,,,,,,7.25,8.61,0.55,1.25,3.3,8.35,3.3,3.7,4.48,8.4,2.1,1.8,3,8.31,0.85,0.8,2.87,7.9,0.55,2.27,4.9,10,3.65,1.7,2.35,10.12,2.32,2.4,4.61,9.2,1.1,2,4.25,8,,,6.85,10.55,0.9,1.65,3.1,7.5,0.92,1.62,3.7,8.8,0.85,2.87,8.22,11.3,2.4,4.95,6.85,10.6,5.5,6.55,8.4,11.5,0.5,1.1,1.9,9.3,1.05,3.3,5.8,,,6.2,5.3,,1.21,2,4.4,8.15,1,2.9,4.6,6.7,0.9,,,6.8,0.6,3.15,4,6.4,1.9,2.6,5.4,6.8,1.3,,4.4,7.8,0.7,1.5,2.7,,,,3.3,,0.25,1.25,2.67,4.2,,1.2,4.15,4,,
195600077550001,Lonbhel,19.93333333,77.91666667,,,,,,,,,5.15,6.3,4,3.95,5.2,,5.2,5.4,5.19,4.9,5.2,,,7.44,3,3.45,4.8,5.8,2.69,4.53,5.35,7.23,2.12,4,5.4,6.35,2.33,4,5.61,5.9,2.45,3,5.45,7.5,,,7.7,7.85,2.94,3.7,4.8,7.54,3.41,3.78,4.8,7.25,3.15,5.12,5.5,7.35,5.75,5,5.5,7.5,6.75,6.4,7.4,8.2,2.6,1.7,4.85,6.7,2.5,1.45,8.2,8.3,,4.2,5,7.85,2.45,4,5.05,6.9,6.4,5.2,5.4,6.9,3.2,4.6,,7.4,3.2,4.34,5.05,7.1,5.5,6,6.4,7.3,0.82,,6.1,8,2.45,3.6,4.15,,,,5.3,,1.9,3.42,5.2,6.84,,,6.13,5.6,,
202400078120001,Madkona,20.4,78.2,,,,,,,,,10.38,11.9,5.35,8.05,7.8,12.1,11.8,10.8,11.13,13.3,7.4,8.1,9.8,14.34,5.45,7.36,10.1,12.5,6.63,9.6,13.5,13.3,3.85,8.01,9.9,13.88,3.48,8.81,10.43,,5.55,8.8,10.32,14.84,,,12.1,13.76,5.45,8.85,9.75,13,4.3,7.68,10,12.2,7.2,9.53,,12.75,3.36,9.35,10.7,,12.95,10.85,11.7,13.76,2.5,8.1,9.9,12.1,8.5,10.2,10.7,13.3,,5.7,9.9,12,5.3,8.2,9.2,11.6,7.8,9.4,10,11.3,7.8,9.3,,12.6,5,8.8,9.55,12.85,11.1,8.7,12.5,13.5,4.43,,10.5,13.1,5,8.9,9.8,,,,5.4,,1.6,7.16,9,7.9,,7.9,10,3.7,,
200500077500001,Mahagaon,20.08333333,77.83333333,,,,,,,,,4.1,5.25,2.15,2.7,3.8,3.3,4,6.8,3.06,2.85,2.05,5.04,2.65,2.97,1.85,2.8,1.8,1.3,2.07,3.35,2.9,1.5,3.2,2.2,3,3.6,1.93,2.27,2.75,1.55,1.1,5.15,3.75,6.26,,,6.9,7.65,2.5,4.4,3.25,4.05,3.19,3.75,3.29,2.6,0.6,5.06,2.45,2.7,2.05,2.17,2.85,,3.5,6.9,,7.5,1.05,1.7,2.3,3.6,0.4,2.6,2.2,5.65,,4.4,,2.9,1.5,3.35,2.55,3.2,4.1,3.6,4.5,7.49,3.8,10.7,,10.1,3,4.27,2.05,3.25,4.3,4,6.1,9.5,1.91,,3.1,5.6,3.8,3.05,5.1,,,,3.8,,0.7,3.85,10.5,4.6,,,3.47,4.9,,
201940078033001,Mandeo,20.32777778,78.05833333,,,,,,,,,2.65,4.5,1.2,1.2,2.25,8.3,1.8,2,1.84,3.6,1.2,1.7,2.4,3.67,1.05,1.08,2.3,2,1.08,2.2,2.75,,1,1.74,2.96,12.95,0.47,1.9,3.62,13.7,1,5.3,2.9,10.49,,,12.65,12.1,1.4,1.8,2.3,10.72,1.2,1.37,2.38,11.25,1.3,2.98,2.77,7,0.9,2.9,7.15,12.6,2.45,2.6,8.1,13.95,1.15,2.1,2.2,12.6,1.4,1.8,2.8,13.1,,2.1,3.1,7.2,0.95,2.1,2.65,4.4,2.4,2.7,2.8,2.5,1.05,2.65,,6,1.2,2.66,,,2.1,10,2.1,1.7,0.02,,,13.94,1,2,2.2,,,,2.5,,1,1.55,2.1,3.24,,1.8,3,11.2,,
201200077590001,Mangrule,20.2,77.98333333,,,,,,,,,4.55,3.25,2.34,4.65,6.3,4.05,3,5.05,5.48,12.9,3.65,4.5,5.4,7.73,0.6,3.25,5.2,3.95,2.47,5.65,5.2,5.1,1.75,3.94,5.42,4.44,1.51,3.95,5.93,3.9,2.4,1.7,4.4,11.85,,,,13.45,2.77,4.45,5.09,4.45,3.6,4.35,4.7,3.82,4.2,5.9,,3.55,3.8,6.3,10.9,,3.95,5.6,10.2,15,1.6,5.1,5.85,4.1,0.8,3.3,4.7,9.3,,5.1,5.7,3.2,2.05,4.2,5.1,3.4,3.7,5.4,3.5,6.4,3.2,4.2,,7.65,3.45,4.8,4.4,4,3.1,4.3,6.6,12,2.92,,4.5,6.25,2.5,4.7,4.1,,,,3.3,,1.3,3.42,4.3,4.1,,3.7,4,3.7,,
201300078510001,Mardi,20.21666667,78.85,,,,,,,,,3.7,5.65,,3.4,4.2,5.4,3.5,3.92,3.32,5.8,2.82,2.74,3.3,,2.8,3.85,3.1,5.65,2.98,3.49,4.95,5.85,2.03,3.8,4.83,6.24,2.9,3.8,5.61,6.7,,5.3,3.85,7.24,,,6.85,6.85,1.3,3.5,3.64,6.05,2.7,3.32,4.65,6.15,3.2,4.02,5.16,6.5,3.25,3.25,4.7,,,6.15,6.15,6.85,3.3,4.5,4.9,6.1,4.2,3.4,5.9,,,3.5,4.5,5.6,1.22,3.2,3.7,5.6,3.9,3.85,5.3,6.3,3.8,4.5,,7.9,1.3,1.57,3.56,6.6,2.3,3.2,5.4,8,3.2,,5.3,7.5,0.7,3.6,4.4,,,,5,,0.7,2,3.7,3.7,,3.3,5.75,5.43,,
200600078490001,Maregaon,20.1,78.81666667,,,,,,,,,6.6,9.05,3.8,5.6,5,9.4,0.5,3.7,4.3,9.65,4.95,5.7,6.3,7.9,2.5,7.28,8.2,10.9,4.98,7.03,,,3.66,7.1,8.65,7.26,3.97,4.9,9.59,5.03,3.1,5.8,8.6,6.65,,,13.6,12.65,4.8,6.25,6.2,10.95,4.98,6.7,8.5,11.5,3.5,7.42,8.3,,5.6,6.15,8.25,,12.9,,,13,,,,,3,,9.2,,,7,9.6,,4.15,,4.4,11.1,8,6.67,10.7,11.2,8,8.3,,12.75,5,6.3,10.4,10.1,3.8,9,10,11.6,3.05,,9.1,13,1,8.6,10,,,,10.9,,3.3,7.92,0.67,12.5,,9.2,10,11.05,,
195730077220001,Marwadi Khurd,19.95833333,77.36666667,,,,,,,,,2.31,4.36,0.1,,3.1,6.1,0.7,0.8,1.51,6.1,1.2,1.95,2.6,6.37,1.1,1.52,3.6,5.5,,3.01,4.5,,3,5.65,6.36,6.81,5.96,1.82,,8.2,0.9,2.7,3.85,8.46,,,5.15,8.2,0.73,0.65,3,6.8,0.99,1.7,4.5,6.05,1.75,3.08,5.21,6.95,4.18,4.53,5.25,6.55,6.25,3.9,4.9,8.2,0.35,1.85,5.6,6.1,0.3,1.5,3.7,5.29,,1.8,3.8,6.05,0.75,1.8,2.1,4.1,2,2.4,3,4.8,1.9,3.8,,6.6,1.3,2.65,,8.5,2.3,2.1,4.3,9,3.4,,4.6,6.7,1.4,1,1.5,,,,,,2.5,3,2.5,4.9,,2.6,3.97,7.1,,
201300078280001,Mohada,20.21666667,78.46666667,,,,,,,,,5.07,,2.9,5.1,6.3,7,4.9,5.9,5.85,6.8,5.65,5.9,5.55,6.97,5.6,5.13,6.55,6.7,3.43,5.63,6.25,7,2.65,5.3,6.2,6.6,2.4,5.42,8.01,7,2.1,5.2,6.8,6.8,,,8,10.33,3.33,5.25,8.18,6.1,4,4.87,6.1,10.33,4.7,5.38,6.5,7,5.25,5.8,6.2,7.7,5.4,,10.33,10.33,3.5,5.8,2.45,7.5,4.9,6.1,7.5,13.4,,6,7.1,8,3.6,5.1,6.5,10.5,8.6,6.6,7.2,7.5,6,6.3,,7.7,3.2,5.18,5.6,7.3,2.8,5.8,5.55,1,0.09,,4.5,5.2,1.5,4.9,2.8,,,,5,,1.8,3.05,3.67,,,3.1,4.83,4.9,,
201200077530001,Mohgaon Kasba,20.2,77.88333333,,,,,,,,,4.85,7.04,5.1,4.7,5.5,9,6.3,6.7,4.65,8.6,5.5,1.7,6,,5,2.4,4.9,7,3.98,4.9,6.05,9.6,4.47,6.8,7.5,9.62,4.96,4.37,5.81,9.3,3.15,3.4,6.85,10.05,,,9.15,9.15,5.9,5.75,6.35,9.1,4.73,4.25,5.4,9.15,5,5.48,5.93,7.35,4.05,4.7,6.15,,5.6,9.2,9.45,9.75,3.65,4.1,4.7,6.2,3.8,3.8,4.8,8.75,,2.4,3.7,4.8,0.75,2.2,3.2,3.6,4.3,3.1,4.2,6,3.6,4.1,,9.8,6.4,3.8,6.2,6.3,4.4,5.8,5.2,7.1,4,,5.5,6.5,2.25,3.4,4.2,,,,7.2,,2.25,3.3,,6.95,,,,,,
203020077472501,Mojhar,20.50555556,77.79027778,,,,,,,,,2.2,2.7,0.4,1.4,1.4,2.85,1.4,1.7,1.82,3.9,1.62,1.45,1.4,3.95,1,1.25,1.25,1,1.2,1.87,2.06,2.7,1.16,1.38,2,2.95,0.55,1.5,2.83,3.4,1.15,3.95,2.6,4,,,3.6,3.4,2.9,2.45,1.35,2.5,0.96,1.08,1.5,2.35,1,5.64,1.75,2.4,1.4,2.3,3.05,3.7,2.85,4.2,5.3,6,0.5,1.2,1.4,2.75,0.6,1.4,3.4,2.7,,2.1,1.6,2.2,0.41,2,1.35,1.9,1.4,2.2,3.1,2.4,1.6,2.3,,4.5,2.1,2.12,1.66,3.1,1.3,2.5,4,3,0.31,,2.6,5.5,1.7,1.8,1.3,,,,1.7,,1.05,1.41,1.6,2.1,,1.5,2.26,2.7,,
195900078300001,Pahapal,19.98333333,78.5,,,,,,,,,4.9,7.85,3,3.77,5.6,8.1,6.9,5.85,6.32,8.45,2.25,1.95,3.75,6.55,2.1,2.05,5.3,6.9,2.29,3.95,5.3,7.2,1.05,3.25,4.83,8,3,3.32,5.47,8.5,1.45,2.05,4.85,8.46,,,8.45,9.6,2.05,3.35,4.29,6.55,1.9,2.7,4.33,6.4,2.45,4.28,5.2,6.8,4.35,4.66,6.3,7.95,6.4,5.75,6.45,9,1.8,2.95,2.35,6.15,1.2,2.75,4.5,7,,3.2,4.55,7.1,1.4,3.7,5,6.6,6.55,5.3,2.75,7.2,4.1,3.6,,8.9,4,3.55,3.73,8.8,4,5,6.2,8.05,0.32,,6,8.83,4.5,5.55,5.6,,,,6.25,,2.2,3.3,5.12,6.95,,3.45,5.44,6.55,,
203600078030001,Pahur,20.6,78.05,,,,,,,,,5.6,10.5,2,2.7,5,10.8,5.1,8.7,7.85,10.95,5.36,3.05,4.6,10.26,2.35,1.55,3.2,9.3,1.39,3.52,6.05,9.85,1.62,3.51,5.95,9.45,2.7,3.95,6.53,11.65,4.55,2.6,7.25,10.7,,,9.15,11.55,1.75,2.95,4.53,8.4,1.47,1.72,3.6,7.12,1.05,2.52,3.75,7,4.85,5,6.7,8.55,7.1,7.75,7.35,14.2,1,2.3,3.1,5.1,1.2,2.1,3.8,5.75,,3.7,3.65,5.25,0.9,2,2.6,4.9,2.15,3,3.65,5.2,2.65,3.1,,7.45,2.3,2.4,3.95,4.95,5.2,4.4,6.47,9.28,5.1,2.5,4.9,6.58,1.3,1.58,3.75,,,,3.85,,2.25,1.65,3.65,5,,1.57,4.7,5.63,,
200100078330001,Pandharkawada,20.01666667,78.55,,,,,,,,,1.25,3.3,0.3,0.9,2.3,2.05,0.6,1.55,0.94,1.7,0.45,0.6,0.95,1.96,0.35,0.45,1.9,1.8,0.38,0.75,0.98,2.15,0.23,1.6,1.07,1.86,0.27,1,2.03,2.4,1,0.8,1.15,2.6,,,2.65,3.7,1,0.78,1.08,2.48,0.64,0.8,0.95,2.2,0.48,1.2,1.16,2,0.68,1.1,1.2,3.23,1.75,1.2,2.03,6.8,0.45,0.8,1.85,1,,0.9,1.1,2.7,,1.5,0.83,1.53,0.43,1,1,2,0.73,1.7,1.13,2.1,0.33,1.5,,3.75,0.5,1.2,0.85,5.38,1.3,1.6,2.9,4.83,0.42,,2.6,4.1,1.3,1.7,1.5,,,,1.33,,0.93,2.88,1.54,3.03,,1.25,2.03,1.33,,
195920078203001,Parwa,19.98888889,78.34166667,,,,,,,,,2.7,8.05,1.45,2.15,3.5,9.1,2.8,2.53,2.99,7.45,1.5,2.05,2.4,,1.4,2.97,2.6,8.45,1.06,2.5,3,4.77,1.2,2.4,3,8.63,1.11,2.59,3.4,7.2,2.35,3.4,2.2,7.8,,,7.8,7.8,2.1,2.4,4.35,9.38,1.9,2.22,2.85,8,1.6,2.68,3.35,9,2.95,2.2,2.85,6.1,2.4,2.65,2.95,9.2,0.4,2.3,2.5,3.5,1,2.5,4.6,9.7,,2.5,2.65,8.65,1.65,2.65,2.6,3.7,3.05,2.9,2.85,6.5,2.15,2.6,,10,1.35,2.44,2.43,9.3,1.55,2.2,3.1,3.35,2.1,,2.8,7.1,0.8,2.15,2.2,,,,2.25,,1.35,1.85,2.13,2.35,,2.05,2.72,2.25,,
195600077360001,Pusad,19.93333333,77.6,,,,,,,,,4.25,,2.75,2.85,3.6,4.4,3.2,2.65,2.4,4.2,2.02,1.85,2.7,4.62,2.5,1.9,4.3,5.2,2.58,3.53,4.25,4.25,1.85,2.71,3.75,4.83,2.19,2.25,4.04,5.5,1.33,4.6,3.7,5.55,,,5.5,5.5,4.8,3.55,3.85,6.6,3.42,2.47,3.87,5.02,3.7,4.4,4.95,5.3,4.05,3.8,4.75,,5.4,5,6.05,7,4.4,3.2,3.25,5.2,1.2,4.1,3.9,8.1,,2.15,3.15,5.35,0.75,2.15,2.9,3.6,3.75,3.7,1.2,5.3,3.05,3.3,,7.5,3.35,2.84,3.3,6.8,3.25,3.4,4.9,8.5,0.74,,5.45,8.49,3.4,1.4,2.9,,,,3.75,,1.65,1.87,3.2,5.15,,,4,4.55,,
202952078040001,Savar,20.49777778,78.06666667,,,,,,,,,4.1,6.29,1.7,2.2,3.8,5.45,5.05,5.25,5.3,9.9,5.1,3.9,4.6,10.03,4.8,2.1,4.35,5.4,1.81,3.92,7.8,5.9,2.26,3.07,4.35,6.31,0.69,1.95,4.61,6.3,3.8,3.2,3.9,6.04,,,5.95,7.13,1.5,3.15,4.15,6.55,2.12,2.62,3.65,5.4,1.75,7.7,4.35,5.8,3.65,4.35,5.3,6.8,6,6.5,7.6,9.8,2.9,4.55,5.65,6.9,1.4,3.65,4,,,2.7,,5.8,1.75,2.5,4,6,2.4,4.2,6,6.3,2,3.6,,8.4,1.4,2.65,3.3,5.2,3.6,5.6,6.6,8.6,0.1,,4.6,6.4,2.3,2.7,3.3,,,,4.1,,1.6,2.3,5.51,6.15,,2.4,4.92,5.5,,
201900077460001,Selodi,20.31666667,77.76666667,,,,,,,,,3.4,5.5,3.6,2.6,3.2,5.7,4.9,5.25,5.25,7.3,4.9,3.3,3.4,7.48,3.25,2.31,2.95,5.2,1.75,2.92,3.6,5.92,2.12,2.57,3.57,5.43,1.8,2,3.51,6.5,2.9,3.15,4.45,7.43,,,8.1,6.55,4.6,3.2,3.45,5.4,2.16,2.05,6.55,4.75,1.6,3.03,3.4,5,5.1,5,5.85,,,,7.9,8.5,3.8,3,2.9,4.6,2,2.45,3.1,5.45,,2.9,3.6,5,0.87,2,3.05,4.1,11,3.6,3.6,6.8,4.5,4.8,,8.75,2.6,3.33,4.05,7.2,6.12,6.8,7.7,12,2.64,,5.6,8.3,6,5.6,6.5,,,,5.4,,1.7,3.1,2.8,4.8,,2.4,4.37,4.5,,
202130078143001,Talegaon,20.35833333,78.24166667,,,,,,,,,2.3,4.83,0.25,1.13,2.2,4.54,2.95,2.2,2.26,4.65,1.45,1.4,2,4.96,1.2,0.6,2.4,4.1,0.59,1.7,2.95,4.9,0.2,1.4,1.75,4.24,0.17,1.17,4.42,6.55,1.55,10.3,2.25,4.74,,,4.2,5.05,0.7,0.3,2.15,4.25,0.6,0.9,1.78,4.25,0.55,1.65,,4.75,0.8,1.9,2.4,5.1,1.6,1.9,2.9,5.75,,0.6,0.9,3.8,0.3,1.1,1.7,4.98,,1.1,1.4,3.15,0.35,1.2,1.7,3.1,0.9,1.6,1.8,4,0.6,1.6,,6.7,0.7,1.67,2.22,5.3,3.9,4,6.3,8,0.97,,2.22,4.9,0.5,1.4,1.85,,,,1.7,,0.1,0.5,1.8,4.55,,0.9,6.8,2.5,,
202215078031501,Umarda (Nursary),20.37083333,78.05416667,,,,,,,,,4.7,8.95,4.8,3.6,4.7,8.55,6.9,4.55,4.75,7.3,5.05,3.9,4.35,7.62,2.6,2.5,3.9,6.2,2.45,4,12.45,6.5,0.98,3.45,4.7,6.23,1.6,3.43,5.18,6.5,2.6,4.1,4.95,4.67,,,4.95,5.39,2.85,4.55,4.63,5.45,2.7,3.2,4.9,5.26,3.05,5.03,4.85,5.6,4.6,4.45,4.78,5.7,5.2,5.4,5.7,6.7,2.7,4.1,4.5,5.6,3,3.95,6,6.95,,3.6,5.1,6.85,2.45,4.3,4.5,6.2,5,4.7,5.5,6.5,3.7,4.5,,7.9,3.1,4.13,5.2,7.5,5.7,5.8,6.7,9.9,2.91,,5.2,,3.3,3.6,3.8,,,,5.3,,2.9,3.88,4.4,6.6,,3.6,5.07,5.7,,
201130077461801,Vai (Lingi),20.19166667,77.77166667,,,,,,,,,7.32,6.75,4.06,3.9,5,6.7,6.4,6,4.91,7.3,6,5.51,5.5,9.3,5.2,2.73,4.8,5.8,2.94,4.85,5.35,6.9,2.42,5,6.15,13.61,2.97,4.01,5.29,7.3,4.74,2.1,6.7,7.45,,,7.45,7.45,3.15,3.75,4.9,6.94,2.93,3.2,4.38,6.48,3.6,5.17,5.85,7,4.86,5.39,5.95,,,,7.15,7.45,2.7,3.85,4.5,7.1,2.5,4.1,5.1,,,3.3,4.6,,1.9,3.6,4.9,5,4.8,4.4,6.1,6.7,4.3,3.9,,8.1,0.9,7,5.15,9,4.5,5.5,6,9,3.45,,5.6,8,4.2,4,4.5,,,,4,,2,3,4.5,,,2.85,,5.5,,
202300078070001,Wadgaon,20.38333333,78.11666667,,,,,,,,,4.8,8.45,1.35,2.57,4.8,8.6,3,3.3,3.75,8.2,1.33,2.62,4,8.02,1.2,1.5,5.1,8.4,0.97,3.77,5.25,9.4,0.9,2.57,5.1,,0.93,,5.83,12.3,0.7,2.7,7.8,7.85,,,6.6,9.95,1.5,3.3,5.57,10.1,1.32,2.22,4.98,8.93,1.6,3.95,,9.4,1.55,4,5.1,8,2.35,4,4.7,8,1,2.85,4.5,6.6,3,2.3,4.7,8,,2.7,4.2,6.9,1.1,2.5,3.5,5.8,1.6,3.3,4.1,6.5,1.7,3.3,,9.45,1.3,2.63,3.6,6.25,3.5,3.2,5.25,6,1.82,,9.2,8,1.6,3.4,3.2,,,,3.3,,1.3,2.65,4.6,4.35,,2.8,4.22,4.5,,
201818078374501,Wadhona,20.305,78.62916667,,,,,,,,,4.1,6.94,1.3,2.45,3.05,4.7,4.5,3.6,4.78,6.2,2.92,3.7,3.1,6.43,2.45,2.23,5.5,5.55,1.46,3.67,5.05,5.85,0.55,2.2,4.55,5.7,1.59,3.48,5.44,6,2.05,1.8,5.4,5.65,,,6.3,6.6,1.65,2.5,3.6,4.61,1.71,2.61,4.21,5.2,1.7,3.69,4.4,5.75,3,3.9,4.8,6.3,6.6,5.55,6.25,7,3.3,4.1,4.9,5.75,4.7,4.3,4.9,7.05,,3.1,3.01,6.05,1.55,3.4,4.5,5.6,4.75,4.86,5.25,6.5,2.45,4.1,,6.2,1.75,3.68,4.85,6.2,4.1,4.5,5.6,6.55,0.1,,4.6,6.28,1,4.15,4,,,,7.55,,1.55,3.27,4.6,6.1,,3,4.5,4.65,,
195721078064501,Sawali_Pz,19.95583333,78.1125,,,,,,,,,,,,,3.2,9.05,,4.5,9.1,10.2,,7.5,8.1,10.47,,6.2,8.7,8.5,,8,8.9,9.6,,7.6,8.65,,3.55,7.64,7.89,9,5.4,7.8,7,,,,9.96,,,,8.18,9.4,6.4,7.2,7.85,9,6.6,,,9.6,6.1,7.2,8.25,9.7,9.8,,,11.2,2.35,,3.9,8.5,,2.85,3.5,,,,,,,,,9.7,9.8,8,10.2,,,1,,,5.3,,7.9,11.65,5.8,8.5,9.9,10.8,3.62,,7.5,,5.3,7.5,8,,,,8.6,,3.3,7.35,8.1,10.7,,7.3,8,8.9,,
203233077472701,Mojhar_Pz,20.5425,77.79083333,,,,,,,,,,,,,,6.75,3,3.8,4.98,7.2,3.4,5.65,4.95,7.35,2.35,3.24,7.4,,3.68,5.83,5.37,,2.85,,,,,,,,,,,,,,,,,6.02,,,3.3,,,,3.6,2.18,,,6.4,6.85,8.25,,,,,,,4,5,,,3.8,,,,,,,2.01,5.5,4.7,7.4,4.9,6.5,5.4,8,4.5,6.1,,12.3,4,5.2,6.05,8.2,3.6,6.3,6.2,7.7,3.52,,7.7,8.46,2.5,,6.2,,,,7.3,,3.35,4,5.6,7.2,,4.6,5.6,6.9,,
200400077580001,Arni_Pz,20.06666667,77.96666667,,,,,,,,,,,,,,,,,,,,,,,1,,10.3,,3.3,4.92,5.1,,,,,,,,,,,,,,,,,,,,,,3.29,,,,3.9,4.8,,5.75,4.1,5,6.06,6.58,5.35,6.58,6.5,7.4,2.5,3.7,4.45,6,1.3,4.2,7.8,,,,,,,,,4,5.1,4.7,6.6,6.2,2.4,7.4,,9.75,2,3.45,5.65,6.9,3.8,14,5.6,6.7,1.92,,5,5.9,2,17.4,4.4,,,,5.3,,0.83,2.56,4.5,6.2,1.85,2.6,4.52,5.4,,
203630078030001,Pahur_Pz,20.60833333,78.05,,,,,,,,,,,,,,,,,,,,,,,3.3,,,,,,2.6,,,,,,,,,,,,,,,,,,,,,,1.05,,,,2.05,2.5,,2.8,,,,3.3,,16.9,20.4,20,1.8,2.9,,3.5,1.2,2.4,4.8,,,,,,,3,3,3,2.9,,,3.5,2.3,,,10.65,3,3.68,3.78,,2.75,5.1,5.7,10.5,2.47,,3,4.4,2,3.5,2.4,,,,6.17,,1.55,2.4,2.2,3.4,1.25,2.5,3.3,3.2,,
202030077520001,Bori (Arab)_Pz,20.34166667,77.86666667,,,,,,,,,,,,,,,,,,,,,,,,8.12,28.3,,20.6,21,20.2,,,,,,,,,,,,,,,,,,,,,,17.6,,,,16.3,14.13,,15.95,17.02,17,17.56,16.4,,18,18.5,19.85,16.8,11.5,12.8,14.2,3,12.5,7.8,,,16.5,,,14.1,14,14.6,16.2,16.7,15.1,14.7,15.6,16.25,17,,21.2,14,10.75,12.55,14,8.2,4.2,15.3,16.4,17.32,,16.8,18.2,18,19,8.2,,,,6.3,,5.1,4.82,5.2,,4.38,4.8,9.05,11.6,,
200800078360901,Karanji1,20.13333333,78.6025,,,,,,,,,,,,,,,,,,,,,,,,,,,,,,,,,,,,,,,,,,,,,8.05,8.03,1.05,4.5,4.92,7.72,,5.5,6.25,6.85,3.35,7,6.17,,3.76,4.09,4.93,,6.7,,9.35,,3.15,,,,,,7.7,,,,,,,6.2,8.2,6.4,6.45,6.38,7.05,8.2,5.95,7.1,,11,4.1,7.13,8.37,7,4.6,7.1,5.5,11.05,0.1,,6.1,7,2.8,5.95,5.9,,,,6.15,,1.95,2.3,3.05,8,,6.4,4.65,7.95,,
200951078083201,Akolabazar_Pz,20.16416667,78.14222222,,,,,,,,,,,,,,,,,,,,,,,,,,,,,,,,,,,,,,,,,,,,,,,,,,,,,,,,,,,,,,,,,,,,,,,2.5,2.7,4.25,6.6,,2,,6.4,,1.8,3.6,3.5,6,4.7,6.5,7,5.15,6.6,,10.5,4.3,3.73,6.14,13.1,7.2,8,10.2,13.4,5.56,,9.6,10.28,5.1,4.9,4,,,,5.8,,2.9,2,2.7,7,0.75,3.1,5.2,,,
202314078115501,Bhari_Pz,20.38722222,78.19861111,,,,,,,,,,,,,,,,,,,,,,,,,,,,,,,,,,,,,,,,,,,,,,,,,,,,,,,,,,,,,,,,,,,,,,,2.6,2.4,4.7,8.95,,2.9,4.1,5.2,1.65,2.6,2.6,3.4,2.4,3.2,3.2,5.05,2.5,3.3,,12.55,2.1,3.1,4.33,7.73,8.2,4.2,7,7,3.12,,4.9,8.9,2.2,2.9,3,,,,3.4,,5.1,2.58,2.7,6.35,1.25,2.9,3.53,2.9,,
201841077461401,Darwha_Pz,20.31138889,77.77055556,,,,,,,,,,,,,,,,,,,,,,,,,,,,,,,,,,,,,,,,,,,,,,,,,,,,,,,,,,,,,,,,,,,,,,,2,2.3,3.7,7.55,,2.6,3.95,6.4,0.9,2.3,3.2,5,4.4,3.1,3.8,6,2.6,3.25,,7.12,1.8,2.87,4.2,7.1,4.9,4.8,4.7,8.3,1.98,,5.6,8.55,3.5,3.8,4.2,,,,3.8,,1.02,1.85,3.6,6.8,,2.6,3.35,4.9,,
203151077553301,Dhanaj (Manekwada)_Pz,20.53083333,77.92583333,,,,,,,,,,,,,,,,,,,,,,,,,,,,,,,,,,,,,,,,,,,,,,,,,,,,,,,,,,,,,,,,,,,,,,,1.55,2.9,3.8,,,3.3,4.2,4.2,1.4,2.9,3.7,4.2,2.5,4.1,4.4,4.6,2.5,4,,7.1,2.2,,4.15,4.9,2.8,3.6,4.1,5.6,2.26,,3.15,5.78,1.7,2.9,3.3,,,,4,,1.88,2.5,3.81,5.1,1.4,3.3,4.43,4.3,,
200834078191001,Ghatanji_Pz,20.14277778,78.31944444,,,,,,,,,,,,,,,,,,,,,,,,,,,,,,,,,,,,,,,,,,,,,,,,,,,,,,,,,,,,,,,,,,,,,,,2.5,5.4,7.25,8.75,,5.8,7.45,7.4,2.7,5.7,6.8,8.8,,6.7,,8,5.1,6.5,,10.2,2.8,5.7,7.62,7.14,3.6,6,7.7,6.6,3.67,,7.8,7.8,2,8,12,,,,7.8,,4.4,4.85,6.02,7.7,2.3,6.2,9.4,7.2,,
200808078371601,Karanji_Pz,20.13555556,78.62111111,,,,,,,,,,,,,,,,,,,,,,,,,,,,,,,,,,,,,,,,,,,,,,,,,,,,,,,,,,,,,,,,,,,,,,,3.7,5.6,7.4,,,,,,,6.2,8,8,6.4,7.15,7.6,7.11,7.3,7.1,,18.74,3.1,5.15,6.95,8.1,5.9,6.8,7.2,8.1,3.28,,6.95,8.5,2.8,7.9,7.8,,,,,,,5.72,7.87,7.9,1.6,6.4,8.4,7.3,,
194842078511501,Mukutban_Pz,19.81166667,78.85416667,,,,,,,,,,,,,,,,,,,,,,,,,,,,,,,,,,,,,,,,,,,,,,,,,,,,,,,,,,,,,,,,,,,,,,,6,8.3,10.5,15.7,,5.8,9.4,11.05,4.33,5,6.5,,15.6,,,15,22.4,,,22.75,2.6,,,11.6,7.7,9.5,10,13.95,8.1,,9.1,11.2,4.2,5.8,6,,,,,,3.3,4.72,8.1,11.1,,6.9,10,10.7,,
202949077515001,Ner-Pz,20.49694444,77.86388889,,,,,,,,,,,,,,,,,,,,,,,,,,,,,,,,,,,,,,,,,,,,,,,,,,,,,,,,,,,,,,,,,,,,,,,0.3,1.8,2.7,5.1,,,3.4,6.2,0.4,1.65,2,3.9,0.8,2.1,2.2,3.3,1.15,2.1,,8.09,0.9,2.15,2.97,4.3,1.9,3.2,4.1,6.6,1.25,,3.6,12.84,2.8,2.9,6.9,,,,7.4,,0.8,1.32,2.2,6.1,0.45,2.4,,3,,
200127078324701,Pandharkawada_Pz,20.02416667,78.54638889,,,,,,,,,,,,,,,,,,,,,,,,,,,,,,,,,,,,,,,,,,,,,,,,,,,,,,,,,,,,,,,,,,,,,,,1,4.15,5.4,7.8,,4,4.7,5.9,2.3,4.2,4.3,3.5,5.3,5.4,5.6,8.27,3.65,4.1,,11.2,3.8,4.1,5.15,6.2,3.4,4.6,5.2,,4.15,,5.7,7.26,4.5,5.9,5,,,,5.7,,3.37,4.05,4.86,6,3.14,4.5,5.77,5.8,,
194817078414801,Patan_Pz,19.80472222,78.69666667,,,,,,,,,,,,,,,,,,,,,,,,,,,,,,,,,,,,,,,,,,,,,,,,,,,,,,,,,,,,,,,,,,,,,,,1.1,6.3,7.7,7.1,,6.1,6.05,7.19,1.38,4.65,5.4,6.6,16.9,6.2,7.2,6.6,,5.7,,,3.6,,,7.3,0.6,6.6,7.2,7.6,0.95,,6.7,8.15,0.5,5.2,5.8,,,,6.2,,1.5,3.2,1.52,3,2.02,3.6,4.25,2.3,,
202516078305301,Ralegaon_Pz,20.42111111,78.51472222,,,,,,,,,,,,,,,,,,,,,,,,,,,,,,,,,,,,,,,,,,,,,,,,,,,,,,,,,,,,,,,,,,,,,,,1.9,6,8.3,12.2,,4.7,8,10.3,2.9,5.6,4.3,9.4,4.9,7.05,8,6.13,3.05,6.7,,16.43,4,5.94,7.38,9.65,4.3,6.9,7.6,9.3,4.32,,6,9.3,3,6.9,6,,,,6.9,,2.22,5.7,6.4,6.65,2.3,5,7,6.7,,
200611078302001,Saykheda_Pz,20.10305556,78.50555556,,,,,,,,,,,,,,,,,,,,,,,,,,,,,,,,,,,,,,,,,,,,,,,,,,,,,,,,,,,,,,,,,,,,,,,2.7,4.9,6,9.75,,5.2,5.75,8.3,1.8,4.3,5.5,9.6,8.2,6.2,7,8.6,5.9,6.3,,15.25,2.5,,7.13,9,5.8,6.8,7.2,8.3,3.52,,6.95,8.2,4,7.1,6.8,,,,7.3,,1.5,5.15,6.87,9,,5.2,7,8,,
200430078150001,Shiroli_Pz,20.075,78.25,,,,,,,,,,,,,,,,,,,,,,,,,,,,,,,,,,,,,,,,,,,,,,,,,,,,,,,,,,,,,,,,,,,,,,,11.35,12.1,11,16.4,,12.5,12.9,17.4,8.75,12.65,13.1,13,16.8,14.4,12.15,7.8,7.75,7.8,,20.75,8.5,4.62,7.2,23.15,6.9,10.6,26.1,28.6,2.26,,18.1,21.15,4.9,9.3,12,,,,12.75,,24.76,27.05,27.67,28.15,5.21,6.8,8.4,14,,
204008078133901,Sindhi_Pz,20.66888889,78.2275,,,,,,,,,,,,,,,,,,,,,,,,,,,,,,,,,,,,,,,,,,,,,,,,,,,,,,,,,,,,,,,,,,,,,,,0.6,1.7,2.7,5.88,,2.4,3.3,6,0.87,2.8,2.7,5.1,1.4,2.8,3.2,9.8,2.2,2.7,,7.8,1.2,3.95,3.02,6.7,4.6,5.3,7.1,8.4,4.7,,6,8.3,0.9,2,2.6,,,,2.9,,2.13,1.85,,6,0.66,2.2,4.13,,,
201655078425901,Wadki_Pz,20.28194444,78.71638889,,,,,,,,,,,,,,,,,,,,,,,,,,,,,,,,,,,,,,,,,,,,,,,,,,,,,,,,,,,,,,,,,,,,,,,8.7,11.2,13.1,,,,13.1,15.4,7.5,8.7,10.8,14,11.6,12.17,13.15,13.9,10.4,11.8,,19.6,10.1,,11,14,10,11.5,13.3,14.9,10.32,,13.4,14.72,8.5,13.1,11.8,,,,,,8.18,9.05,11,11.25,5.2,8.5,17.2,10.3,,
201427078183202,Yelbara_Pz,20.24083333,78.30888889,,,,,,,,,,,,,,,,,,,,,,,,,,,,,,,,,,,,,,,,,,,,,,,,,,,,,,,,,,,,,,,,,,,,,,,1.2,2.8,3.4,5.75,,3.2,3.7,4.1,,3.3,3.1,3.8,3,2,3,3.8,4.4,3.8,,,1.7,,4.3,4.7,3.3,3.6,4.1,10.3,4.25,,4.2,4.8,1.4,3.9,3.9,,,,6.12,,1.82,3.4,3.32,4.9,,2.5,4.1,3.6,,
193604077412901,Kurli_Pz,19.60111111,77.69138889,,,,,,,,,,,,,,,,,,,,,,,,,,,,,,,,,,,,,,,,,,,,,,,,,,,,,,,,,,,,,,,,,,,,,,,,,,,,3.7,5,6.8,1.7,3.9,4.9,6.7,9.5,5.2,6.5,4.98,3.95,4.9,3.43,7.68,2.1,3.73,5.62,8.2,4.5,6,7.2,6.7,3.26,,6.1,8.42,1.8,4.5,5,,,,5.2,,2.31,3.55,5.37,6,1.25,3.3,5.76,5,,
201356078241001,Aamla,20.23222222,78.40277778,,,,,,,,,,,,,,,,,,,,,,,,,,,,,,,,,,,,,,,,,,,,,,,,,,,,,,,,,,,,,,,,,,,,,,,,,,,,,3.4,4.2,1.1,2.55,,4.4,2.4,4.1,4.1,5.3,1.1,3.7,5.33,11.5,1.1,4.95,3.88,10.75,3.2,4.5,11.7,3.8,2.65,,4.3,10,1.4,3.9,5.8,,,,3.6,,0.8,1.7,3.88,,0.85,2.6,4.76,1.76,,
200605078481901,Buranda-Hetis,20.10138889,78.80527778,,,,,,,,,,,,,,,,,,,,,,,,,,,,,,,,,,,,,,,,,,,,,,,,,,,,,,,,,,,,,,,,,,,,,,,,,,,,,3.1,5.6,0.35,2.4,2.6,4.6,7.75,2.85,5.55,3.1,0.98,,3.66,4.7,0.25,2,2.05,4.15,0.6,1.8,2.8,4.25,0.4,,2.4,3.55,0.4,1.15,2.05,,,,2.38,,3.15,1,2.05,3.5,,0.6,3.18,2.75,,
203003078073501,Dighi-Punarvasan-1,20.50083333,78.12638889,,,,,,,,,,,,,,,,,,,,,,,,,,,,,,,,,,,,,,,,,,,,,,,,,,,,,,,,,,,,,,,,,,,,,,,,,,,,,5.05,5.7,0.35,1.5,4.2,2.9,3.9,5.7,6.1,5.9,4.1,6.5,8.5,9.2,0.9,4.82,12.29,6.8,4.4,5.8,7.52,,1.93,,7.35,9.5,2.3,3.7,6,,,,5.9,,0.5,4.25,6.3,5.36,,3.1,5.52,3.3,,
201456078251101,Metikheda,20.24888889,78.41972222,,,,,,,,,,,,,,,,,,,,,,,,,,,,,,,,,,,,,,,,,,,,,,,,,,,,,,,,,,,,,,,,,,,,,,,,,,,,,3.5,7.1,0.5,0.7,6.9,5.3,12.2,2.8,3.6,8.8,1.15,2.7,7.4,12.8,0.2,6.9,7.85,10.5,6.5,7.3,8.4,13.1,0.82,,12.3,14.1,1.3,4.9,4.3,,,,10.2,,0.2,0.3,0.8,8.2,,0.6,3,5,,
200846078243401,Mowada,20.14611111,78.40944444,,,,,,,,,,,,,,,,,,,,,,,,,,,,,,,,,,,,,,,,,,,,,,,,,,,,,,,,,,,,,,,,,,,,,,,,,,,,,5.05,5.9,1.45,4.1,9.6,10.3,6.3,3.6,5.1,10.9,3.9,4,6.9,12.3,,4.9,7.8,7.5,2.5,2.2,4.8,6.8,1.87,,7.8,7.5,1.3,5.9,9.2,,,,7.18,,2.8,3.5,,6.45,,3.7,5.92,8.1,,
201036078202201,Rampur,20.17666667,78.33944444,,,,,,,,,,,,,,,,,,,,,,,,,,,,,,,,,,,,,,,,,,,,,,,,,,,,,,,,,,,,,,,,,,,,,,,,,,,,,6.1,6.3,2.9,2.6,3.8,5.4,6.1,5.4,6.1,7.1,5.8,6,7.52,8.4,3.8,5.35,5.7,6.65,5.8,7.5,7.2,7.9,3.18,,6.4,7.32,4.45,5.4,6.3,,,,5.9,,2.7,3.15,4.6,3.9,,2.9,4,5.1,,
203854078083001,Sarul,20.64833333,78.14166667,,,,,,,,,,,,,,,,,,,,,,,,,,,,,,,,,,,,,,,,,,,,,,,,,,,,,,,,,,,,,,,,,,,,,,,,,,,,,6.3,7.3,3.4,4,4.7,10.7,5.3,5.4,7.6,7.8,6.4,5.2,9.9,10,6.6,7.15,9.5,10.2,2.8,6.7,9.7,10.4,2.2,,10.79,10,7.4,6.9,7.4,,,,7.6,,7.2,7.42,5.2,5.36,,4,7,7,,
200309077380801,Singad,20.0525,77.63555556,,,,,,,,,,,,,,,,,,,,,,,,,,,,,,,,,,,,,,,,,,,,,,,,,,,,,,,,,,,,,,,,,,,,,,,,,,,,,9.8,9.3,0.8,3.7,8.95,6.3,8.5,9.8,6.5,11.5,2.2,4.5,11.32,9.55,4.2,3.95,10.12,9.9,4.7,12.1,7.5,9.4,4,,9.1,11,3.8,4.3,5.9,,,,11.5,,2.6,4.66,9.26,,,5.3,12.6,5.4,,
202328078074001,Yavatmal,20.39111111,78.12777778,,,,,,,,,,,,,,,,,,,,,,,,,,,,,,,,,,,,,,,,,,,,,,,,,,,,,,,,,,,,,,,,,,,,,,,,,,,,,2.8,3.35,0.85,1.85,2.05,6.2,1.5,2.5,3.5,3.2,1.7,1.8,2.8,5.1,2.5,2.28,,5.32,2.1,2.05,3.3,9,1.52,,2.7,5.9,1,1.8,0.8,,,,2.2,,0.8,0.64,2,2.3,,1.6,2.58,2.2,,
202219078331001,Zadgaon,20.37194444,78.55277778,,,,,,,,,,,,,,,,,,,,,,,,,,,,,,,,,,,,,,,,,,,,,,,,,,,,,,,,,,,,,,,,,,,,,,,,,,,,,4.3,5.25,2.25,3.35,3.85,4.7,4.55,4.45,,5.9,3.65,4.4,4.94,6.1,1.3,,3.93,5.5,2.5,6.1,5.3,6.15,1.76,,4.7,5.7,2.8,3.65,3.6,,,,3.95,,,3.3,3.1,4.3,,,3.82,,,
200556078160201,Dahegaon,20.09888889,78.26722222,,,,,,,,,,,,,,,,,,,,,,,,,,,,,,,,,,,,,,,,,,,,,,,,,,,,,,,,,,,,,,,,,,,,,,,,,,,,,,,,,,5,5.5,4.4,4.3,5.8,4.15,5.1,5.47,9.2,1.9,4.1,4.53,6.3,3.1,5.8,6.45,6.9,2.75,,3.7,6.65,1.7,3.6,3.4,,,,3.9,,2.6,3.7,3,10,,3.6,4,4.3,,
200949078384701,Khatara,20.16361111,78.64638889,,,,,,,,,,,,,,,,,,,,,,,,,,,,,,,,,,,,,,,,,,,,,,,,,,,,,,,,,,,,,,,,,,,,,,,,,,,,,,,,,,4.9,7.6,5.05,4.7,5.5,0.67,2.8,7.85,8.4,4.5,7.2,7.6,7.4,3.7,4.8,6.4,8.4,0.23,,6.2,7.4,2.7,6.9,5.9,,,,5,,2.1,3.8,4.85,5.4,,7.1,5.63,5.2,,
194655077464801,Mahagaon taluka,19.78194444,77.78,,,,,,,,,,,,,,,,,,,,,,,,,,,,,,,,,,,,,,,,,,,,,,,,,,,,,,,,,,,,,,,,,,,,,,,,,,,,,,,,,,14.9,16.5,12.8,14.25,15.5,11.3,4.1,15.47,11,8.4,9.85,11.5,15.2,14.1,10.2,14.6,17,14.15,,13.1,16.99,8.7,10.1,10.5,,,,12.3,,6.6,8.2,,14.05,,9.9,13.66,,,
200831078123301,Pandhurna (BK),20.14194444,78.20916667,,,,,,,,,,,,,,,,,,,,,,,,,,,,,,,,,,,,,,,,,,,,,,,,,,,,,,,,,,,,,,,,,,,,,,,,,,,,,,,,,,3.6,3.5,3.2,5.2,3.7,2.3,3.4,7.76,8.35,1.6,2.88,3.63,7.4,2.2,3.2,5.4,5.6,0.48,,7.5,8,1.9,1.6,3.3,,,,2,,2.1,2.35,2.6,5.3,,2.6,3.65,4.6,,
195049077482201,Khadka,19.84694444,77.80611111,,,,,,,,,,,,,,,,,,,,,,,,,,,,,,,,,,,,,,,,,,,,,,,,,,,,,,,,,,,,,,,,,,,,,,,,,,,,,,,,,,,,,7.6,4.19,3.3,4.1,7,5.5,1.8,3.05,5.63,4.7,4.3,6.2,9.1,7.5,1.64,,6.7,6,2.1,4.8,5.1,,,,4,,0.4,2.16,4.68,3.77,,3.1,,3.3,,
194946078380301,Satpali,19.82944444,78.63416667,,,,,,,,,,,,,,,,,,,,,,,,,,,,,,,,,,,,,,,,,,,,,,,,,,,,,,,,,,,,,,,,,,,,,,,,,,,,,,,,,,,,,8,8.05,4.01,8.1,6.93,10.3,7.4,,,8.5,7.4,7.5,,8.7,7.1,,7.9,8.9,3,5.74,7.6,,,,4.8,,3.5,4.3,6.8,2.3,,6.6,5,3.1,,
200734078533701,Bhandewada,20.12611111,78.89361111,,,,,,,,,,,,,,,,,,,,,,,,,,,,,,,,,,,,,,,,,,,,,,,,,,,,,,,,,,,,,,,,,,,,,,,,,,,,,,,,,,,,,,,1,,5.15,2.1,,1.2,1.5,,6.8,2.9,3.1,8,5.7,,5.1,6,2.8,1.5,1.8,,,,1.8,,2.3,3.35,2.15,3.65,0.75,0.7,,3,,
195110079030401,Punwat-1,19.85277778,79.05111111,,,,,,,,,,,,,,,,,,,,,,,,,,,,,,,,,,,,,,,,,,,,,,,,,,,,,,,,,,,,,,,,,,,,,,,,,,,,,,,,,,,,,,,3.35,,6.1,5.1,2.2,2.52,,,3.6,2.2,4.75,7,3,,3.55,3.8,2.2,2.5,3.2,,,,2.9,,1,2.3,,3.85,,2.2,3.4,3.6,,
200252078571901,Wani-1,20.04777778,78.95527778,,,,,,,,,,,,,,,,,,,,,,,,,,,,,,,,,,,,,,,,,,,,,,,,,,,,,,,,,,,,,,,,,,,,,,,,,,,,,,,,,,,,,,,7.8,9.6,9.74,12.3,9,9.78,9.54,11.2,7.5,9.8,10.58,11.8,8.25,,10.6,13.05,6.5,7.8,10.2,,,,10.7,,6.7,9.75,10.86,8.4,,,,7.9,,
193538077411001,Umarkhed 1,19.59388889,77.68611111,,,,,,,,,,,,,,,,,,,,,,,,,,,,,,,,,,,,,,,,,,,,,,,,,,,,,,,,,,,,,,,,,,,,,,,,,,,,,,,,,,,,,,,,,,,2,2.5,3.32,6.4,1.9,4.7,6,,2.25,,4,8,2.4,2.5,4.05,,,,4.8,,1.3,2.35,2.8,4.1,,2.2,3.13,,,
200504077570901,Arni-1,20.08444444,77.9525,,,,,,,,,,,,,,,,,,,,,,,,,,,,,,,,,,,,,,,,,,,,,,,,,,,,,,,,,,,,,,,,,,,,,,,,,,,,,,,,,,,,,,,,,,,,2.97,5.16,6.75,5.1,5.9,7.9,11.3,3.05,,6.5,7.2,3.7,5.7,7.05,,,,7.6,,1.5,4.65,5.8,6.65,1.48,5.1,7.2,4.5,,
203339078085701,Babhulgaon-1,20.56083333,78.14916667,,,,,,,,,,,,,,,,,,,,,,,,,,,,,,,,,,,,,,,,,,,,,,,,,,,,,,,,,,,,,,,,,,,,,,,,,,,,,,,,,,,,,,,,,,,,7.5,8.83,8.2,4.6,8.2,8.5,6.4,5.02,,7.5,8.2,7.15,6.9,6.6,,,,6.4,,6.7,6,6.7,7.2,3.7,5.9,3.4,7.2,,
202100077520401,Bori (Arab)-1,20.35,77.86777778,,,,,,,,,,,,,,,,,,,,,,,,,,,,,,,,,,,,,,,,,,,,,,,,,,,,,,,,,,,,,,,,,,,,,,,,,,,,,,,,,,,,,,,,,,,,2.84,6.85,8.75,8.25,9.7,10.2,,4.72,,9.35,12.15,9,8.1,10.5,,,,6.8,,3.8,4.35,5.26,7.4,2.9,5,6,8.1,,
201810077461101,Darwha,20.30277778,77.76972222,,,,,,,,,,,,,,,,,,,,,,,,,,,,,,,,,,,,,,,,,,,,,,,,,,,,,,,,,,,,,,,,,,,,,,,,,,,,,,,,,,,,,,,,,,,,2.1,4.77,6.3,5.1,5.1,8.65,,1.11,,5.2,6.4,3.75,3,4.2,,,,3.8,,1.2,1.45,2.87,5.3,3.15,1.8,4,4.1,,
202053077543901,Ladkhed-1,20.34805556,77.91083333,,,,,,,,,,,,,,,,,,,,,,,,,,,,,,,,,,,,,,,,,,,,,,,,,,,,,,,,,,,,,,,,,,,,,,,,,,,,,,,,,,,,,,,,,,,,3.1,5.05,13.3,6.2,10.6,7.3,9.5,0.29,,7.2,14.5,4.85,7.9,8.7,,,,8.3,,2.6,3.8,4.37,10.6,,5.1,8.9,8.9,,
202949077514801,Ner,20.49694444,77.86333333,,,,,,,,,,,,,,,,,,,,,,,,,,,,,,,,,,,,,,,,,,,,,,,,,,,,,,,,,,,,,,,,,,,,,,,,,,,,,,,,,,,,,,,,,,,,2.27,2.81,4.5,1.4,2,5.3,8,1.37,,4.1,5,0.5,1.4,2.2,,,,2.5,,0.6,1.55,2.51,3.9,,1.9,3.46,3.6,,
194306077523701,Phulsawangi,19.71833333,77.87694444,,,,,,,,,,,,,,,,,,,,,,,,,,,,,,,,,,,,,,,,,,,,,,,,,,,,,,,,,,,,,,,,,,,,,,,,,,,,,,,,,,,,,,,,,,,,6.93,9.1,12.55,5.8,9.3,11.5,7,6.1,,9.5,10.7,4.8,7.4,9.2,,,,8.9,,2.1,6.72,8.2,8.8,,7.6,9.38,6,,
202509077361901,Sangwi Rly,20.41916667,77.60527778,,,,,,,,,,,,,,,,,,,,,,,,,,,,,,,,,,,,,,,,,,,,,,,,,,,,,,,,,,,,,,,,,,,,,,,,,,,,,,,,,,,,,,,,,,,,5.95,6.41,13.3,4.6,4.8,13.4,7.1,5.3,,13.9,15.58,6,7.5,8.1,,,,5.6,,1.9,2.25,,5.62,,9,5.13,10.8,,
195736078064101,Sawli Sadoba,19.96,78.11138889,,,,,,,,,,,,,,,,,,,,,,,,,,,,,,,,,,,,,,,,,,,,,,,,,,,,,,,,,,,,,,,,,,,,,,,,,,,,,,,,,,,,,,,,,,,,4.95,,8.55,2.3,8,8.4,7.9,2.62,,6.65,8.7,3.1,3.7,5.05,,,,7.3,,2,3.36,4.91,7.32,,3.8,5.78,5.8,,
195834078410201,Shibla,19.97611111,78.68388889,,,,,,,,,,,,,,,,,,,,,,,,,,,,,,,,,,,,,,,,,,,,,,,,,,,,,,,,,,,,,,,,,,,,,,,,,,,,,,,,,,,,,,,,,,,,2.87,,2.8,1.2,4.5,1.6,5.8,1,,2,3.4,0.8,2.1,2.3,,,,,,1.6,2.12,5.36,8.3,,2.9,1,4.35,,
204006078133801,Sindhi-1,20.66833333,78.22722222,,,,,,,,,,,,,,,,,,,,,,,,,,,,,,,,,,,,,,,,,,,,,,,,,,,,,,,,,,,,,,,,,,,,,,,,,,,,,,,,,,,,,,,,,,,,5.11,3.23,6.3,4.6,5.2,9.74,9.75,4.1,,4,6.5,1,2.1,2.6,,,,2.9,,1.7,1.92,,,,2,,,,
200828078083201,Talni,20.14111111,78.14222222,,,,,,,,,,,,,,,,,,,,,,,,,,,,,,,,,,,,,,,,,,,,,,,,,,,,,,,,,,,,,,,,,,,,,,,,,,,,,,,,,,,,,,,,,,,,3.23,5.72,7.5,6.5,5.4,9.8,12.5,1.42,,4.5,12.49,1.3,3.6,3.6,,,,4.8,,2,1.85,3.37,7.45,,2.2,6.72,5.9,,
195137078440801,Jamni,19.86027778,78.73555556,,,,,,,,,,,,,,,,,,,,,,,,,,,,,,,,,,,,,,,,,,,,,,,,,,,,,,,,,,,,,,,,,,,,,,,,,,,,,,,,,,,,,,,,,,,,,4.32,6.3,1,3.2,4.3,8.5,2.05,,4.7,8.49,1.5,3.3,3.3,,,,4.25,,1.3,2,5.47,2.45,,3,4.23,4.1,,
