station_id,station_name,latitude,longitude,1994_season1,1994_season2,1994_season3,1994_season4,1995_season1,1995_season2,1995_season3,1995_season4,1996_season1,1996_season2,1996_season3,1996_season4,1997_season1,1997_season2,1997_season3,1997_season4,1998_season1,1998_season2,1998_season3,1998_season4,1999_season1,1999_season2,1999_season3,1999_season4,2000_season1,2000_season2,2000_season3,2000_season4,2001_season1,2001_season2,2001_season3,2001_season4,2002_season1,2002_season2,2002_season3,2002_season4,2003_season1,2003_season2,2003_season3,2003_season4,2004_season1,2004_season2,2004_season3,2004_season4,2005_season1,2005_season2,2005_season3,2005_season4,2006_season1,2006_season2,2006_season3,2006_season4,2007_season1,2007_season2,2007_season3,2007_season4,2008_season1,2008_season2,2008_season3,2008_season4,2009_season1,2009_season2,2009_season3,2009_season4,2010_season1,2010_season2,2010_season3,2010_season4,2011_season1,2011_season2,2011_season3,2011_season4,2012_season1,2012_season2,2012_season3,2012_season4,2013_season1,2013_season2,2013_season3,2013_season4,2014_season1,2014_season2,2014_season3,2014_season4,2015_season1,2015_season2,2015_season3,2015_season4,2016_season1,2016_season2,2016_season3,2016_season4,2017_season1,2017_season2,2017_season3,2017_season4,2018_season1,2018_season2,2018_season3,2018_season4,2019_season1,2019_season2,2019_season3,2019_season4,2020_season1,2020_season2,2020_season3,2020_season4,2021_season1,2021_season2,2021_season3,2021_season4,2022_season1,2022_season2,2022_season3,2022_season4,2023_season1,2023_season2,2023_season3,2023_season4
113710077444001,Ammapet2,11.61944444,77.74444444,,,,,,,,,3.48,4.28,4.24,3.8,2.7,5.4,7.15,2.87,2.66,5.93,4.62,2.25,3,14.87,7.74,4.33,3.45,5.67,6.35,3.77,2.79,4.35,7.58,2.65,3.26,6.16,8,7.46,8.8,,,7.64,8.4,10.25,9.62,4.5,3.85,3.76,,0.7,2.09,3.8,5.9,1.8,2.45,5.8,7.4,3.83,2.48,3.4,4.7,2.6,4.05,4.59,5.01,3.4,3.1,4.89,6.75,3.15,2.98,6.5,4.55,2.2,2.45,5.68,,5.7,6.8,,10.1,3.62,4,9.36,7.1,,3.15,5.55,5.5,3.17,,5.2,6.12,7.9,8.35,9.56,8.4,6.36,7.08,6.64,5.68,4.72,4.73,5.57,7.1,3.7,4.25,,5.65,4.8,4.88,,,4.35,4.05,4.43,4.37,1.9,2.85,4.85,,
110945077420001,Archalur,11.1625,77.7,,,,,,,,,5.2,11.98,10.91,4.39,3.15,5.87,8.94,3.13,3.94,4.74,5.87,3.79,4.49,5.51,7.46,4.19,4.17,4.57,5.65,5.6,4.79,6.69,14.39,4.95,3.51,12.83,11.91,7.49,8.23,11.19,12.57,8.24,9.69,11.04,10.29,4.09,3.54,6.7,,4.89,4.29,4.89,5.92,5.04,4.61,6.59,5.69,4.64,5.04,4.92,3.29,4.24,2.39,4.79,6.22,1.29,2.57,3.3,8.29,4.43,4.42,5.14,7.19,4.79,3.99,5.37,,3.79,6.29,11.49,9.52,4.09,5.49,11.09,5.09,,3.64,5.94,6.89,5.19,,8.74,10.84,9.34,7.25,12.91,13.21,6.71,10.49,9.84,5.66,6.04,5.39,7.51,6.49,5.28,4.99,,0.26,4.94,5.19,,9.35,5.4,4.92,3.54,4.69,3.24,3.99,4.14,,
113127077310001,Attani,11.52416667,77.51666667,,,,,,,,,9.88,11.48,9.76,8.6,9.6,13,13.67,7.94,9.83,11.8,9.3,8.44,11.4,9.1,12.42,7.28,9.32,15.46,10.55,9.32,10,13.4,12.98,11.8,11.1,13.34,13.8,6.26,11.6,13.46,12.81,17.16,11.86,17.16,12.78,6.76,10.56,10.67,,5.16,9.2,8.48,2.08,6.51,8.84,12.66,12.56,5.1,7.86,9.36,8.56,8.76,10.81,10.86,10.69,10.23,10.71,11.21,7.16,4.61,11.51,9.46,9.56,8.46,8.06,11.96,,11.06,12.56,13.86,14.26,9.46,16.06,13.04,14.16,,13.16,9.97,11.51,8.13,,12.36,12.54,12.36,12.8,15.46,13.95,10.18,13.76,11.13,9.88,7.7,11.56,11.48,12.21,6.36,11.71,,9.01,8.81,10.2,,12.18,6.38,,11.26,7.76,6.26,8.86,9.94,,
113015077243001,Bangalapudhur,11.50416667,77.40833333,,,,,,,,,5.92,8.88,6.07,5.9,5.6,7.82,7,4.61,5.24,7.6,6.8,4.3,6.1,5.89,6.47,4.78,4.91,6.8,5.15,4.43,5.02,6.1,6.2,6.11,5.94,,7.16,6.1,7.6,,,10.8,,10.8,7.15,6.8,6.8,7.64,,3.22,4.7,5.47,6.22,3.86,5.05,7,6.65,4.2,4.9,5.53,5.4,4.95,5,6.4,6.9,6.2,6,6.43,6.85,3.77,5.13,3.7,5.4,4.6,4.75,6.3,,8.7,10.05,10.8,7.85,7.2,6.9,9.6,5.6,,5.35,10.7,7.15,5.72,,9.4,10.8,10.8,10.8,10.8,10.8,6.28,10.8,10.5,7.17,5,5.85,7.52,9.25,4.8,6.2,,4.9,5.08,6.86,,6.68,4.8,5.17,5.58,4.67,4.33,9.17,4.18,,
114830077320001,Bhavani1,11.80833333,77.53333333,,,,,,,,,9.39,9.5,8.61,8.19,3.47,9.23,8.12,8.74,8.3,5.47,7.76,8.17,8.27,8.97,7.25,8.39,8.72,8.98,8.25,7.75,8.29,9.24,8.17,8.69,8.53,9.51,9.65,8.67,8.85,9.57,9.3,8.44,8.57,9.11,8.62,8.62,8.07,9.09,,5.77,7.75,8.63,7.77,8.04,7.84,8.22,7.37,7.59,7.87,8.47,6.87,,7.42,7.46,6.87,5.72,7.17,7.97,7.34,7.62,7.61,8.07,7.47,7.57,7.37,8.27,,8.07,,8.77,7.97,7.88,8.27,8.55,8.12,,7.97,8.62,7.97,2.01,,8.49,8.49,8.02,8.6,9.05,9.41,8.04,8.87,8.57,7.5,7.59,8.24,8.97,8.02,7.85,8.32,,7.72,5.72,8.7,,7.47,7.15,7.47,7.97,6.77,3.72,7.67,8.37,,
110945077355001,Chennimalai2,11.1625,77.59722222,,,,,,,,,6.47,8.76,10.52,9.25,8.17,10.93,13.97,8.8,6.67,8.14,8.59,7.8,7.52,8.11,8.99,7.51,6.43,7.42,7.97,7.93,7.77,9.02,9.89,7.33,6.66,8.84,10.01,13.17,10.97,16.3,14.93,11.97,9.47,13.54,8.37,7.37,6.77,7.51,,6.47,4.91,6.17,7.17,5.83,4.77,6.27,8.57,6.5,4.79,5.52,5.82,5.22,5.27,6.52,7.67,8.27,6.37,7.01,7.33,5.58,4.02,4.67,5.27,4.82,3.07,5.67,,6.37,7.17,7.97,8.37,6.32,6.32,7.17,7.66,,6.3,6.1,7.22,6.15,,6.07,5.96,6.52,6.67,9.66,7.83,7.16,7.46,7,7.4,,7.06,7.91,8.02,6.37,6.17,,6.02,5.47,5.97,,5.79,5.04,4.85,4.95,5,2.74,5.02,5.61,,
112330077404001,Chittodu,11.39166667,77.67777778,,,,,,,,,5.09,5.26,6.82,4.21,5.04,6.59,8.34,4.79,3.12,6.96,5.7,5.09,4.84,6.64,7.42,5.28,5.08,5.43,4.6,2.92,2.97,4.18,6.84,2.78,5.55,6.98,7.84,5.38,6.14,8.54,2.53,7.32,7.79,,5.34,2.44,4.28,2.77,,0.54,2.06,3.59,5.99,3.42,3.57,5.34,7.54,4.1,3.19,5.84,4.89,5.69,3.74,5,,6.74,6.44,7.9,6.89,3.73,3.64,6.44,5.64,6.14,3.99,5.24,,6.29,6.24,7.44,7.7,5.11,7.24,10.62,8.79,,6.34,6.89,8.79,4.9,,7.7,9.58,12.04,12.4,12.06,9.12,12,11.74,12.04,11.04,6.54,6.89,7.28,10.54,4.34,6.14,,7.84,3.41,8.54,,7.38,3.12,2.79,5.84,8.24,2.89,2.74,3.49,,
111140077464501,Elmattur,11.19444444,77.77916667,,,,,,,,,8.88,7.45,8.77,2.52,1.59,3.29,5.89,0.94,1.36,4.27,7.03,4.14,2.19,6.19,9.12,6.28,7.6,3.61,6.21,2.35,1.89,4.57,8.62,0.58,0.91,1.71,0.84,2.19,3.49,7.44,7.3,3.99,6.44,6.24,5.64,2.19,1.34,4.21,,3.49,1.73,3.64,6.43,0.72,4.11,3.79,6.17,3.5,1.52,1.99,2.94,1.34,1.41,4.64,5.77,4.64,2.79,2.29,3.89,1.09,1.54,1.69,6.34,4.89,2.49,5.04,,7.59,7.39,,8.29,2.19,,7.39,7.99,,4.19,3.19,6.89,1.69,,5.99,6.47,8.14,7.99,7.94,7.35,7.5,6.46,6.32,2.89,1.14,1.66,4.66,6.82,2.19,2.39,,1.94,1.29,1.04,,6.85,5.48,3.69,1.54,1.79,1.24,1.14,2.19,,
112000077440001,Erode2,11.33333333,77.73333333,,,,,,,,,7.86,6.93,6.65,5.62,6.25,5.62,4.73,1.72,3.41,5.07,4.64,4.32,4.25,5.25,4.9,4,4.31,6.34,5.02,3.95,4.73,7.85,5.4,1.79,4.28,,,2.55,4.67,,6.59,1.15,8.75,5.25,8.75,5.4,5.2,6.18,,0.05,3.55,6.25,6.25,3.92,4.15,5.25,5.95,2.4,2.9,10.7,6.9,6.4,5.35,7.05,7.39,6.99,7.15,7.33,7,6.61,6.55,6.45,5.75,3.45,6.05,,,5.25,6.05,6.75,5.69,5.53,5.95,6.2,7,5.65,4.93,5.2,6.15,5.25,,6.53,7.25,7.35,7.15,8.15,8.09,5.95,6.75,6.55,6.97,6.45,4.31,6,7.65,5.33,6.55,,6.65,5.05,8.2,,5.35,3.65,4.55,7.6,5.3,5.42,5.4,5.45,,
112730077264501,Gobichettipalayam1,11.45833333,77.44583333,,,,,,,,,7.83,10.96,11.41,5.19,5.31,8.04,9.49,5.57,4.94,9.01,9.66,3.06,3.11,6.48,9.56,4.54,3.72,7.66,7.17,2.14,2.45,6.53,8.16,6.01,7.27,,9.81,4.61,5.81,10.61,7.76,7.33,8.46,8.31,8.26,3.21,3.71,6.24,,0.81,2.06,2.71,4.68,2.54,2.41,6.16,6.11,2.14,1.81,3.39,4.86,3.21,3.26,4.56,6.31,5.59,5.66,6.48,5.96,0.93,2.31,3.11,,4.41,4.81,7.56,,2.6,7.21,8.01,10.81,5.74,,9.09,8.84,,8.19,9.6,7.11,3.81,,9.36,9.16,11.51,11.51,10.76,9.12,5.33,10.01,4.72,1.99,2.41,4.31,7.93,9.66,4.66,,,3.56,2.61,3.11,,7.75,1.7,2.74,4.86,3.89,1.56,2.31,3.34,,
112700077161001,Indiampalayam,11.45,77.26944444,,,,,,,,,2,6.08,6.99,4.84,4.89,7.64,6.82,1.17,1.17,6.01,6.66,5.94,4.99,,5.85,0.93,1.46,5.57,5.33,3.52,2.16,5.31,,,2.22,,6.29,4.42,,6.67,6.31,4.65,3.5,11.77,6.25,4.6,2.67,3.96,,7.57,1.09,2.35,4.45,2.06,2.31,3.15,3.85,0.47,0.55,2.39,2.83,2.45,3.4,3.4,3.69,1.67,1,2.54,2.4,0.77,1.39,2.55,3.1,3.35,1,2.65,,1.85,3.05,4.95,4.85,3.29,3.75,4.55,4.85,,1.4,3.85,7.75,4.35,,4.9,4.8,4.35,5.71,6.73,7.21,3.89,4.67,3.85,3.09,1.8,3.25,3.71,4.45,1,2.7,,5.65,5.2,6.15,,4.92,0.6,1.28,3.15,3.25,0.95,2.03,2.35,,
110010077334501,Kangayam2,11.00277778,77.5625,,,,,,,,,5.64,7.26,9.17,6.72,6.62,8.57,10.54,9.17,7.36,11.14,11.47,10.92,9.57,12.94,15.13,7.11,5.55,6.01,6.44,6.18,6.02,7.54,9.73,8.56,8.5,11.79,14.45,11.52,13.54,15.48,18.12,11.67,10.92,14.52,18.16,21.12,12.82,14.36,,6.97,3.94,4.82,5.96,5.79,4.17,5.22,7.17,6.12,4.62,5.32,5.92,4.62,4.52,6.52,9.02,,6.82,8.73,9.37,6.28,3.58,5.17,7.72,9.12,5.32,8.05,,6.2,11.62,23.22,,12.02,13.77,,17.62,9.02,9.59,9.42,9.42,9.99,,9.57,10.64,13.67,15.47,21.97,13.77,11.02,10.34,8.17,,8.1,8.54,11.59,13.37,14.72,17.12,,16.12,13.78,7.42,,7.55,7.3,6.3,6.82,7.62,6.17,4.17,2.77,,
112720077202201,Kasipalayam,11.45555556,77.33944444,,,,,,,,,2.54,11.57,12.84,5.6,4.9,8.72,10.65,1.04,2.16,11.39,11.99,4.95,5.8,7.72,11.99,0.82,1.42,9.64,11.5,5.68,5.13,9.62,11.5,3.04,2.28,11.54,12.12,9.9,11.22,11.73,12.36,10.9,12,11.2,11.95,7.5,6.8,6.03,,0.6,2.26,2.6,9.62,2.8,3.6,7.7,11.2,1.05,1.65,6.5,9.45,4.4,5,6.65,11.93,1.25,3.25,8,10.73,3.08,3.75,7.2,16.4,6.1,1.85,10.9,,,15,16.95,16.8,7.09,7.35,12.27,16.7,,1.8,8.4,17.8,6.16,,11.1,11.6,17.9,18.1,15.78,15.1,8.12,9.83,8.45,6.81,3.3,3.93,8.12,11,1.8,5.8,,6,4.8,5.16,,,1.1,,6.5,6.2,,3.2,2.1,,
112520077333001,Kavundapadi1,11.42222222,77.55833333,,,,,,,,,5.12,5.26,7.66,6.5,7.86,5.16,7.66,2.99,3.06,6.11,6.76,5.11,5.06,5.46,7.06,2.24,4.29,5.28,7.97,4.89,5.18,5.58,9.71,4.28,2.44,6.32,7.41,9.96,9.16,12.26,13.43,12.81,13.28,13.6,14.72,7.46,6.11,4.46,,14.96,1.88,4.81,6.64,5.92,2.53,5.11,6.26,3.51,2.88,3.86,4.76,4.36,3.86,5.9,9.48,4.61,3.86,6.25,5.53,2.36,3.26,6.06,6.71,3.56,5.86,7.5,,8.46,9.56,12.6,15.41,7.29,6.81,9.26,13.51,,3.53,5.71,7.01,5.86,,6.06,7.56,11.31,12.81,14.71,14.31,8.53,6.06,5.86,7.82,4.16,4.64,4.78,8.26,3.16,3.51,,5.51,5.96,5.56,,6.13,1.8,2.26,2.81,3.46,2.09,2.96,3.96,,
113212077423501,Krishnapuram,11.53666667,77.70972222,,,,,,,,,1.66,9.56,9.81,1.44,0.46,10.2,14.5,1.56,1.96,12.34,8.74,1.41,5.06,11.92,14.99,1.83,1.69,12.18,7.42,1.32,3,11.45,14.11,1.38,2.96,14.4,17.99,8.34,7.66,,18.71,18.76,13.06,18.76,17.91,1.86,2.66,8.4,,1.52,2.32,10.81,9.8,0.88,2.46,2.86,8.06,1.91,3.48,8.06,12.36,3.26,7.16,9.61,16.56,2.46,2.16,10.31,12.96,1.38,3.17,10.81,8,2.01,3.31,8.56,,12.71,17.61,18.76,9.76,2.19,4.16,13.76,17.01,,4.46,11.51,17.66,3.98,,18.06,,18.76,18.66,18.76,17.77,12.49,15.15,15.55,14.09,2.07,6.06,13.03,13.01,1.76,6.91,,3.86,2.11,3.52,,,2.55,3.4,6.56,,2.46,3.26,7.66,,
112900077090001,Mudukkandurai,11.48333333,77.15,,,,,,,,,2.5,2.31,1.18,1.75,2.16,5.94,1.81,1.36,1.52,1.36,1.58,1.14,1.96,2.02,2.05,1.36,1.58,2.06,,1.47,2.53,2.7,,,1.72,,1.87,1.76,,1.9,,,,,,,,,,,,,,,,,,,,,,,,,,,,,,,,,,,,,,,,,,,,,,,,,,,,,,,,,,,,,,1.9,3.19,2.36,6.76,1.61,6.76,,,,7.06,,,,1.57,,,,1.31,1.26,,
104730077423001,Mulanur2,10.79166667,77.70833333,,,,,,,,,12.91,17.44,15.18,7.86,6.44,8.48,14.24,8.5,6.84,8.83,15.85,6.84,6.59,9.08,18.44,12.24,6.48,8.32,10.52,8.94,8.37,4.04,12.8,8.74,8.08,15.14,16.02,6.04,6.14,8.54,8.88,8.54,8.64,,8.79,,2.04,16.49,,7.76,4.16,6.54,6.37,7.72,8.14,8.24,8.29,14.04,4.89,6.34,7.74,7.34,6.44,7.54,8.24,8.69,6.64,8.17,9.54,4.34,3.49,4.41,6.34,5.94,4.19,8.04,,5.74,7.54,8.74,,8.84,8.19,8.04,8.49,,6.87,2.79,3.89,3.69,,4.84,5.39,5.64,6.04,6.86,8.79,3.71,4.24,4.64,8.44,7.64,5.02,6.36,6.04,5.06,5.79,,5.09,3.49,3.29,,5.45,3.45,2.84,4.99,8.24,6.14,5.04,3.64,,
110230077440001,Muttur1,11.04166667,77.73333333,,,,,,,,,14.87,12.09,14.73,9.13,4.69,6.75,7.29,5.62,4,7.27,8.56,8.69,3.54,5.04,7.03,3.62,2.53,4.63,5.21,5.44,2.01,3.09,3.44,3.16,2.88,4.69,5.49,4.49,4.87,7.42,11.07,11.44,11.91,15.29,15.21,9.79,6.04,6.71,,5.99,2.37,3.34,5.49,4.34,1.75,5.69,4.89,3.89,2.49,3.92,4.79,1.59,2.34,2.99,4.89,4.91,3.74,5.76,4.65,2.13,1.61,2.99,4.59,7.09,4.49,9.31,,11.19,12.09,,13.59,10.09,4.59,5.64,9.14,,4.24,5.94,3.54,2.83,,6.49,7.84,7.04,11.52,18.69,14.74,6.42,4.56,5.88,7.79,5.29,5.67,5.56,9.99,9.19,10.09,,8.24,3.94,2.89,,,3.65,2.84,4.39,4.05,4.09,2.64,4.21,,
112120077192501,Nambiyur1,11.35555556,77.32361111,,,,,,,,,18.04,22.9,21.42,20.61,20.39,20.91,20.59,19.81,12.29,19.59,17.77,14.44,12.09,17.07,22.12,12.84,11.89,18.49,17.06,13.94,12.92,16.75,17.97,16.01,,,,19.99,,,,,,,,,,,,,,,,,,,,,,,,,,,,,,,,,,,,,,,,,,,,,,21.86,,17.75,16.3,9.65,,,,,,,19.43,,,,,,,3.65,4.6,,,,,,13.69,12.59,,,,5.29,,3.79,3.99,1.69,2.34,3.53,,
112010077351001,Nasiyanur,11.33611111,77.58611111,,,,,,,,,4.83,4.61,12.82,1.96,2.09,5.68,12.51,2.62,3.63,6.79,11.79,3.18,2.54,5.25,7.6,5.05,3.75,4.81,5.85,1.64,2.45,5.27,10.44,5.39,5.62,11.79,12.92,8.19,8.19,11.39,,11.37,11.44,10.89,1.59,0.79,1.29,1.74,,0.89,1.17,1.76,4.34,2.64,2.09,2.89,3.09,1.54,1.34,6.12,8.54,4.79,3.24,6.74,2.59,2.04,1.09,1.09,3.14,6.1,9.99,9.59,3.89,9.99,5.54,5.89,,2.95,,6.34,8.29,5.72,8.9,9.37,8.79,,6.44,14.34,6.59,6.01,,7.62,6.55,6.69,7.39,4.93,6.12,10.29,10.24,7.28,10.11,7.72,8.15,5.35,5.54,6.79,4.64,,1.89,3.14,6.84,,5.55,3.9,4.36,5.09,3.09,6.05,1.49,6.69,,
111645077350501,Perundurai1,11.27916667,77.58472222,,,,,,,,,12.73,16.38,15.04,9.72,22.03,14.78,14.61,10.36,6.97,12.38,11.82,10.18,8.78,10.16,13.27,9.33,8.98,12.21,12.6,8.93,9.18,13,14.7,11.04,10.98,16.92,20.53,12.83,14.42,17.08,15.96,13.33,19.16,16.52,14.03,11.43,11.18,14.43,,12.18,9.38,12.88,4.78,12.46,10.28,14.28,17.18,12.93,10.83,13.98,13.53,13.48,14.13,14.83,14.18,13.53,11.78,12.53,12.83,12.43,9.43,12.78,12.48,9.08,7.83,13.18,,13.13,15.28,14.08,15.33,14.29,17.28,18.68,16.58,,13.42,16.38,18.18,15.93,,18.38,18.23,18.48,19.51,22.28,21.98,14.38,18.31,14.6,14.13,13.5,14.96,19.13,20.83,13.58,16.83,,16.23,15.28,16.73,,15.3,14.45,15.38,16.18,14.48,12.98,12.43,17.18,,
113540077351501,Pudupalayam1,11.59444444,77.5875,,,,,,,,,10.06,14.92,15.56,10.63,9.44,15.62,19.94,9.29,4.28,7.1,7.44,4.44,3.94,7.29,12.15,6.94,5.45,6.8,6.73,4.51,4.23,9.87,15.06,15.02,15.14,21.6,,,,,,24.24,24.24,24.24,24.24,23.94,24.24,24.24,,24.94,6.68,6.43,9.38,8.14,5.4,6.49,13.74,8.44,5.32,5.74,6.99,5.44,4.81,9.74,13.64,14.14,13.19,19.94,23.14,10.26,5.09,5.09,5.84,3.64,4.84,6.44,,9,12.94,20.84,22.94,22.38,22.94,,,,21.44,21.94,22.74,18.74,,15.14,,19.84,20.54,,24.24,22.14,19.49,20.19,19.26,16.85,17.41,20.39,24.24,7.84,7.34,,6.94,5.24,5.68,,14.25,5.15,3.47,3.44,3.24,1.54,2.09,3.86,,
112110077101001,Punjaipuliampti,11.35277778,77.16944444,,,,,,,,,9.36,11.69,11.44,5.08,4.44,7.76,8.24,3.76,3.48,5.7,6.02,5.52,4.29,5.32,7.28,4.52,5.16,,,6.42,5.64,15.36,,,6.14,,10.29,7.29,,10.31,,,,,,,,,,,,,,,,,,,,,,,,,,,,,,,,,,,,,,,,,,,,,,,,,,,,,,,,,,,,,13.12,4,6.41,10.28,5.84,2.44,6.24,,,,,,,3.35,4.8,6.15,3.92,1.78,5.04,8.04,,
113250077083001,Rajanagaram,11.54722222,77.14166667,,,,,,,,,11.69,13.54,13.56,,14.94,13.56,13.48,13.39,10.79,13.28,13.48,,9.39,11.34,,6.19,7.66,9.54,,7.29,,13.14,,,13.24,,,,,,,13.54,13.54,13.54,13.54,13.14,12.39,13.54,,7.64,7.94,13.54,13.54,13.04,8.29,13.54,13.54,11.24,8.39,11.34,11.34,12.29,13.34,13.54,13.54,13.54,12.74,13.54,14.14,4.63,5.94,5.34,11.24,9.49,8.74,13.24,,,10.34,13.54,13.54,12.74,13.54,13.54,13.54,,5.66,12.49,12.39,11.42,,13.54,13.54,,,,,9.44,13.54,12.68,9.28,7.64,10.24,13.54,13.54,6.34,7.64,,9.94,11.54,12.56,,,6.47,5.54,13.54,9.4,6.24,7.65,11.14,,
113010077145001,Sathiyamangalam,11.50277778,77.24722222,,,,,,,,,10.85,11.52,10.03,8.81,9.05,,10.88,7.25,7.33,11.08,8.35,7.25,8.05,,10.07,7.12,7.85,8.94,8.99,8.28,8.09,10.36,,,9.05,,,7.94,,11.25,9.26,9.01,10.7,13.3,9.82,8.25,8.35,9.69,,6.65,7.5,8.35,8.67,6.86,7.52,8.87,9.65,7.75,8,9.19,7.95,7.72,7.8,9,8.78,8.38,7.9,8.3,8.44,6.6,7.45,7.5,8.65,6.98,7.01,8.25,,7.9,9.05,8.65,9.75,8.15,9.02,9.55,8.15,,8.35,8.35,8.35,7.78,,8.87,9.55,9.45,9.7,11.13,12.79,7.89,9.72,7.87,14.04,7.17,8.22,8.95,7.58,6.45,8.3,,7.85,8.15,8.37,,8.75,7.05,7.38,8.6,7.55,6.69,7.4,7.67,,
114645077002001,Talavadi1,11.77916667,77.00555556,,,,,,,,,12.75,12.76,12.78,10.9,11.47,11.85,12.35,11.63,11.79,13.35,11.95,10.12,10.82,11.85,14.17,0.77,9.44,10.17,,,,,,0.63,,,0.5,,,,,,,,,,,,,,,,,,,,,,,,,,,,,,,,,,,,,,,,,5.1,,,,,,,,,7.3,6.55,,,,,,,,,,,,,,,2.82,8.01,14.52,1.17,3.97,,5.77,5.62,10.47,,,,,8.7,,0.85,0.97,,,
110730077523001,Unjalur,11.125,77.875,,,,,,,,,3.55,3.85,3.37,3.36,3.45,3.45,3.25,3.04,3.29,3.29,3.59,3.25,3.65,3.63,3.73,3.47,3.69,4.3,3.62,3.45,3.68,3.65,3.43,2.87,4.19,4.44,4.3,3.45,3.25,5.58,5.69,5.45,5.6,4.75,3.75,2.95,3.33,4.05,,3.25,3.35,3.75,3.68,3.31,3.93,6.25,3.55,3.6,3.57,3.8,3.24,3.5,3.4,6.15,3.67,3.7,3.35,3.57,3.4,3.39,3.54,4.55,4.5,3.55,3.55,4.88,,2.55,3.95,5.8,5.55,3.53,3.75,5.3,,3.12,3.4,3.63,3.55,3.4,,4.35,4.93,5.3,5.51,6.35,6.25,3.4,3.85,3.9,3.1,3.25,3.35,3.7,4.45,3.37,3.6,,3.35,3,3.4,,3.88,3.65,3.45,3.65,3.25,3.18,1.3,3.67,,
105330077314501,Uthiyur,10.89166667,77.52916667,,,,,,,,,6.31,7.6,6.9,6.94,7.44,8.52,10.64,6.87,3.07,6.1,6.66,7.84,4.74,7.17,8.06,4.73,4.96,7.8,7.84,7.54,6.5,6.84,8.37,7.2,6.65,8.96,10.84,10.49,8.78,11.34,10.52,5.87,6.37,8.49,9.61,8.44,6.94,7.37,,6.19,4.6,6.31,7.44,7.38,4.94,6.24,8.64,8.24,3.09,5.84,8.24,6.99,7.14,8.09,9.24,,6.79,7.78,7.74,5.34,4.89,3.84,6.34,5.14,4.94,7.14,,7.54,8.24,9.09,9.89,7.59,7.94,10.24,3.6,,5.74,7.59,8.39,7.39,,8.69,9.29,10.2,9.96,10.38,10.79,6.93,7.06,5.33,7.59,6.87,8.16,9.24,9.24,5.27,6.89,,7.74,7.39,7.39,,6.2,8.67,5.15,10.34,7.44,5.69,3.64,5.41,,
105640077425501,Vellakoil,10.94444444,77.71527778,,,,,,,,,4.42,5.4,5.78,5.25,4.3,4.95,6.23,3,2.16,3.55,3.4,3.1,2.5,3.84,5.37,4.15,3.22,4.32,4.26,3.97,3.54,4.52,5.66,5.35,5.22,6.74,7.05,5.9,5.62,7,6.71,5.4,5.85,6.82,6.48,5,5.95,4.7,,1.65,1.36,2.35,2.95,1.15,1.53,2,2.82,1.5,0.9,1.9,1.95,1.6,1.45,2.35,2.44,2.13,1.65,2.3,2.75,1.88,1.56,2,2.9,3.4,1.58,3.2,,2.6,3.4,4.9,6.55,4.15,4.2,6.3,6.65,,4.3,5.15,5.15,4.32,,3.2,3.5,,,,,4.75,3.5,2.86,,,4.1,6.02,6.5,2.92,3.1,,2.8,1.8,,,2.7,2.1,1.43,1.9,,0.86,1.35,,,
111410077393001,Vellodu,11.23611111,77.65833333,,,,,,,,,4.42,6.45,7.41,2.41,2.05,3.52,5.38,2.85,2.85,3.6,4.35,2.5,2.2,3.4,5.62,2.65,2.86,3.63,5.07,2.31,2.28,9.52,11.85,3.44,3.36,6.44,,6.49,7.2,,,8.05,8.05,8.05,8.05,7.7,5,4.6,,2.7,2.35,5,6,2.65,,,,,,,,,,,,,,,,,,,,,,,,8.5,,,,,5.13,,,,,,,,,,,,,,,,,,,,2.75,1.54,1.1,0.65,1.9,,0.8,5.6,4.15,,,,,2.85,,1.3,2.15,1.25,,
111430077301501,Vijayamangalam1,11.24166667,77.50416667,,,,,,,,,24.56,29.95,38.85,30.05,28.9,39.01,31.08,13.52,29.62,,39.16,38.4,43,30.66,22.81,19.58,16.13,15.72,15.95,15.47,15.81,18.95,20,21.6,21.2,24.64,16.5,33.5,26.8,43.43,32.33,33.55,35.6,31.2,28.57,31.3,29.2,33.62,,40,23.55,21.7,23.6,23.63,16.4,14.2,17.2,17.35,17.5,16.9,20.2,19.3,19.85,,23.73,23.3,19,20.93,19.93,18.4,15.55,14.9,16.85,14.18,13.45,14.1,,18.8,20.5,24.7,25.1,26,26.8,31.2,31.2,,19.55,19.37,16.4,14.63,,13.4,13.25,14.1,14.4,18.8,20.11,16.09,17.42,16.55,17.4,14.93,15.37,19.22,22.35,21.2,22.75,,0.8,10.8,19.75,,30.57,17.65,14.58,14.7,15.2,12.73,8.43,11.54,,
113730077430001,Ammapet1,11.625,77.71666667,,,,,,,,,,,,,,,,,,,,5.8,,,,,6.12,8.33,7.13,5.14,5,6.79,4.32,0.1,5.27,8.5,,7.6,3.8,10.55,11.05,8.94,8.5,11.6,10.31,6.2,5.4,5.81,,3.46,4.75,6.42,7.09,5.11,5.44,9.26,5.16,5.05,4.7,4.84,6.25,4.95,,5.53,5.67,3.55,5.65,6.56,5.85,3.5,5.62,6.1,7.5,2.25,5,7.48,,6.6,7.2,9.6,,5.27,3.6,7.6,8.8,,4.97,4.75,6.72,5.1,,7.3,7.75,8.35,8.55,10.65,9.33,6.31,7.4,7.17,5.91,5.3,5.58,6.96,6.4,3.9,6.25,,5.55,5.1,4.86,,,4.9,5.3,5.6,,4.11,5.3,7.4,,
111000077420001,Arachchalur,11.16666667,77.7,,,,,,,,,,,,,,,,,,,,26.5,,,,,5.02,5.97,6.43,6.24,2.86,6.42,6.15,,,13.5,6.52,4.56,6.39,10.1,6.43,3.3,7.26,6.84,8.01,,4.96,5.5,,2.14,2.48,6.1,6.79,5.59,4.84,6.39,6.64,1.97,2.6,4.43,2.2,4.3,3.5,5.52,5.65,5.5,3.7,5.52,6.35,4.79,2.19,6.3,6.8,3.93,3.5,7.15,,,6.9,,,4.9,,6.6,8.85,,5.5,2.55,6.8,2.24,,6.85,7.05,7.05,,6.45,6.82,,6.63,,5.7,6.25,6.3,6.78,8.1,4.5,5.28,,2.65,4.7,3.94,,7.15,,,,,3.47,3.25,5.85,,
111400077431501,Avalpundurai,11.23333333,77.72083333,,,,,,,,,,,,,,,,,,,,1.96,,,,,,2.68,,3.29,3.28,2.25,4.08,,1.87,3.2,4.9,2.6,8.8,11.4,5.09,6.3,5.15,,,5.3,,4.61,,1,0.85,2.2,3.06,1.76,1.7,,2.9,1.45,0.7,,0.67,0.9,11.64,,1.6,0.47,0.9,1.9,1.8,1.47,1.55,1.83,5.05,2.2,4.6,4.7,,4.2,4.4,,,5.5,,6,5.5,,3.3,2.9,2.45,1.55,,3.25,3.35,3.5,3.45,6.15,6.1,5.24,4.85,4.92,5.65,5.18,5.28,4.65,5.3,1.55,1.6,,2.9,2.6,2.5,,2.48,1.6,2.9,1.9,2.15,1.47,1.35,,,
110930077353001,Chennimalai1,11.15833333,77.59166667,,,,,,,,,,,,,,,,,,,,29.8,,,,,6.16,6.64,7.18,7.08,6.9,9.7,10.41,,6.5,,2.85,5.2,8.61,9.3,10.48,9.28,9,10.13,9.04,7.5,6.8,6.13,,11.4,4.81,6.72,8.15,5.35,4.67,30.9,7.19,2.4,4.8,4.1,4.73,4,,5.71,6.3,6.65,7.25,6.6,10.6,6.1,4.14,5.18,7.1,4.51,3.15,5.57,,6.3,,,,6.8,,9.35,,,6.78,7.96,8.6,6.88,,,6.4,7.67,6.5,24.02,7.78,7.12,7.54,8.09,8.4,8.4,8.42,8.74,9.3,7.3,7.8,,7.8,8,,,18.5,,,,6.6,5.75,,,,
104400077320001,Dharapuram1,10.73333333,77.53333333,,,,,,,,,,,,,,,,,,,,2.1,,,,,2.4,,3.08,1.83,1.45,2.65,2.41,,,,5.47,2.9,3.41,5.65,6.48,8.44,4.3,6.02,5.92,1.45,2.5,3.13,,1.9,1.44,2.8,3.4,1.72,2.12,20.21,2.4,,1.4,2.6,1.87,1.1,1.46,2.06,1.95,1.65,1.78,4.1,4.8,,1.78,2.9,3.6,4.25,1.7,3.53,,2.8,6,,,2.85,3.7,5.1,5.05,,3.2,2.3,4.6,2.47,,3.25,3.84,4.4,4.38,8.5,9.87,3.15,2.6,3.46,2.6,1.9,2.01,3.8,5.15,2.88,4,,4.2,1.15,1.4,,2.45,11.65,0.88,2.05,2.27,1.28,1.4,2.25,,
112200077430001,Erode1,11.36666667,77.71666667,,,,,,,,,,,,,,,,,,,,10.2,,,,,12.27,10.98,23.86,8.09,7.9,,10.97,,9.07,10.72,,5.15,6.1,23.12,6.74,50.4,50.4,51,,,,,,,,,,,,,,,,,,,,,,,,,,,,,,,,,,,,,,,,,,,,,,,,,,,,,,,,,,,5.77,4.53,5.35,3.62,4.55,,4.65,4.16,4.95,,,,,,,,4.15,,,
112000077245001,Getticheviyur,11.33333333,77.41388889,,,,,,,,,,,,,,,,,,,,10.5,,,,,,14.76,,8.98,8.24,10.36,12.22,,9.1,19.5,28.4,13.39,7.08,17.5,8.4,12.3,11.2,,10.5,7.3,7.4,16.39,,6.7,2,3.48,5.62,3.72,2.7,7.1,8.8,8.9,5,,,13.4,,,17.95,10.9,15.1,,,,,,12.6,,,13.85,,,,,,20.3,20.5,36.6,38.7,,9.68,14.25,15.5,8.2,,11.55,26.6,20.7,25.46,27.3,26.89,20.8,25.12,18.44,8.9,5.57,7.65,11.74,8.65,9.1,16.86,,8.7,,,,8.9,,,,,,,6.05,,
112700077270001,Gobichettipalayam,11.45,77.45,,,,,,,,,,,,,,,,,,,,3.67,,,,,8.91,9.43,9.58,6.48,6.53,8.85,9.45,,,,,11.1,9.4,,10.54,10.08,10.04,10.72,10.89,6.15,8.58,,,4.75,6.2,6.48,8.19,,,,,1.3,,,,,,,,,,,,,,,,,,,,,,,,8.5,9.1,4.78,10.85,,4.86,7.66,,,,,,12.5,11.8,10.5,12.7,9.3,11.14,9.05,6.85,7.3,8.17,,,,,,7.05,,,,17,,7,7.56,7.5,5.25,6.4,6.85,,
113830077410001,Guruvareddiyur,11.64166667,77.68333333,,,,,,,,,,,,,,,,,,,,9.85,,,,,8.3,16.81,,12.02,12.62,5.9,16.52,,13.3,17.65,17.3,16.63,16.9,17.32,,16.2,18.2,33.5,13.4,12.1,,16.61,,,5.35,29.76,16.57,14.25,13.25,17.02,17.15,10.73,12.5,,8.8,12.3,,8.95,,,,17.14,15.35,12.95,12.7,13.5,15.4,14.5,13.05,5.5,,16.4,16.8,,,17.29,17.35,33.5,,,2.6,10.7,23.6,11.3,,14.75,15.65,17.45,17.75,,,0.01,15.9,16.06,14.02,14.4,16.25,17.5,17.5,7.2,17.9,,13.1,10.9,12.75,,17.5,8.85,14.2,5.58,8.4,3.17,5.17,11.9,,
112600077333001,Kavundappadi,11.43333333,77.55833333,,,,,,,,,,,,,,,,,,,,3.8,,,,,4.47,7,9.24,5.32,4.93,6.98,9.2,,,7.51,10.7,16,10.4,14.85,14.91,12.46,14.65,20.47,18.94,8,7.4,4.14,,3.1,1.65,3.45,6.1,2.5,2.45,4.2,2.9,2,2.5,3.18,3.3,1.8,1.83,2.53,6.55,2.8,3.35,5.1,5.45,1.79,2.3,4.2,7.8,2.55,4.2,8.16,,6.65,7.1,,,8.2,8.3,11.75,18.5,,3.35,4.95,9.12,7,,7.95,7.7,11.5,,19.42,18.03,,,,6.85,6.3,7.17,,,,,,7.5,6.55,,,8.15,1.75,2,2.95,4.9,2.03,3.91,,,
110700077480001,Kodumudi,11.11666667,77.8,,,,,,,,,,,,,,,,,,,,1.8,,,,,2.1,,,2.99,,2.22,3.02,,1.52,,10.4,3.1,4.8,6.5,18.08,1.85,7.96,,,2.3,,,,,1.28,,,,,,,,,,,,,,,,,,,,,7.2,4.7,7.3,,,,,8.5,,,,,,,3.23,3.45,5,3.5,3.65,,,,,,,,,,,,,3.25,4.25,3.6,3.08,3.25,,3.5,3.2,4.1,,,,,,3.3,3.27,3.7,4.3,,
112730077080001,Kottamangalam,11.45833333,77.13333333,,,,,,,,,,,,,,,,,,,,7.9,,,,,9.02,9.9,,8.04,,9.4,,,11.37,13.86,14.48,,13.4,17.94,17.33,13.46,14.3,15.01,16.6,11.75,11.7,13.51,,1.8,8.49,11.85,14.34,11.96,11,13.14,13.4,10.3,7.9,10.2,7.77,7.7,8.6,9.75,11.5,11.4,9.8,13.02,13.35,9.1,,7.8,10.3,7.25,7.8,9.8,,7.5,9.5,,,9.45,10.9,14,7.45,,6.25,9.55,8.6,8,,10.55,10,10.35,12.88,16.45,16.51,12.18,14.42,12.44,14.75,6.84,8.71,10,9.65,6.2,4.65,,9.5,1.2,7.82,,9.64,4.89,4.76,7.56,9.31,3.71,5.54,2.66,,
110300077450001,Muttur,11.05,77.75,,,,,,,,,,,,,,,,,,,,4.4,,,,,3.14,,4.8,4.92,2.33,2.15,3,,,,17.87,4.65,4.87,6.9,8.19,11.55,7.96,10.25,9.88,7.08,5.55,5.5,,6.1,2.7,3.4,4.57,3.65,13.54,26.69,4.67,3.4,3.3,,2.3,1.4,2.08,2.36,,4.2,3.65,4.2,5.29,2.44,1.9,3.15,4.4,7.2,4.8,5.82,,,7,,,6.48,,5.05,5.65,,7.05,3.8,3.3,2.8,,4.15,5.42,7.15,7.15,12.46,11.63,5.21,3.92,4.82,5.71,5.08,4.69,5.04,6.7,5.47,6.1,,5.65,3.55,3.4,,3.04,3.29,2.54,3.69,4.14,2.61,2.1,2.9,,
112000077323001,Nallampatti,11.33333333,77.54166667,,,,,,,,,,,,,,,,,,,,9.85,,,,,2.92,3.99,,1.55,1.4,4.5,4.8,,,,,,,,11.02,,,,,,,,,,,,,,,,,,,,,,,,,,,,,,,,,,,,,,,,,,5.9,,,,,,,,,,,,,,,,,,,,5.94,9.45,11,5.85,6.85,,5.5,,6.75,,,,,,6.6,5.14,6,8.8,,
105730077410001,Olapalayam,10.95833333,77.68333333,,,,,,,,,,,,,,,,,,,,11.1,,,,,8.42,,,6.23,5.98,6.96,8.18,9.2,,11.3,18.4,,15.33,6.8,18.19,0.6,,,,,,,,,3.52,,,6.26,7.3,,10.5,10.1,9.17,8.93,12.97,12.95,8.46,,13.05,,10.04,,16.85,,6.67,8.75,8.2,7.35,8.3,17.55,,,,,,,,,,,,,,,,,,,,,,,,,,,15,21.38,,10.91,15.4,,29.78,26.75,11.3,,,,,,,8.09,10.6,2.4,,
112100077100001,Pungaipuliampatti,11.35,77.16666667,,,,,,,,,,,,,,,,,,,,6.4,,,,,12.15,13.35,14.4,13.5,,14.76,15.85,,13.27,16.65,17.5,,17.08,20.2,20.28,15.62,18.45,,,19.57,18.69,1.72,,11.4,5.89,5.52,13.04,14.36,11.13,14.47,15.93,13.06,9.9,7.17,6.52,5.35,6.45,10.72,8.5,11.6,9.3,13.8,15.35,10.25,,8.94,11.45,8,7.1,,,,9.1,,,10.86,8.19,,16.5,,6.83,10.34,10.8,8.4,,12.6,12.6,14.9,13.1,21.17,20.7,18.6,21.02,11.12,5.29,11.13,12.16,16.85,17.59,12.3,5.4,,17.9,16.3,14.97,,12.62,3,8.1,10.3,10.25,6.7,7.1,10.4,,
110830077510001,Punjaikolanalli,11.14166667,77.85,,,,,,,,,,,,,,,,,,,,1.2,,,,,1.53,,,0.87,,1.35,0.66,,,,,,,,3.78,4.25,,,2.48,0.85,1.08,1.72,,5.4,1.22,1.6,,0.67,,14.46,,,,,,,,,,,,,,,,,,,,10.4,,,,,,,,,,,,,,,,,,,,,,,,,,,,,,,,,,,,,,,,,,,,1.45,,
112905077413001,Urachikottai,11.48472222,77.69166667,,,,,,,,,,,,,,,,,,,,5.7,,,,,3.55,5.43,,1.93,0.86,3.91,5.57,,,3.9,7.31,5.64,6.1,,7.67,4.58,6.7,6.55,6.66,5.21,5.07,3.5,,0.1,,10.95,4.01,2.02,1.65,4.46,1.92,2.7,1.6,2.2,2.68,,2.39,3.8,4.7,4.7,3.95,5.42,6.01,2.09,1.61,2.5,3,0.35,1.5,4.94,,5.5,7.7,,8.8,6,7.6,8.08,8.7,,3.57,4.9,7,5.81,,6.9,5.15,6.95,7.67,,8.82,2.09,4.14,5,5.68,4.8,4.87,10.32,8.25,2.2,4.3,,1.75,1.75,2.08,,6.24,2.57,2.34,3.97,5.14,1.15,1.55,5.6,,
103930077294501,Alangiyam,10.65833333,77.49583333,,,,,,,,,,,,,,,,,,,,,6.4,,,,5.88,,,5.7,4.57,11.45,11.05,,5.75,9.75,5,4.55,6.1,10.7,14.21,13.2,7.95,12.49,10.89,4.2,5.27,6.8,,5.06,3.34,6.04,7.26,4.48,3.3,10.3,7.37,3.9,1.6,6.59,8.37,4,4.77,7.4,7.07,5,4.35,8.7,10.05,,3.61,7.05,16.4,7.6,3.2,12.03,,6.45,8.2,,,4.62,5.85,38.19,34.35,,4.51,7.8,,4.72,,17.2,31.12,,36.28,48.7,47.96,30.8,5.9,5.75,5.75,4.2,4.5,8.55,39.68,5.98,5.5,,11.1,9.2,4.15,,,3.8,,6.05,6.75,4.72,,6.95,,
105930077333001,Kangayam1,10.99166667,77.55833333,,,,,,,,,,,,,,,,,,,,,9.82,,,,7.48,3.17,7.6,7.28,,7.5,8.15,,,,,3.65,7,3.49,8.72,15.7,6.4,10.99,9.59,7.6,5.24,6.36,,4.68,2.77,4.2,4.03,3.84,3.47,5.1,5.54,5.54,3.26,3.62,4.77,3.96,4.45,5.14,6.12,5.89,4.7,6.2,7.37,5.2,3.26,4.9,6.85,9.6,4.5,6.41,,,,5.6,,6.8,7.22,9.72,9.4,5.11,5.05,6.6,6.3,5.9,,6.35,6.75,5.4,5.67,10.76,8.16,3.82,4.32,4.46,8.03,3,4.18,7.27,8.35,6.46,6.85,,14.65,12.15,3.6,,5.55,,5.9,6.55,8.03,4.2,3.33,4.8,,
112900077285001,Kugalur,11.48333333,77.48055556,,,,,,,,,,,,,,,,,,,,,2.8,,,,12.65,13.1,,11.72,6.18,9.32,11.52,,3.3,,,1.02,1.4,1.97,,0.6,5.9,,6,22.15,15.5,7.15,,0.6,3.41,,1.36,10.4,0.9,2.7,,0.55,,,,,,,,,,,,,,,,,,,,,,,,,,,,,,,,,,,,,,,,,,,,,,,,,,,31.3,,,,,,,,,,3.7,,,
104750077432001,Mulanur1,10.79722222,77.72222222,,,,,,,,,,,,,,,,,,,,,7.4,,,,6.68,,10.7,11.85,8.56,11.22,13.26,,8.17,13.9,17.87,6.38,6,18.7,10.22,8.3,13.25,20.38,26.42,,11.22,15.2,,10.34,4.47,5.69,6.91,6.44,6.59,11.08,20.39,17.79,4.93,2.13,,,,,3.8,,4.95,8.9,8.34,3.66,3.4,4.7,5.1,5.2,4.1,6.3,,5.8,7.9,17.69,,10.5,11.4,9.5,17.25,,6.7,3.8,5.5,5.47,,9.25,9.87,11.15,14.02,36.25,26.95,8.15,7.94,8.48,12.15,9.24,14.4,19.23,21.15,17.42,16,,16.8,8.9,8.73,,7.84,,,7.84,8.84,6.04,5.2,4.9,,
112950077141001,Sathyamangalam1,11.49722222,77.23611111,,,,,,,,,,,,,,,,,,,,,9.2,,,,8.27,11.3,10.25,7.52,8,,,,10.24,13.86,13.71,,13.4,14.31,13.45,10.02,11.82,14.7,14.29,10.9,21.3,11.13,,5.7,6.76,6.92,11.06,6.04,7.7,3.9,13.9,8.9,8.5,9.93,8.1,7.7,8.47,10.07,10.55,8.52,9.1,11.8,11.1,4.9,6.53,9.95,10.7,7.95,5.1,9.15,,8.3,10.1,,,14.5,11.2,12.9,10.4,,7,10.04,,8.87,,11.9,9.7,10.85,13.5,15.54,16.07,10.24,14.44,11.5,7.51,6.2,8.82,10.9,10.85,6.05,13.2,,9.7,,,,,,,10.05,8.9,5.8,7.2,9.5,,
103830077435501,Nilangelvalasu,10.64166667,77.73194444,,,,,,,,,,,,,,,,,,,,,,25,,,,,,,,,,,,,,,,,,,,,,,,,,,,,,,,,,,,,,,,,,,,,,,,,,,,,,6.2,7.1,,,,,,,,14.1,,,,,,,,,,,,,,,,6.52,6.7,6.7,6.28,6.25,,6.25,5.65,5.5,,,,,,7.3,,4.35,6.6,,
111725077195001,Malaiyapalayam,11.29027778,77.33055556,,,,,,,,,,,,,,,,,,,,,,,,29.2,24.5,26.86,,29.2,35.73,,15.81,,,,,,,,,,,,,,,,,,,,,,,,,,,,,,,,,,,,,,,,,,,,,,,,,,,,,,,,,,,,,,,,,,,,,,11.66,20.13,48.9,40,39.25,,46.75,46.15,46.06,,,,,4.9,5.8,2.64,1.8,4.1,,
113740077361601,Alampalayam,11.62777778,77.60444444,,,,,,,,,,,,,,,,,,,,,,,,,,,,,,,,,,,,,,,,,,,,,,,,,,,,,,,,,,,,,,,,,,,,,,,,,,35.8,,,,,,,,,,,,,,,,,,,,,,,,,,,,,,,,,,,,,,,,,,,3.46,,,
112703077212901,Alukul,11.45083333,77.35805556,,,,,,,,,,,,,,,,,,,,,,,,,,,,,,,,,,,,,,,,,,,,,,,,,,,,,,,,,,,,,,,,,,,,,,,,,,7.09,,,,,,,,,,,,,,,,,,,,,,,,,,,,,,,,,,,,,,,,,,,5.3,,,
114027077074601,Asanur1,11.67416667,77.12944444,,,,,,,,,,,,,,,,,,,,,,,,,,,,,,,,,,,,,,,,,,,,,,,,,,,,,,,,,,,,,,,,,,,,,,,,,,15,,,,,,,,,,,,,,,,,,,,,,,,,,,,,,,,,,,,,,,,,,,14.3,,,
110823077361901,Basuvapatti,11.13972222,77.60527778,,,,,,,,,,,,,,,,,,,,,,,,,,,,,,,,,,,,,,,,,,,,,,,,,,,,,,,,,,,,,,,,,,,,,,,,,,5.97,,,,,,,,,,,,,,,,,,,,,,,,,,,,,,,,,,,,,,,,,,,4.12,,,
113151077174401,Kambanaickanpalayam,11.53083333,77.29555556,,,,,,,,,,,,,,,,,,,,,,,,,,,,,,,,,,,,,,,,,,,,,,,,,,,,,,,,,,,,,,,,,,,,,,,,,,4.53,,,,,,,,,,,,,,,,,,,,,,,,,,,,,,,,,,,,,,,,,,,9.37,10.75,,
112543077142201,Kethampalayam,11.42861111,77.23944444,,,,,,,,,,,,,,,,,,,,,,,,,,,,,,,,,,,,,,,,,,,,,,,,,,,,,,,,,,,,,,,,,,,,,,,,,,5.1,,,,,,,,,,,,,,,,,,,,,,,,,,,1.58,2.06,10.45,1.3,1.85,,0.85,0.95,1.85,,,,,,,,1.68,2.55,,
110458077530801,Kodumudi1,11.08277778,77.88555556,,,,,,,,,,,,,,,,,,,,,,,,,,,,,,,,,,,,,,,,,,,,,,,,,,,,,,,,,,,,,,,,,,,,,,,,,,5.1,,,,,,,,,,,,,,,,,,,,,,,,,,,,,,,,,,,,,,,,,,,4.17,4.7,,
112217077210801,Kosanam,11.37138889,77.35222222,,,,,,,,,,,,,,,,,,,,,,,,,,,,,,,,,,,,,,,,,,,,,,,,,,,,,,,,,,,,,,,,,,,,,,,,,,12.2,,,,,,,,,,,,,,,,,,,,,,,,,,,,,,,,,,,,,,,,,,,2.12,3.65,,
113426077413801,Kuruchi,11.57388889,77.69388889,,,,,,,,,,,,,,,,,,,,,,,,,,,,,,,,,,,,,,,,,,,,,,,,,,,,,,,,,,,,,,,,,,,,,,,,,,6.55,,,,,,,,,,,,,,,,,,,,,,,,,,,,,,,,,,,,,,,,,,,3.07,4.79,,
110355077292801,Padiyur1,11.06527778,77.49111111,,,,,,,,,,,,,,,,,,,,,,,,,,,,,,,,,,,,,,,,,,,,,,,,,,,,,,,,,,,,,,,,,,,,,,,,,,9.9,,,,,,,,,,,,,,,,,,,,,,,,,,,,,,,,,,,,,,,,,,,7.75,8.52,,
112359077310301,Pandiyampalayam,11.39972222,77.5175,,,,,,,,,,,,,,,,,,,,,,,,,,,,,,,,,,,,,,,,,,,,,,,,,,,,,,,,,,,,,,,,,,,,,,,,,,13.5,,,,,,,,,,,,,,,,,,,,,,,,,,,,,,,,,,,,,,,,,,,8.9,,,
112550077375101,Periyapuliyur,11.43055556,77.63083333,,,,,,,,,,,,,,,,,,,,,,,,,,,,,,,,,,,,,,,,,,,,,,,,,,,,,,,,,,,,,,,,,,,,,,,,,,2.41,,,,,,,,,,,,,,,,,,,,,,,,,,,,,,,,,,,,,,,,,,,1.2,,,
113026077365001,Punnam,11.50722222,77.61388889,,,,,,,,,,,,,,,,,,,,,,,,,,,,,,,,,,,,,,,,,,,,,,,,,,,,,,,,,,,,,,,,,,,,,,,,,,7.28,,,,,,,,,,,,,,,,,,,,,,,,,,,3.94,5.58,6.15,5.9,3.3,,2.7,4.35,2.2,,,,,,,1.37,1.94,5.2,,
113149077082701,RajanNagar,11.53027778,77.14083333,,,,,,,,,,,,,,,,,,,,,,,,,,,,,,,,,,,,,,,,,,,,,,,,,,,,,,,,,,,,,,,,,,,,,,,,,,12.38,,,,,,,,,,,,,,,,,,,,,,,,,,,,,,,,,,,,,,,,,,,7.3,7.7,,
112922077092401,Velliyampalayampudur,11.48944444,77.15666667,,,,,,,,,,,,,,,,,,,,,,,,,,,,,,,,,,,,,,,,,,,,,,,,,,,,,,,,,,,,,,,,,,,,,,,,,,7.9,,,,,,,,,,,,,,,,,,,,,,,,,,,,,,,,,,,,,,,,,,,7.1,18.28,,
112558077120801,Vinnampalli,11.43277778,77.20222222,,,,,,,,,,,,,,,,,,,,,,,,,,,,,,,,,,,,,,,,,,,,,,,,,,,,,,,,,,,,,,,,,,,,,,,,,,50,,,,,,,,,,,,,,,,,,,,,,,,,,,,,,,,,,,,,,,,,,,22.6,50,,
104420077314502,Dharapuram2,10.73888889,77.52916667,,,,,,,,,,,,,,,,,,,,,,,,,,,,,,,,,,,,,,,,,,,,,,,,,,,,,,,,,,,,,,,,,,,,,,,,,,,,4.05,4.05,6.95,7.25,,,,,,,,4.3,,,,,,,,,,,,,,2.95,5.83,5.65,5.28,3.85,,3.85,2.45,2.4,,,,,,,,2.55,3.2,,
