station_id,station_name,latitude,longitude,1994_season1,1994_season2,1994_season3,1994_season4,1995_season1,1995_season2,1995_season3,1995_season4,1996_season1,1996_season2,1996_season3,1996_season4,1997_season1,1997_season2,1997_season3,1997_season4,1998_season1,1998_season2,1998_season3,1998_season4,1999_season1,1999_season2,1999_season3,1999_season4,2000_season1,2000_season2,2000_season3,2000_season4,2001_season1,2001_season2,2001_season3,2001_season4,2002_season1,2002_season2,2002_season3,2002_season4,2003_season1,2003_season2,2003_season3,2003_season4,2004_season1,2004_season2,2004_season3,2004_season4,2005_season1,2005_season2,2005_season3,2005_season4,2006_season1,2006_season2,2006_season3,2006_season4,2007_season1,2007_season2,2007_season3,2007_season4,2008_season1,2008_season2,2008_season3,2008_season4,2009_season1,2009_season2,2009_season3,2009_season4,2010_season1,2010_season2,2010_season3,2010_season4,2011_season1,2011_season2,2011_season3,2011_season4,2012_season1,2012_season2,2012_season3,2012_season4,2013_season1,2013_season2,2013_season3,2013_season4,2014_season1,2014_season2,2014_season3,2014_season4,2015_season1,2015_season2,2015_season3,2015_season4,2016_season1,2016_season2,2016_season3,2016_season4,2017_season1,2017_season2,2017_season3,2017_season4,2018_season1,2018_season2,2018_season3,2018_season4,2019_season1,2019_season2,2019_season3,2019_season4,2020_season1,2020_season2,2020_season3,2020_season4,2021_season1,2021_season2,2021_season3,2021_season4,2022_season1,2022_season2,2022_season3,2022_season4,2023_season1,2023_season2,2023_season3,2023_season4
214735069481001,Hanumangadh1,21.79305556,69.80277778,,,,,,,,,18.32,28.55,10.86,14.9,16.32,17.25,24.6,11.29,17.71,34.7,,,11.1,14.72,34.7,25.24,,,13.7,15,18.18,,10.23,9.69,,,29.45,,,,11.2,11.93,24.5,25.7,,17.36,,,,,22.3,34.2,5.87,7.16,10.65,34.2,4.05,4.46,5.18,10.23,8.57,,10.71,20.25,5.3,8.63,14,15.86,4.18,6.2,8.25,15.25,8.4,7.4,9.22,16.9,,34.2,33.3,34.2,8.9,6.25,11.7,18.95,,2,12.6,11.06,33.6,34.2,,34.2,33.06,11.47,27.4,34.2,23.05,,,34.2,13.05,,18.92,34.2,12.23,10.5,,,1.38,1.57,3.22,,8.88,2.8,3.4,8.86,2.5,3.19,,8.5,,
212702069590001,Kadegi,21.45055556,69.98333333,,,,,,,,,3.2,4.02,0.57,2.54,3.21,4.04,2.24,1.3,2.46,4.05,1.64,6.09,2.45,2.95,5.46,3.08,4.44,4.38,0.02,2.3,5.04,4.16,,2.32,2.8,3.79,5.44,3.34,3.59,3.84,,1.54,2.54,3.52,,,,,,0.84,1.26,2.09,,1.17,1.41,1.84,0.22,0.31,1.03,2.27,0.05,0.45,0.97,1.94,0.13,1.14,1.64,2.46,0.01,0.14,0.88,1.81,,0.44,2.44,3.29,,,2.39,2.84,0.06,0.74,0.54,1.84,,,3.43,9.74,2.21,0.97,,2.74,0.74,0.27,1.45,5.39,,0.59,1.64,,0.55,,0.94,3.47,,0.52,0.97,,0.02,0.06,0.9,,0.41,1.84,,1.84,0.06,,,2.04,,
214830069360501,Khambodar,21.80833333,69.60138889,,,,,,,,,7.3,10.76,6.11,10.95,15,,6.3,2.64,4.88,15.16,1.97,2.12,8.05,9.8,5.73,3.59,9.43,12.35,8.13,9.25,11.85,15.67,1.82,4.22,,9.5,9.9,12.8,13.4,14.1,1.8,,,,,10.3,,,,,14.28,16.4,1.43,2.36,4.76,7,1.14,1.92,3.93,16.8,2.5,3.13,2.78,16.8,1.31,1.87,5.2,15.76,0.28,0.84,1.38,5.47,1.2,1.78,2.11,6.15,,12,15.1,16.8,1.9,1.13,3,8.8,1.09,3.17,6.5,4.16,6.1,12.88,,12.9,11.03,,7.92,14.1,1.6,2.11,4.2,11.53,3.99,,11.62,14.49,7.19,1.54,2.54,,2.01,2.7,1.6,,0.92,2.3,1.22,4.72,0.93,1.35,,14.1,,
214100069330001,Kuchhadi,21.68333333,69.55,,,,,,,,,2.3,2.89,2.72,2.75,2.85,2.9,2.38,2.19,2.57,3.05,1.75,4.2,2.4,3.05,2.68,2.37,2.73,,1.7,2.2,3.55,4.65,1.83,2.52,,2.8,2.85,2.9,2.9,3.15,2.07,2.49,2.59,2.69,,2.65,,,,,2.74,7.81,1.35,2.18,2.5,3.7,1.26,1.64,2.33,2.78,1.65,2.35,2.55,2.9,1.64,2.23,2.74,2.85,1.25,1.83,2.27,2.87,1.97,1.8,2.46,2.85,,3.04,2.85,2.86,1.6,1.62,2.3,2.7,1.71,2.75,2.7,8.9,2.42,2.95,,2.85,2.75,2.5,2.7,5.75,1.75,2.23,2.55,2.87,2.19,,2.81,2.93,1.55,1.63,4.43,,1.2,2.15,2.35,,1.55,1.8,2.28,2.6,1.17,2.01,,2.9,,
215000069232001,Miyani,21.83333333,69.38888889,,,,,,,,,8,8.33,7.32,7.6,,8.5,7.15,7.85,8.02,8.38,6.48,8.83,6.98,9.33,7.28,7.29,,,7.93,8,7.49,7.45,6.95,1.15,7.15,8.4,6.95,7.25,7.82,,6.04,7.81,7.75,,,,,,,,7.28,,7.35,7.33,7.55,8.27,4.04,7.65,6.26,7.34,6.82,7.55,7.6,,6.35,7.43,7.7,7.75,5.96,6.77,7.13,7.5,6.65,6.95,7.37,7.65,,7.35,7.55,7.55,2.45,6.7,7.35,7.4,6.64,4.85,7.38,7.05,7.78,7.67,,7.45,6.25,7.12,7.33,8.45,,7.45,7.25,6.83,7.08,,7.54,7.65,2.39,1.66,,,5.86,5.65,7.85,,6.15,6.3,7.32,8.05,6.75,7.56,,7.75,,
212645069473001,Navibandar,21.44583333,69.79166667,,,,,,,,,4.5,4.45,3.11,4.45,4.55,4.64,7.61,4.38,4.4,4.82,4.18,4.43,4.7,4.78,3.96,4.32,,,4.2,4.48,5.88,4.2,4.18,4.58,3.37,4.38,4.18,4.88,4.93,,3.27,4.79,4.68,4.41,,4.33,,,,4.63,4.61,4.43,4.33,4.4,4.5,4.18,1.28,4.4,4.67,4.06,4.48,4.58,4.48,4.52,4.54,4.34,4.63,4.42,4.07,4.16,4.45,4.68,3.83,4.38,4.71,4.33,,4.43,4.68,4.88,4.58,3.38,4.97,4.97,4.02,4.58,4.52,21.12,4.4,4.32,,7.36,4.01,3.88,4.13,6.48,3.18,3.68,4.48,4.42,3.23,,4.01,7.98,0.68,2.02,2.35,,1.52,3.48,2.37,,1.1,2.22,1.31,2.2,1.63,3.38,,2.33,,
213400069405001,Oddar,21.56666667,69.68055556,,,,,,,,,6.1,6.36,6.08,3.92,6.25,6.33,6.22,5.81,9.37,7.15,5.63,5.77,6.1,6.11,6.16,6.29,6.35,6.3,6.08,6.7,8.85,6.24,5.87,6.09,6.2,6.4,6.15,7.15,6.15,7,5.55,5.94,6.08,6.29,,8.45,,,,5.88,5.95,6.26,5.63,5.7,6.03,6.25,4.99,5.57,7.56,6.4,4.82,5.8,6.05,6.33,5.72,5.75,6.11,6.25,5.38,5.49,5.76,6.1,4.4,5.75,5.78,9.4,,6.5,6.45,6.5,5.6,5.52,6.05,6.2,5.01,5.75,5.88,10.91,5.85,5.74,,6.2,5.19,6.31,6.55,9.15,3,6.75,6.45,6.11,5.64,,1.85,6.33,0.33,6.07,6.56,,4.7,5.55,5.58,,5.7,1.15,5.8,5.86,5.54,5.6,,6.15,,
211750069563001,Pata,21.29722222,69.94166667,,,,,,,,,5.7,5.8,6.98,5.13,5.65,5.66,5.07,5.1,5.64,6.08,4.18,4.47,4.5,6.6,6.1,5.94,5.9,5.88,2.77,5.7,7.35,5.61,4.15,5.59,4.88,9.08,5.3,,6.11,5.9,3.65,4.81,5.53,5.6,,5,,,,4.37,5.1,5.44,3.28,4.69,5.42,5.25,2.64,3.95,5,5.85,3.09,3.61,4.9,5.2,2.95,4.8,4.2,6,2.39,3.58,4.22,5.44,2.7,3.85,4.98,5.65,,5.18,5.6,5.77,3.4,3.95,5.3,5.55,2.01,3.05,5.35,5.31,4.96,4.73,,5.85,4.01,5,5.1,7.5,,4.96,5.7,2.68,3.7,,5.14,5.75,2.3,3,3.6,,2.01,4.7,3.75,,2.1,4.3,,,2.47,3.43,,4.25,,
213852069530001,Kandorna,21.64777778,69.88333333,,,,,,,,,,22.18,21.69,20.55,22.38,22.2,20.5,16.32,17.75,21.76,14.85,14.48,17.75,28.62,20.91,19.82,21.58,,17.87,20,21.38,,18.03,18.96,20.03,,20.28,22.48,,,16.36,17.55,32.02,28.48,,17.48,,,,,,27.2,12.12,12.77,14.31,18.49,9.52,7.46,10.54,14.31,12.38,11.32,13.52,22.58,6.72,11.98,12.63,17.63,2.82,2.09,5.39,10.65,4.48,6.18,7.92,12.4,,17.48,20.48,24.58,8.78,6.18,12.48,17.48,6.83,9.48,14.33,6.4,17.99,18.9,,25.28,16.66,16.78,17.77,29.68,13.78,15.58,18.88,22.8,16.58,,27.01,23.11,16.22,6.46,10.84,,1.59,3.68,6.36,,12.05,6.23,8.98,16.46,2.23,5.1,,12.78,,
213720069595001,Kutiyana_Pz,21.62222222,69.99722222,,,,,,,,,,,,,,,,,,13.83,3.81,1.3,6.5,11.65,13.06,20.49,,16.72,8.66,,,18.97,,,,19.47,,,,,,,,,,25.25,,,,,8.1,14.16,1.07,6.02,10.84,9.65,0.75,2.16,6.53,11.98,2.93,2.75,7.57,,1.1,4.59,11.69,12.47,0.53,1.55,3.65,,1.61,2.4,7.7,12.35,,12.37,15.05,18.85,0.7,1,,12.4,0.43,,12.84,18.46,6.78,10.3,,13.55,2.45,3.35,9.57,11.85,7.65,4.25,11.05,13.4,4.75,,14.58,16.64,3.07,1.87,5.9,,0.62,3.15,6.82,,1.77,2.25,4.85,11.65,,3.25,,11.55,,
214835069243001,Bhavpura,21.80972222,69.40833333,,,,,,,,,,,,,,,,,,,,,,,,,,,,,,,,,,,,,,,,,,,,,,,,,9.01,8.78,4.78,7.83,7.41,8.26,,,4.12,9.92,1.97,4.71,7.83,8.71,2.53,8.31,10.06,8.83,1.22,3.32,6.63,8.33,4.68,3.51,7.81,9.72,,12.16,14.01,12.41,10.41,4.66,7.91,9.66,,7.81,9.11,4,5.14,7.17,,12.81,5.75,11.4,9.51,11.01,4.65,,7.81,8.13,8.51,,7.71,7.74,4.64,3.15,4.1,,0.73,1.83,4.21,,,3.21,17.71,6.66,2.05,4.09,,,,
213842069383301,Porbandar,21.645,69.6425,,,,,,,,,,,,,,,,,,,,,,,,,,,,,,,,,,,,,,,,,,,,,,,,,3.3,5.7,0.64,1.99,3.57,4.6,0.57,1.44,,3.61,1.71,2.91,3.71,5.4,3.76,1.66,3.45,4.85,0.2,1.41,2.01,4.38,0.6,1.7,2.95,3.91,,3.7,5.4,6.3,0.8,1,2.78,5.61,,1.8,8.26,7.19,3.32,4.33,,8.18,1.7,3.66,4.4,7.5,4.4,2.9,3.6,5.12,1.2,,6.1,6.56,1.03,1.52,2.18,,0.73,2.2,2.76,,,1.45,2.07,4.34,1.5,1.89,,4.77,,
215500069360002,Adwana2,21.91666667,69.6,,,,,,,,,,,,,,,,,,,,,,,,,,,,,,,,,,,,,,,,,,,,,,,,,,,,,,,,,,,,,,,,,,,,,,,,,,,,14.53,14.07,14.15,12.15,3.2,12.25,13.3,4.27,8.55,10.95,10.79,16,14.16,14.65,14.65,13.2,10.44,11.5,19.49,7.7,,15.75,14.92,12.77,,14.52,14.57,12.55,6.94,8.32,,0.11,1.86,9.09,,8.28,5.1,9.48,12.11,4.7,8.89,,12.47,,
214530069291502,Palkhada1,21.75833333,69.4875,,,,,,,,,,,,,,,,,,,,,,,,,,,,,,,,,,,,,,,,,,,,,,,,,,,,,,,,,,,,,,,,,,,,,,,,,,,,13.38,15.83,17.3,4.53,3.3,7.38,11.78,3.94,6.38,11.83,11.1,13.92,12.48,16.78,16.48,11.22,9.31,13.11,11.98,2.17,4.56,8.48,11.83,9.78,,15.53,17.03,13.81,4.13,6.56,,1.14,1.93,5.93,,3.66,2.71,4.43,10.01,1.33,3.54,,9.63,,
214100069444503,Ranavav2,21.68333333,69.74583333,,,,,,,,,,,,,,,,,,,,,,,,,,,,,,,,,,,,,,,,,,,,,,,,,,,,,,,,,,,,,,,,,,,,,,,,,,,,11.5,19.85,24.1,3.2,1.55,4.02,8.3,0.5,2.7,3.9,12.3,9.24,9.5,25.7,32.43,6.13,13.6,22.8,26.47,7.8,10.52,14.7,25.31,13.4,,31.41,33.4,27.66,7.11,8.41,,0.35,4.3,4.1,,4.63,2.1,4.12,7.22,0.78,2.85,,8.2,,
214231069423901,Adityana,21.70861111,69.71083333,,,,,,,,,,,,,,,,,,,,,,,,,,,,,,,,,,,,,,,,,,,,,,,,,,,,,,,,,,,,,,,,,,,,,,,,,,,,,,26.85,8.35,5.85,,,6.01,6.75,8.77,15.04,11.85,14.45,24.75,26.05,14.48,20.5,14.18,29.6,17.9,12.82,12.15,22.37,17.55,,26.28,28.62,29.02,7.6,9.09,,2.62,6.25,5.82,,7.89,5.71,6.13,9.07,4.45,5.59,,9.3,,
214237069362001,Degam,21.71027778,69.60555556,,,,,,,,,,,,,,,,,,,,,,,,,,,,,,,,,,,,,,,,,,,,,,,,,,,,,,,,,,,,,,,,,,,,,,,,,,,,,,19.35,17.35,6.21,,15.55,12.02,11.6,13.43,14.39,18.98,19.35,19.35,19.35,17.69,,19.35,19.35,,,,19.35,,,14.82,18.98,9.52,11.05,10.91,,,5.95,7.51,,11.59,6.15,7.38,12.13,3.53,5.52,,12.45,,
214159069365101,Kolikhada,21.69972222,69.61416667,,,,,,,,,,,,,,,,,,,,,,,,,,,,,,,,,,,,,,,,,,,,,,,,,,,,,,,,,,,,,,,,,,,,,,,,,,,,,,28.68,,5.68,,26.98,10.27,11.68,20.18,11.28,25.88,27.43,28.68,29.78,21.71,24.72,28.98,31.08,19.04,26.03,27.88,33.02,27.83,,27.71,30.08,26.61,9.93,13.19,,3.6,5.91,7.88,,9.48,7.01,7.18,25.7,2.91,5.86,,26.01,,
215309069360101,Mojiwana,21.88583333,69.60027778,,,,,,,,,,,,,,,,,,,,,,,,,,,,,,,,,,,,,,,,,,,,,,,,,,,,,,,,,,,,,,,,,,,,,,,,,,,,,,20.05,4,1.35,5.98,9.4,2.67,4.2,13.65,8.09,13.1,13.9,23.65,16.82,12.72,6.25,9.67,18.65,2,3.65,9.05,10.78,9.05,,22.71,17.19,6.55,0.94,4.6,,0.29,0.75,3.53,,3.02,0.55,1.89,7.11,0.35,1.3,,7.55,,
214313069304301,Ratadi,21.72027778,69.51194444,,,,,,,,,,,,,,,,,,,,,,,,,,,,,,,,,,,,,,,,,,,,,,,,,,,,,,,,,,,,,,,,,,,,,,,,,,,,,,7.59,2.59,3.74,5.64,6.84,3.68,4.94,6.24,21.72,6.19,5.9,6.74,7.26,4.6,5.74,5.84,8.14,1.69,5.01,6.84,6.67,6.38,,8.44,7.59,4.2,3.9,6.67,,1.3,2.55,5.39,,2.95,3.97,5.57,6.92,2.04,0.7,,6.69,,
215649069410901,Simar,21.94694444,69.68583333,,,,,,,,,,,,,,,,,,,,,,,,,,,,,,,,,,,,,,,,,,,,,,,,,,,,,,,,,,,,,,,,,,,,,,,,,,,,,,27.4,16.15,1.72,16.15,16.15,5.28,6.4,18.21,3.55,21,,,17.03,,15.26,15.17,11.6,,3.95,8.9,,13.89,,14.71,14.78,3.46,4.54,4.77,,3.76,5.78,5.12,,6.05,1.1,5.17,8,7.39,7.65,,15.6,,
213058069434301,Tukda,21.51611111,69.72861111,,,,,,,,,,,,,,,,,,,,,,,,,,,,,,,,,,,,,,,,,,,,,,,,,,,,,,,,,,,,,,,,,,,,,,,,,,,,,,3.42,,2.06,2.75,3.03,1.48,2.28,2.71,10.35,2.15,2.48,2.78,3.08,2.28,2.93,3.08,5.98,2.03,2.68,2.88,3.14,2.25,,2.98,3.23,2.18,2.19,2.6,,1.48,2.53,2.53,,0.52,2.28,1.8,2.9,1.8,2.37,,3.06,,
214553069394001,Bakharla,21.76472222,69.66111111,,,,,,,,,,,,,,,,,,,,,,,,,,,,,,,,,,,,,,,,,,,,,,,,,,,,,,,,,,,,,,,,,,,,,,,,,,,,,,,3.01,3.05,8.21,16.11,3.85,6.41,17.81,4.16,12.63,23.63,23.69,27.11,19.25,15.44,23.81,27.01,5.86,7.29,15.01,20.76,16.79,,21.87,27.4,16.39,3.41,6.83,,1.56,3.28,5.91,,6.76,2.51,6.31,11.39,2.07,3.52,,11.23,,
214708069264701,Visavada Mul Dwarka,21.78555556,69.44638889,,,,,,,,,,,,,,,,,,,,,,,,,,,,,,,,,,,,,,,,,,,,,,,,,,,,,,,,,,,,,,,,,,,,,,,,,,,,,,,5.1,6.55,7.1,8.2,3.9,9.05,11.25,7.55,9.72,6.05,8.2,10.97,5.43,10.55,8.1,11.1,2.9,5.1,8.4,8.58,8,,10.68,10.83,12.31,6.02,6.83,,1.85,3.32,8.4,,3.27,4.4,5.71,9.42,1.85,7.15,,8.9,,
214612069351701,Babda,21.77,69.58805556,,,,,,,,,,,,,,,,,,,,,,,,,,,,,,,,,,,,,,,,,,,,,,,,,,,,,,,,,,,,,,,,,,,,,,,,,,,,,,,,1.18,7.1,11,1.52,3.25,9.38,9.65,9.57,11.82,16.1,21.9,10.06,6.83,8.02,16.2,2,3.14,8.2,12.6,5.47,,13.62,16.3,7.4,1.08,3.32,,1.18,2.5,3.9,,3,0.9,2.44,9.22,0.71,1.9,,9.6,,
213932069491601,Bhod,21.65888889,69.82111111,,,,,,,,,,,,,,,,,,,,,,,,,,,,,,,,,,,,,,,,,,,,,,,,,,,,,,,,,,,,,,,,,,,,,,,,,,,,,,,,3.69,10.44,20.44,6.38,9.74,12.54,7.6,16.63,24.84,28.57,,19.41,23.02,26.94,29.24,17.94,24.34,,29.24,23.63,,27.24,29.24,,10.75,12.81,,7.05,11.39,7.57,,7.84,10.39,7.45,18.04,5.12,7.14,,14.54,,
