station_id,station_name,latitude,longitude,1994_season1,1994_season2,1994_season3,1994_season4,1995_season1,1995_season2,1995_season3,1995_season4,1996_season1,1996_season2,1996_season3,1996_season4,1997_season1,1997_season2,1997_season3,1997_season4,1998_season1,1998_season2,1998_season3,1998_season4,1999_season1,1999_season2,1999_season3,1999_season4,2000_season1,2000_season2,2000_season3,2000_season4,2001_season1,2001_season2,2001_season3,2001_season4,2002_season1,2002_season2,2002_season3,2002_season4,2003_season1,2003_season2,2003_season3,2003_season4,2004_season1,2004_season2,2004_season3,2004_season4,2005_season1,2005_season2,2005_season3,2005_season4,2006_season1,2006_season2,2006_season3,2006_season4,2007_season1,2007_season2,2007_season3,2007_season4,2008_season1,2008_season2,2008_season3,2008_season4,2009_season1,2009_season2,2009_season3,2009_season4,2010_season1,2010_season2,2010_season3,2010_season4,2011_season1,2011_season2,2011_season3,2011_season4,2012_season1,2012_season2,2012_season3,2012_season4,2013_season1,2013_season2,2013_season3,2013_season4,2014_season1,2014_season2,2014_season3,2014_season4,2015_season1,2015_season2,2015_season3,2015_season4,2016_season1,2016_season2,2016_season3,2016_season4,2017_season1,2017_season2,2017_season3,2017_season4,2018_season1,2018_season2,2018_season3,2018_season4,2019_season1,2019_season2,2019_season3,2019_season4,2020_season1,2020_season2,2020_season3,2020_season4,2021_season1,2021_season2,2021_season3,2021_season4,2022_season1,2022_season2,2022_season3,2022_season4,2023_season1,2023_season2,2023_season3,2023_season4
135222077133801,Bidarakere1,13.87277778,77.22722222,,,,,,,,,8.6,9.15,8.5,2.64,3.91,5.59,5,5.28,5.22,6.7,7.76,2.72,4.38,5,6,3.04,3.55,5.42,5.13,1.83,3.2,4.81,,1.95,3.11,5.2,5.6,6.1,7.1,,9.15,,,9,8.9,9.4,9.23,10.27,,2.32,3,5.04,5.2,5.05,5.13,6.05,6.82,5.37,5.4,6.03,4.55,1.79,3.05,4.7,5.25,3.02,4.1,13.06,5.78,2.13,2.34,4.9,5.6,6.2,13.06,13.06,,7.96,7.27,8,8.05,6.32,7.36,8.36,7.3,6.5,8.4,7.2,7.15,2.4,,,2.35,2.8,3,3.3,3.6,2,2.95,3.95,2.2,3.2,5.1,7.15,8.36,2,3.8,,,2.1,2.8,,3.16,2.25,2.55,1.62,0.85,2.4,3.8,3.95,4.1,
131815076563001,Gubbi,13.30416667,76.94166667,,,,,,,,,10.9,10.45,8.43,7.5,8.25,10.93,,8.56,8.34,10.89,10.33,8.97,10.71,8.66,8.69,9.32,9.79,11.65,10.28,7.54,8.2,7.74,6.03,5.51,6.52,6.45,7.14,6.34,8.98,11.87,10.49,9.94,13.71,12.27,13.2,11.24,14.91,14.96,12.14,8.49,10.04,,7.14,9.44,,7.99,7.39,,,,4.61,3.34,4.75,4.84,3.99,3.24,6.14,5.96,4.37,1.25,1.84,6.39,,,,,,2.37,5.74,8.06,8.69,7.26,8.49,8.86,8.34,5.94,7.24,6.74,5.19,6.46,,5.16,4.19,5.49,4.4,10.44,9.36,4.2,6.74,9.49,9.34,8.14,10.39,14.28,17.14,6.24,9.56,,,4.48,5.27,,4.24,2.79,0.01,2.7,1.24,1.44,3.82,4.2,4.11,
134000077120001,Madhugiri,13.66666667,77.2,,,,,,,,,4.43,9.45,5.23,1.57,2.83,8.1,11.9,1.6,0.49,4.89,1.2,1.08,2.48,2.33,7.38,0.9,1.72,10.24,1.14,1.14,1.68,4.04,,1.35,1.88,5.64,3.77,1.8,3.05,10.24,10.38,8.27,9.17,10.33,10.14,7.1,5.19,10.2,,0.94,1.29,4.36,2.84,1.84,3.38,6.64,1.94,1.38,0.82,4.42,1.66,0.99,1.76,3.9,0.99,1.24,2.14,4.45,4.41,0.81,0.6,3.99,3.54,2.68,3.79,5.64,,4.06,1.74,6.54,10.17,0.9,1.66,3.46,4.04,3.89,2.54,4.3,5.24,0.86,,4.99,1.88,3.56,4.78,9.94,9.99,1.14,1.94,4.87,5.99,7.94,10.09,11.1,2.86,0.64,3,,,0.92,1.44,,0.69,0.89,1.29,0.89,4.17,1.04,2.99,4.38,4.8,
132800076290001,Mattighatta,13.46666667,76.48333333,,,,,,,,,4.9,7.87,5.05,5.43,8.5,15.06,14.15,4.06,3.11,7.07,3.24,2.39,4.18,3.11,5.8,2.14,2.95,7.12,3.3,1.47,2.29,4.66,4.04,2.27,3.36,6.2,5.92,1.96,6.9,8.8,9.34,4.55,7.01,4.33,3.53,2.59,4.67,5.63,3.05,1.35,,2.95,3.65,2.3,3.24,5.4,4.26,1.69,2.8,3.22,3.56,2.65,3.26,4.9,3,1.74,2.4,2.46,2.72,1.2,0.88,2.85,3.4,2.49,4.9,3.2,,3.74,4.5,5.69,5.65,4.25,5.82,7.86,7.75,2.1,4.3,3.7,4.94,2.15,,3.38,2.5,3.98,4.88,5.1,7.7,2.9,4.05,5.3,6.1,3.6,,7,5.83,,3.53,,,2.2,7.3,,3.2,0.95,2.15,1.82,1.5,1.65,3.35,3.15,3.52,
134945077121501,Midigeshi,13.82916667,77.20416667,,,,,,,,,3.85,5.5,3.38,2.2,2.67,5.75,5.77,0.32,1.1,1.55,1,1.13,3,3.62,4.53,1.17,1.83,4.62,1.02,0.25,1.59,3.01,8.34,1.27,2.34,3.85,7.45,7.98,8.41,,0.86,2.7,6.26,4.75,4.85,4.59,4.12,8.33,2.42,1.05,1.35,4.1,2.43,2.95,4.16,8,5.02,1.29,2.27,2.49,0.6,1.15,1.97,2.07,1.65,1.23,2.65,3.59,3.08,0.99,0.4,4.05,3.1,3.26,4.32,4.85,,0.95,2.11,3.92,4.03,3.56,2.35,3.33,3.42,1.3,2.45,1.33,2.99,1.29,,3.77,1.55,7.55,3.6,4.4,4.28,1.05,2.13,3.15,3.65,4.25,4.32,6,4.07,0.95,2.87,,,0.93,1.43,,1.8,0.75,1.75,0.91,0.7,1.1,3.45,3.65,4.15,
132830077143001,Nagenahalli,13.475,77.24166667,,,,,,,,,4.63,3.95,3.68,4.05,5.14,7.07,5.55,3.96,2.72,7.17,7.08,2.25,4.06,4.2,5.72,3.3,2.5,6.18,4.37,1.45,3.69,4.49,6.93,3.33,2.52,4.98,4.15,5.19,6.27,8.75,8.19,4.4,5.53,8.24,7.2,8.01,8.22,9.16,6.1,0.95,1.69,3.55,3.75,3.52,5.73,9.05,5.17,,2.9,5.96,2.48,1.54,2.68,7.05,8.79,4.88,3.75,9.15,5.63,9.15,9.15,6.65,3.35,9.15,3.9,3.15,,4.6,4.2,9.15,3.15,1.7,2.26,4.08,3.44,0.85,1.75,2.59,2.2,1.7,,4.13,1.25,2.2,3,3.75,4.35,1.15,2.3,3.2,2.45,2.95,4.25,7.57,4.32,2.7,3.2,,,1.49,2.15,,2.65,1.35,1.7,1.68,0.82,1.25,3.02,3.23,2.94,
133000077010001,Nelahal,13.5,77.01666667,,,,,,,,,14,,12.92,11.27,12.53,,,10.63,10.23,,11.36,9.3,12.24,12.82,,11.28,11.66,,12.97,9.47,11.62,,,11.38,11.94,,,,,,,,,,,,,,13.76,13.76,13.76,13.76,13.76,13.76,13.76,13.76,13.76,13.76,13.76,,13.76,13.76,13.76,13.76,13.76,,,13.76,13.76,13.76,13.76,13.76,13.76,13.76,13.76,13.76,,13.76,13.76,,,,,,,,,,,,,,,,,,,,,,,,,,,,,,,,,,,,,,,,14.7,,,
130930076333001,Nonavinakere,13.15833333,76.55833333,,,,,,,,,9.66,10.76,9.03,8.55,11.37,10.85,10,7.41,7.46,9.08,6.4,5.68,6.94,6.81,7.25,6.11,5.54,6.46,5.89,3.4,4.14,5.7,5.86,5.05,5.55,6.55,7.75,5.85,6.27,7.78,8.11,6.98,5.46,6.82,6.05,5.04,4.82,5.68,5.45,3.75,4.05,4.73,4.55,4.1,6.72,4.15,4.02,3.07,3.1,3.11,2.85,1.95,2.25,2.55,2.65,2.03,2.25,2.37,1.77,1.48,1.95,2.35,2.55,2.15,3,2.95,,1.17,4.35,6.03,5.82,3.33,4.45,4.66,3.63,2.25,2.75,3.63,2.97,2.05,,2.83,2.4,2.73,3.43,4.5,,3.05,3.9,4.15,3.75,3.25,4.3,5.87,3.97,2.19,3.84,,,1.88,2.1,,2.23,1.4,1.67,1.28,1.43,1.5,2.74,2.44,2.77,
140930077173001,Palavalli,14.15833333,77.29166667,,,,,,,,,4,4.5,6.93,2.1,1.44,3.3,4.85,3.84,4.25,5.44,6.03,1.95,2.32,1.86,5.04,2.12,2.77,5.81,5.32,1.22,1.58,4.67,5,0.88,0.89,3.02,3.75,4.53,6.82,6.42,6.53,6,1.6,6.22,5.21,5.92,6.64,6.88,3.32,1.27,1.87,4.07,5.79,6.47,6.54,7.88,8.53,7.53,7.49,7.02,1.45,1.07,1.52,3.68,4.7,3.74,2.72,4.92,5.19,2.23,1.49,4.42,5.47,5.95,7.39,7.12,,7.67,7.02,8.86,9.6,2.77,3.92,6.3,7.82,7.56,7.72,10.01,10.74,8.17,,8.47,7.82,7.57,8.82,10.52,10.82,5.47,7.37,8.27,9.62,8.77,8.97,10.5,9.94,6.92,9.65,,,6.17,6.57,,9.32,2.42,2.09,3.47,0.74,0.8,2.5,3.48,5.26,
141030077051501,Rangasamudra,14.175,77.0875,,,,,,,,,4.35,,2.28,2.07,9.16,,4.83,,0.47,,,0.78,3.73,2.13,3.23,0.88,1.94,2.08,0.3,1,1.52,,,0.54,1.64,2.89,2.39,1.39,2.61,,,,2.08,,,,,3.17,0.99,0.19,,2.75,2.19,2.37,2.3,2.74,1.68,0.29,1.22,0.75,0.14,0.27,1.14,2.09,,0.79,1.49,,0.21,,,1.29,1.39,1.58,2.77,1.99,,0.17,2.99,2.31,10.34,10.34,10.34,10.34,0.59,0.39,1.09,0.25,0.49,3.64,,2.19,0.19,1.09,4.61,1.39,0.74,0.09,0.74,6.89,2.59,3.19,,11.95,10.34,,2.1,,,,,,10.34,,10.34,,0.31,,,,,
131930077090001,Siddagangamatha,13.325,77.15,,,,,,,,,8.75,10,8.71,2.9,5.27,5.45,5,2.56,2.81,5.05,5.4,2.87,4.4,5.5,3.95,5.14,5.21,4.03,2.25,2.5,2.9,4.38,,,,3.56,3.79,4.85,5.05,5.81,,,3.41,6.22,5.35,5.31,6.21,8.26,8.35,6.57,5.05,7.56,6.95,6.85,3.62,8.3,8.06,3.07,4.09,6.68,6.91,2.79,3.94,5.35,6,,6.15,7.47,6.56,2.37,2.4,4.9,4.05,4.03,5.31,5.55,,6.21,6.45,6.93,5.81,3.56,4.17,4.33,6.6,2.07,2.5,3.61,4.1,3.6,,5.14,4.35,4.6,5.18,6.8,6.03,2.75,4.1,2.75,2.65,4.85,5.5,7,4.85,2.16,3.23,,,3.85,1.57,,2.68,1.33,0.59,2.75,,,4.19,3.7,4.89,
134500076540001,Sira,13.75,76.9,,,,,,,,,8.15,8.5,7.88,5.11,5.33,,9,5.76,2.37,7.61,7.55,3.42,3.75,3.95,5.45,4.24,4.64,5.12,3.5,2.15,2.28,4.9,5.38,3.35,3.41,5.4,6.4,5.35,,,,,,,,,,,9.9,3.7,3.9,5.65,5.75,5.05,5.87,9.3,5.64,4.85,4.4,4.92,4.8,2.49,3.18,2.4,,2.6,2.9,2.9,3.5,1.87,1.86,3.1,3.18,3.12,5.23,4.1,,4.04,3.4,5.5,4.5,,,,6.3,4.93,2.8,6.82,,4.55,,6.32,4.95,6,3.66,,,5.35,5.75,9.3,9.3,9.3,,9.3,,,,,,5.3,2.45,,9.3,2.19,9.3,5.33,3.05,3.35,5.1,6.1,5.78,
131500076293001,Tiptur,13.25,76.49166667,,,,,,,,,14.66,,14.67,2.8,4.97,,,7.22,6.49,6.78,4.15,2.13,4.01,12.13,3.52,,,,2.05,,1.52,,,,,,,,,,3.67,1.54,,3.7,3.49,2.92,2.99,9.78,2.05,0.57,1.22,0.92,1.22,1.12,6.65,7.32,7.45,5.59,5.87,5.74,4.57,1.27,4.82,5.92,5.03,4.47,4.72,5.65,6.07,3.29,3.24,3.82,4.72,4.6,3.46,5.62,,5.23,1.92,5.42,6.06,4.39,4.07,4.54,5.42,2.22,2.62,3.31,4.46,3.62,,6.22,6.22,5.57,7.04,12.12,12.32,,,,,,,13.09,12.32,6.5,13.09,,,,12.32,,12.32,,12.32,,3.54,2.44,,5.55,7.25,
133400077143001,Tumbadi,13.56666667,77.24166667,,,,,,,,,8.98,5.5,1.78,2.02,2.65,3.8,3.19,0.37,0.78,4.41,4.53,2.56,4.71,1.74,,0.82,1.96,1.58,0.3,1.45,1.22,3.3,2.21,,2.1,5.95,7.7,8.05,8.18,8.3,,,5.31,2.55,1.92,1.7,2.45,,1.17,0.45,1.12,1.65,1.66,1.4,5.05,5.05,2.89,0.54,0.8,0.71,0.6,0.8,5.05,5.05,1.6,0.9,1.5,,,,,1.6,0.7,0.98,2.55,1.7,,0.35,0.9,2.76,1.5,0.95,1.55,0.27,1.2,0.78,0.9,1.14,2,1.1,,1.85,1.1,1.47,3.54,1.8,1.5,1,1.35,1.3,0.01,0.3,1.9,2.45,1.6,3.5,,,,1.27,1.3,,1.05,1.1,1.03,0.55,0.2,0.85,1.78,1.65,1.94,
130940076400001,Turuvekere,13.16111111,76.66666667,,,,,,,,,8.43,8.84,5.02,4.9,6.5,10.18,10,1.99,3.4,6.6,2.2,1.15,3.17,10.67,7.15,7.7,7.96,11.9,6.45,7.65,5.53,7.99,8.23,5.22,6.2,5.5,6.27,3.07,5.51,7.92,7.66,6.28,6.4,6.07,4.97,2.65,2.84,4.41,3.47,1.47,3.07,5.62,5.47,4.37,3.56,4.47,4.46,0.79,2.59,4.48,3.85,1.25,2.37,5.17,1.85,0.42,0.72,3.42,1.64,1.17,1.54,1.17,3.57,0.26,3.38,4.77,,4.3,6.17,6.87,3.37,1.07,2.07,2.32,3.32,0.27,0.89,2.56,0.88,0.37,,2.77,1.74,2.34,3.47,11.67,11.87,3.97,5.22,1.57,3.17,1.77,5.22,9.35,5.55,0.54,3.08,,,0.67,2.67,,4.2,0.27,1.37,0.54,0.27,0.27,2.76,3.1,6.32,
134500077120001,Hosakere2,13.75,77.2,,,,,,,,,,11.1,12.71,8.43,9.99,,11.76,,,11.02,12.3,9.52,11.1,10.75,8.09,0.76,2.8,3.82,4.17,0.1,0.6,2.35,4.52,0.69,0.97,7.58,4.88,5.66,6.69,,4.06,,8.21,9.69,9.8,8.98,10.46,13.4,9.12,1.85,1.04,2.91,3.14,3.75,5.28,8.25,11.01,4.48,5.67,7.85,6.15,1.4,1.89,3.7,3.4,1.47,2.3,4.59,4.97,0.69,1.12,4.45,4.93,4.97,4.41,8.2,,10.7,7.75,11,10.13,8.76,10.38,10.46,9.81,8.2,9.18,9.06,8.84,,,,1.15,3.5,4.22,,7.23,0.05,2.4,3.53,6.2,6.7,7.64,10.3,8.66,0.82,7.9,,,0.42,1.17,,4.47,,0.53,0.35,,0.34,2.15,3.06,3.74,
133500076320001,Huliyar,13.58333333,76.53333333,,,,,,,,,,17.65,13.44,8.72,12.45,,19.25,11.86,10.9,14.92,11.8,4.58,7.19,5.19,12.05,,,,8.73,4.1,7.57,9.27,,,,10.39,10.97,9.67,9.07,11.96,,,14.91,,,,,18.2,15.72,11.02,8.31,12.03,12.42,9.38,8.98,11.62,14.31,7.97,9.33,10.88,10.02,4.88,7.72,10.67,8.65,5.02,6.27,7.95,6.49,1.64,2.39,6.67,7.47,5.67,7.27,8.37,,9.09,7.13,10.87,,6.47,,,,,,8.01,7.75,2.97,,,,,,14.27,16.17,6.27,14.12,8.72,8.82,4.62,,19.26,19.52,,4.7,,,4.37,5.57,,4.15,3.22,3.12,4.14,2.77,2.07,5.23,6.45,6.55,
130420076453001,Mayasandra,13.07222222,76.75833333,,,,,,,,,,7.84,6.19,2.82,3.85,10.98,11.02,3.97,3.89,5.52,3.8,3.96,5.89,9.17,9.29,7.72,7.79,6.48,6.1,4.1,7.35,3.87,5.65,3.04,4.68,4.2,3.7,1.3,2.41,4.04,6.31,4.43,6,5.44,,4.43,3.63,1.84,3.02,1.5,3,5.49,4.7,4.83,3.91,2.75,6.13,2.97,4.4,5.35,5.1,2.24,3.6,5.75,5.15,1.1,1.6,5.23,4.49,1.4,1.46,3.8,3.55,2.66,2.79,2.2,,3.8,4.1,10.12,4.56,2.9,4.32,4.64,5.6,2.4,2.75,3.5,2.51,1.5,,3.89,3,3.7,4.28,4,4.23,1.9,2.45,2.1,2.7,3.2,4.25,5.25,3.95,,3.7,,,4.22,2.59,,2.37,1.36,2.34,1.37,0.9,1.46,,,5.67,
140600077170001,Pavagada,14.1,77.28333333,,,,,,,,,,4.75,8.36,2.72,2.85,5.64,6.28,3.41,1.7,,1.8,1.73,2.58,3.13,4.55,3.04,3.64,5.39,3,2.1,2.96,5.3,5.4,1.89,2.25,4.4,5.1,4.11,5.7,7.4,1.08,3.95,4.71,4.05,4.54,5.85,5.33,,4.8,3.5,4.69,7.38,7.28,7.08,7.82,7.8,5,3.7,4.9,4.39,4,1.72,2.01,2.72,3.25,1.35,2.1,3.07,2.81,1.14,0.88,2.6,2.7,3.46,4.82,2.8,,2.72,3.4,5.38,5.18,1.43,,3.28,3.13,1.75,2,3.27,3.3,1.65,,3.37,1.78,2.58,3.36,3.5,4.1,1.1,1.6,3.9,3.5,4.7,5.63,6.67,4.32,,4.02,,,,1.4,,3.65,1.5,1.1,1,0.6,0.87,1.77,2.38,3.13,
133030076460001,Hagalavadi,13.50833333,76.76666667,,,,,,,,,,,5.85,2.95,,,,,,,,,,,,,,5.65,3.23,4.7,1.5,,,,,,,,,,,,,,,,,,,,,,,,,,19.1,,,,,,,19.1,19.1,,,,,,,5.25,19.1,,7.1,,,19.1,19.1,19.1,,,,,,,,,,,,,,,,,,,,,,,,,,,,,,,,,,,,,,,16.41,,,
132000077060001,Tumkur,13.33333333,77.1,,,,,,,,,,,,3.29,4.83,,,,,,,,,,,,,,,,,,,,,,,,,,,,,,,,,,,,,,,,,,,,,,,,,,,,,,,,,,,,,,,15.1,3.75,3.52,2.59,2.24,2.65,2.8,2.68,1.9,2.6,3.36,2.97,2.4,,3.75,3.1,3.32,3.9,3.65,4.3,2.5,3.06,2.6,2.75,2.8,3.32,4.5,3.32,3.12,4,,,1.36,1.75,,1.89,1.7,1.8,1.65,1.1,1.75,2.98,2.75,3,
133245077050001,Thovinakere,13.54583333,77.08333333,,,,,,,,,,,,,,,,1.99,,,,1.15,,,,,,,,,,,,,,,,,,,,,,,,,,,,,,,,,,,,,,,,,,,,,,,,,,,,,,,,,,,,,,,,,,,,,,,,,,,,,,,,,,,,,,,,,,,,,,,,,12,,,
132430077013001,Bellavi1,13.40833333,77.025,,,,,,,,,,,,,,,,,,,,,,,14.85,14.51,15.88,16.29,,13.23,12.9,14.35,,13.04,13.02,14.18,14.75,14.8,15.8,,,,17.72,48.9,20.05,19.55,20.87,21.63,22,19.88,18.84,19.33,20,20.86,19,22.41,2.21,20.87,19.38,,26,19.39,19.56,21.12,,19.35,19.8,21.01,21.99,18.99,19.19,20.54,21.05,20.14,21.44,22.7,,25.31,25.5,59.3,26.78,24.48,24.22,25.17,24.2,22.98,22.55,24.4,23.67,,,,16.2,17,17.12,,22.1,18.45,18.85,21.23,21.25,19.67,20.35,21.8,21.77,18.8,19.9,,,14.41,15.3,,17.55,12.76,10.84,11.3,4.83,1.92,5.6,6.49,6.36,
134330077190001,Byalya1,13.725,77.31666667,,,,,,,,,,,,,,,,,,,,,,,25.13,12.22,16.66,17.71,,5.86,6.36,15.3,,2.32,3.96,,10.9,18.35,25.55,,,,41.97,52.95,36.62,38.56,43.85,39.7,,27.74,20.59,33.3,29.17,,40.35,43.1,,20.24,19.57,22.27,20.55,5,6.13,8.82,8.9,7.72,8.43,14.56,13.62,6.87,9.7,15.36,9.97,6.75,18.11,27.8,,35.69,37.5,48.6,,49.6,47.5,49.6,,49.6,49.6,49.6,,,,,,,49.6,,49.6,,49.6,,,,,,,,,,,,47.21,,44.17,10.07,19.94,18.7,,0.06,2.48,4.7,8.07,
132600076543001,Chelur2,13.43333333,76.90833333,,,,,,,,,,,,,,,,,,,,,,,25.27,21.91,23.33,24.72,25.47,25.32,25.34,25.35,,25.35,25.36,26.17,25.47,25.46,25.67,,,,25.61,25.53,25.47,25.38,25.35,25.56,25.29,24.45,25.17,25.38,25.26,23.97,25.35,25.36,25.3,22.94,25.31,25.33,25.32,18.48,25.3,25.3,26.37,21.89,25.32,26.33,25.65,19.66,24.1,25.25,25.22,21.76,25.21,25.27,,24.72,25.24,25.26,25.22,24.26,25.59,34.32,25.19,25.17,25.09,25.17,25.22,,,,25.17,24.47,25.07,,25.13,24.87,26.42,25.07,25.04,23.22,,25.93,25.36,,,,,16.82,24.39,,21.46,14.69,14.68,13.47,11.57,9.63,21.66,13.51,18.26,
131830076393001,Kibbanahalli1,13.30833333,76.65833333,,,,,,,,,,,,,,,,,,,,,,,28.59,,,,,30.05,30.5,32.4,,29.4,27.44,28.24,31.35,30.64,30.8,,,,34.84,36.13,37.35,20.64,37.51,40.2,37.2,39.06,35.52,37.58,36.87,38.2,38.39,38.67,39.48,36.35,37.31,37.42,36.05,34.41,34.99,,31.9,33.85,31.3,31.04,32.06,29.2,27.24,26.44,26.75,25.84,26.5,29.8,,42.95,37.7,38.08,39.59,37.22,39.5,42.9,40.85,39.4,38.75,40.1,32.58,,,,37.4,37.6,46.95,,43.57,42.03,42.8,41.85,42.55,41.6,43.53,45.51,42.17,40.9,44,,,36.66,37.47,,35.69,31.56,27.87,26.6,22.14,16.65,13.36,15.8,,
134300077153001,Muddenahalli1,13.71666667,77.25833333,,,,,,,,,,,,,,,,,,,,,,,26.05,25.36,26.25,28.24,25.84,21.96,21.78,21.7,,,,20.7,21.3,22.19,23.09,,,,30.03,32.01,,28.22,,48.08,46.02,33.6,30.1,27.09,29.8,28.36,31.59,37.6,37.23,30.31,30.04,29.47,21.97,23.07,22.89,22,22.2,21.3,22.22,18.95,25.07,17.25,23.47,24.95,26.03,16.91,28.38,32,,,34.54,36.32,41.93,38.78,40.9,42.9,45.98,46.9,47.2,54.7,46.1,,,,41.7,44.8,44.55,,44.67,42.7,38.9,36,36.2,37.1,37.76,,,,,,,,41.36,,41.83,40.58,36.68,34.7,,20.52,18.97,17.81,,
131530076284501,Tiptur1,13.25833333,76.47916667,,,,,,,,,,,,,,,,,,,,,,,29.3,26.34,24.38,26.07,24.1,19.4,18,17.48,,16.1,15.64,15.37,22.5,16.85,17.55,,,,20.08,23.16,24.48,23.68,23.81,27.57,27.58,24.18,22.29,24.44,27.76,23.85,24.88,29.8,31.61,27.19,25.28,25.54,24.97,23.09,21.45,24.61,,20.53,19.94,22.2,23.08,18.69,18,18.24,18.15,17.54,17.79,19.3,,21.13,21.35,28.1,32.02,30.78,33.35,,33.07,27.38,25.22,27.9,25.48,,,,32.6,32.8,35.8,,49.3,35.8,31.76,,42.75,37.1,37.28,43.99,40.3,30.45,33.5,,,22.99,22.96,,23.87,20.8,19.52,18.55,15.45,12.8,13.74,14.36,,
131000076400001,Turuvekere1,13.16666667,76.66666667,,,,,,,,,,,,,,,,,,,,,,,20.87,17.94,18.51,20.73,19.31,13.81,14.94,17.75,,15.57,16.14,19.41,19.76,19.3,19.48,,,,22.4,22.25,18.88,15.89,16.11,18.87,17.22,13.97,14.55,18.88,17.75,21.17,31.5,19.87,17,16.04,16.79,18,15.84,11.94,12.48,16.17,16.72,12.12,13.17,14.85,13.83,10.16,11.04,14.17,13.45,12.85,13.63,16.77,,21.25,20.87,27.27,21.99,18.62,20.12,21.55,10.02,16.17,16.15,18.87,14.95,,,,14.87,17.27,17.97,,24.93,16.79,20.41,18.52,16.41,14.87,19.07,20.48,19.55,13.61,17.84,,,11.59,13.16,,15.2,7.87,8.9,11,8.87,4.37,10.73,1374,9.8,
134030077043001,Dandinadibbe,13.675,77.075,,,,,,,,,,,,,,,,,,,,,,,,14.17,14.25,16.18,,11.04,9.46,9.84,,7.71,7.34,11.7,11.57,11.26,13.18,,,,33.01,64.25,79.3,67.84,73.2,74.3,69.3,61.7,25.1,19.46,18.79,20.11,24.48,,,43.02,,,,21.05,18.06,16.48,15.56,12.69,12.74,41,20.39,17.07,20.18,31.7,35.6,15.86,,63.1,,66.6,,48.3,,69.3,69.3,69.3,,69.3,69.3,69.3,69.3,,,,16.3,22.8,24.15,,63.06,22.3,16.55,16.25,21.05,22.95,,62.41,59.55,,62.35,,,39.82,34.25,,61.33,49.55,18.3,12.88,3.61,2.1,5.3,6.22,,
131430076520001,Kadaba2,13.24166667,76.86666667,,,,,,,,,,,,,,,,,,,,,,,,29.9,30.52,31.84,,20.72,19.06,23.44,,19.81,19.48,24.65,23.93,25.2,25.86,,,,39.97,45.2,45.62,41.12,39.8,45.1,38.4,27.85,28.1,36.62,34,48.8,42.47,36.82,31.22,23.37,24.94,25.53,21,18.32,18.69,21.45,20.7,15.25,15.9,16.63,13.46,11.4,12.9,15.32,15.1,12.77,16.37,18.3,,18.27,25.2,36.3,34.76,32.13,35.22,50.9,62.3,35.8,34.33,46.1,30.62,,,,24,32.8,49.14,,63.22,38.27,49.5,64,66.1,65.2,65.46,69.21,,57.5,62.83,,,38.24,49.28,,25.03,16.65,17.3,15.55,8.9,7.16,12.6,13.92,13.85,
130145077020001,Nagavalli,13.02916667,77.03333333,,,,,,,,,,,,,,,,,,,,,,,,11.3,,,,6.32,5.52,7.3,,5.24,6.46,8.3,10.09,10,11.58,,,,16.48,16.6,14.62,13.57,16.12,18.69,17.54,14.4,15.18,17.69,18,20,7.18,21.85,22.21,20.43,21.07,22.3,,20.03,20.97,22.5,21.6,20.48,21.3,21.55,22.09,19.48,19.67,20.87,15.98,12.21,13.58,13.5,,16.76,16.5,20.1,14.15,12.11,14.57,17.84,18.3,16.41,16.78,18,17.51,,,,17.1,19.6,19.7,,59.3,19.3,20.68,22.47,22.27,22.2,23.98,27.81,28.08,25.7,,,,22.89,22.74,,24.38,21.26,20.1,11.67,14,4.5,5.82,5.3,5.07,
125830076530001,Yediyur,12.975,76.88333333,,,,,,,,,,,,,,,,,,,,,,,,,,,,5.1,8.93,13.64,,8.84,12.04,16.45,17.78,17.9,18.87,,,,,,,,,,,,,,,,,,,,,,,,,,,,,,,,,,,,17.08,24.4,,26.44,25.73,59.3,29.95,26.35,28.47,30.83,27.8,23,21.2,27,24.38,,,,21.3,21.8,24.24,,26.75,18.3,20.3,21.22,28.2,22.3,24.16,26.94,,19.9,22.52,,,,21.4,,22.69,15.65,11.78,11.3,5.1,2.58,36.1,,13,
133200077133001,Koratagere2,13.53333333,77.225,,,,,,,,,,,,,,,,,,,,,,,,,,,,,,,,,,,,,,,,,,,,,,,14.06,,,,,,,,,,,,,,,,,,,,,,,4.31,2.16,2.18,3.23,3.26,,1.34,4.46,5.51,3.96,1.93,2.36,2.63,2.3,1.55,2.63,2.41,1.66,1.91,,,,,,3.53,2.3,1.71,3.11,,,2.66,,4.41,4.26,2.73,4.2,,,1.81,2.15,,2.15,,2.46,1.28,0.1,1,3.74,3.65,,
134000077040002,Badavanahalli(A),13.66666667,77.06666667,,,,,,,,,,,,,,,,,,,,,,,,,,,,,,,,,,,,,,,,,,,,,,,,1.65,,1.74,,,,,1.42,1.57,1.92,,0.82,,,,6.75,1.85,1.9,2.11,,1.54,0.67,2.45,2.2,2.22,3.3,3.2,,6.8,3.24,4.33,1.82,1.5,2.15,1.62,2.1,1.35,1.6,2.59,1.48,1.42,,1.94,2,1.55,2.4,2.5,1.9,1.3,2,4.93,1.4,2.2,2.35,2.46,2.78,,3.25,,,1.3,5.55,,1.32,0.82,2.1,1.76,0.6,1.62,2.98,2.67,2.93,
132600076290001,Ghansinayan,13.43333333,76.48333333,,,,,,,,,,,,,,,,,,,,,,,,,,,,,,,,,,,,,,,,,,,,,,,,1.64,,8.32,10.02,10.02,,5.14,10.02,5.06,5.09,6.45,6.27,2.06,3.45,6.84,5.22,,,4.88,,0.7,0.14,4.34,5.44,10.02,6.74,7.94,,7.92,7.34,10.02,,10.02,10.02,10.02,10.02,7.29,5.14,8.14,7.64,,,10.02,,,,,10.02,,,,,,,11.37,10.02,,,,,,,,,,,,0.26,,,5.2,4.8,
132815077142001,G.Nagenahalli,13.47083333,77.23888889,,,,,,,,,,,,,,,,,,,,,,,,,,,,,,,,,,,,,,,,,,,,,,,,1.33,,2.76,2.57,2.81,3.27,7.85,3.75,1.65,2.17,3.08,1.95,1.73,2.33,2.85,5.3,2.58,2.75,3.97,3.67,1.4,1.93,2.36,2.52,2.34,2.23,3.55,,4.37,6.55,7.31,6.15,5.35,5.93,6.6,4.85,2.85,3.65,5.29,4.3,2.66,,2.67,2.35,3.35,2.93,8.15,8.15,2.35,8.15,3.15,2.75,4.65,4.85,,,,,,,,2.55,,,1.25,,,0.95,,,2.74,3.05,
133105077140501,Koratagere-A,13.51805556,77.23472222,,,,,,,,,,,,,,,,,,,,,,,,,,,,,,,,,,,,,,,,,,,,,,,,2.33,,5.08,3.15,3.92,4.76,10.35,,,,4.16,2.86,2.85,3.49,3.93,2.47,,3.65,,,2.07,2.33,,,,3.67,4.25,,2.26,3.05,12.29,8.73,1.85,3.35,2.75,1.91,1.69,1.95,1.78,1.67,1.65,,1.87,1.67,1.85,2.65,3.75,4,1.55,1.65,2.05,0.55,2.15,2.81,4.4,4.42,1.64,3.5,,,0.9,1.85,,2.04,1.48,1.9,1.95,1.35,1.55,2.5,2.75,3.12,
133830077113003,Madhugiri(Pz),13.64166667,77.19166667,,,,,,,,,,,,,,,,,,,,,,,,,,,,,,,,,,,,,,,,,,,,,,,,,,,,,,,,,,,,,,,,,,,,,,5.25,5.51,,3.54,5.32,,0.76,4.44,5.75,6.57,0.12,1.27,1.46,3.97,0.97,4.02,0.48,4.4,,,1.92,0.82,2.64,4.57,4.14,,0.07,0.57,0.57,1.12,1.42,3.37,6.38,6.55,0.29,3.74,,,0.01,0.7,,0.77,0.07,0.12,0.05,0.02,1.12,,1.3,3.57,
140305077100501,C.K.Pura,14.05138889,77.16805556,,,,,,,,,,,,,,,,,,,,,,,,,,,,,,,,,,,,,,,,,,,,,,,,,,,,,,,,,,,,,,,,,,,,,,,,,,,,4.78,5.37,8.01,5.22,2.07,2.28,5.57,6.45,2.93,3.07,7.23,8.42,4.17,5.09,8.77,4.4,4.87,7.93,9.37,9.37,1.17,1.83,6.87,,9.37,,10,,,5.68,,,1.01,2.07,,5.39,1.07,0.9,1.32,,0.69,1.65,1.68,2.2,
132215076284502,Halkurke-A,13.37083333,76.47916667,,,,,,,,,,,,,,,,,,,,,,,,,,,,,,,,,,,,,,,,,,,,,,,,,,,,,,,,,,,,,,,,,,,,,,,,,,,,0.99,3.85,4.3,4.65,0.76,2.25,4.5,3.4,0.58,1.15,1.54,1.6,0.9,0.81,2.7,2.15,2.65,3.52,7.3,9,7.7,3.3,2.36,5.2,2.4,5.66,10,9,0.6,3.8,,,23.84,3.05,,7.21,0.82,0.98,0.81,0.37,0.43,1.64,,1.74,
133500076320002,Huliyar1,13.58333333,76.53333333,,,,,,,,,,,,,,,,,,,,,,,,,,,,,,,,,,,,,,,,,,,,,,,,,,,,,,,,,,,,,,,,,,,,,,,,,,,,12.94,12.25,14.77,15.25,16.4,14.22,17.34,18.08,10.66,8.97,12.09,12.69,7.57,8.15,,12.37,13.87,15.42,,19.65,14.19,7.42,18.04,19.59,15.52,,8.81,,,,,,11.14,11.77,,12.52,,7.9,8.56,7.37,4.59,8.15,9.1,,
140835077112001,Kotagudda,14.14305556,77.18888889,,,,,,,,,,,,,,,,,,,,,,,,,,,,,,,,,,,,,,,,,,,,,,,,,,,,,,,,,,,,,,,,,,,,,,,,,,,,6.64,13,11.58,9.65,2.8,4.8,6.51,5.2,4.9,,8.39,8.9,9.25,4.9,7.1,4.95,7.76,,13.4,13.4,5.7,7.2,9.25,9.4,9.5,,14.2,13.4,5.4,7.45,,,,4.1,,5.61,3.1,4.38,3.97,2.6,3.7,9.17,5.31,6.1,
130130077010002,Kunigal-A,13.025,77.01666667,,,,,,,,,,,,,,,,,,,,,,,,,,,,,,,,,,,,,,,,,,,,,,,,,,,,,,,,,,,,,,,,,,,,,,,,,,,,13.01,13.3,14.37,13.88,12.36,12.35,12.95,13.25,11.7,11.6,12.66,12.52,10.8,10.2,11.4,10.55,11.4,11.95,12.9,13.21,10.4,11.15,11.3,10,9.9,11.3,12.88,11.9,,12.15,,,10.47,10.25,,11.75,10.68,9.8,9.82,7.84,7.2,9.45,9.8,10.62,
132330076315301,Madihalli,13.39166667,76.53138889,,,,,,,,,,,,,,,,,,,,,,,,,,,,,,,,,,,,,,,,,,,,,,,,,,,,,,,,,,,,,,,,,,,,,,,,,,,,4,4.15,5.64,6.25,5.36,5.07,12.3,12.3,5.05,3.45,5.9,6.6,4.35,6.13,12.3,12.3,,12.3,12.3,12.3,12.3,5.5,12.3,12.3,12.3,,13.15,12.3,12.3,13.15,,,12.3,12.3,,12.3,,12.3,5.47,2.75,1.41,3.14,3.6,5.2,
132540076341001,Navule,13.42777778,76.56944444,,,,,,,,,,,,,,,,,,,,,,,,,,,,,,,,,,,,,,,,,,,,,,,,,,,,,,,,,,,,,,,,,,,,,,,,,,,,7.64,9.6,12.04,12.4,12.4,12.4,12.4,12.4,6.95,10.4,11.7,10.32,9.9,11.3,12.4,12.4,,12.4,12.4,12.4,12.4,12.4,12.2,12.4,12.4,,12.55,12.02,,9.2,,,11.05,11.35,,11.32,7.36,5.68,7.2,1.33,1,6,9,8.98,
132000077060002,Tumkur1,13.33333333,77.1,,,,,,,,,,,,,,,,,,,,,,,,,,,,,,,,,,,,,,,,,,,,,,,,,,,,,,,,,,,,,,,,,,,,,,,,,,,,9.97,10.05,13.1,18.28,16.67,19.73,21.95,10.87,9.83,10,8.35,4.6,10.15,9,,10.85,10.85,11.53,,15.37,15.88,11.6,18.02,18.65,17.6,17.58,19.55,19.57,15.46,17.87,,,14.74,13.64,,10.24,5.97,3.72,2.9,1.65,0.9,1.91,1.63,1.75,
130020076573001,Yellappana Gudde,13.00555556,76.95833333,,,,,,,,,,,,,,,,,,,,,,,,,,,,,,,,,,,,,,,,,,,,,,,,,,,,,,,,,,,,,,,,,,,,,,,,,,,,4.93,5.2,5.93,5.3,4.38,5,5.05,5.7,3.48,3.1,4.35,4.05,2.2,2.4,,2.7,3.17,3.92,4.7,4.4,1.95,,1.85,,1.8,,5.02,,,,,,1.95,,,3.29,,,,,,,,,
132320076252501,Balavaneralu,13.38888889,76.42361111,,,,,,,,,,,,,,,,,,,,,,,,,,,,,,,,,,,,,,,,,,,,,,,,,,,,,,,,,,,,,,,,,,,,,,,,,,,,,4.6,3.01,4.77,4.2,5.1,2.53,3.5,1.48,2.79,4.74,3.92,1.7,1.4,3.35,3.5,4.3,4.8,4.7,4.3,2.8,3.5,2.55,3.4,2.5,,7,6.2,,3.5,,,1.6,1.53,,2.7,0.75,0.99,1.1,0.7,0.85,2.76,3.35,4.02,
132640076301001,Chattasandra,13.44444444,76.50277778,,,,,,,,,,,,,,,,,,,,,,,,,,,,,,,,,,,,,,,,,,,,,,,,,,,,,,,,,,,,,,,,,,,,,,,,,,,,,3,6.69,7.1,6,2.22,2.67,7,0.28,0.45,1.53,1.13,1.95,3.28,1.82,2.2,3.2,6.45,6.1,7.1,0.45,0.95,2.3,7.1,0.9,,6.76,7.1,,1.45,,,1.19,1.46,,6.61,0.52,0.78,1.2,0.4,0.35,1.8,2.54,3.04,
140110077122001,Kanameri,14.01944444,77.20555556,,,,,,,,,,,,,,,,,,,,,,,,,,,,,,,,,,,,,,,,,,,,,,,,,,,,,,,,,,,,,,,,,,,,,,,,,,,,,5.4,10.7,10.26,1,1.98,8.63,9.6,4.9,2.1,8.98,10.47,1.15,1.4,7.56,1.5,4.1,8.6,11.2,11.85,0.8,1.2,5.85,7.2,9.1,10.85,12.5,11.08,0.88,2.41,,,0.4,1,,3.06,0.83,0.85,0.81,,0.54,6.6,1.98,2.08,
140325077062001,Karekyathanahalli,14.05694444,77.10555556,,,,,,,,,,,,,,,,,,,,,,,,,,,,,,,,,,,,,,,,,,,,,,,,,,,,,,,,,,,,,,,,,,,,,,,,,,,,,3.5,4.52,3.85,4.55,2.67,4.31,3.73,2.85,3.5,4.08,3.48,3.02,4.16,4.12,3.01,3.65,4.2,4.4,4.8,2.6,3.6,4.05,6,8.7,9.6,10,9.43,4.49,7.67,,,4.02,4.75,,4.75,2.95,2.62,4.5,,5.1,5.8,5.25,10.05,
133140076301001,Lakshipura,13.52777778,76.50277778,,,,,,,,,,,,,,,,,,,,,,,,,,,,,,,,,,,,,,,,,,,,,,,,,,,,,,,,,,,,,,,,,,,,,,,,,,,,,10,14,14.55,14.35,16,16,14.8,13.2,16,11.38,13.42,2.62,2.15,4.2,4.9,8.23,12.45,15,15,13.4,11.15,16,16,16,,17,16,,8.65,,,16,16,,11.03,5.2,1.86,2.48,2.57,2,3.34,4.8,7.62,
132420076244501,Rudrapura,13.40555556,76.4125,,,,,,,,,,,,,,,,,,,,,,,,,,,,,,,,,,,,,,,,,,,,,,,,,,,,,,,,,,,,,,,,,,,,,,,,,,,,,6.76,6.8,8.8,7.95,8.8,8.8,8.8,2.75,4.2,5.77,4.18,5.1,6.86,4.1,3.7,5.3,8.7,8.8,8.8,7.1,7.65,8.2,8.8,7.5,,9.9,8.8,,,,,0.48,,,3.13,,,0.98,0.95,1,2.41,2.42,2.54,
131920076575001,Singanahalli,13.32222222,76.96388889,,,,,,,,,,,,,,,,,,,,,,,,,,,,,,,,,,,,,,,,,,,,,,,,,,,,,,,,,,,,,,,,,,,,,,,,,,,,,6.5,8,8.51,2.44,4.55,5.49,5.65,0.9,2.65,3.05,2.05,0.8,1.28,0.8,0.9,1.55,2.05,2.3,4.27,0.92,1.22,1,0.9,1.1,2.84,5.87,6.91,0.7,2.93,,,0.87,0.65,,0.95,0.68,0.95,0.5,0.55,0.55,1.5,1.74,1.65,
132400076263001,Suragondanahalli,13.4,76.44166667,,,,,,,,,,,,,,,,,,,,,,,,,,,,,,,,,,,,,,,,,,,,,,,,,,,,,,,,,,,,,,,,,,,,,,,,,,,,,5.7,7,6.23,3.7,3.53,3.95,3.6,0.5,1.95,2.02,2.72,0.9,1.17,2.8,2.55,3.2,4,4.1,4.3,2.6,3.7,2.35,3.9,3.1,,9.3,,,3.6,,,2.85,3.44,,5.33,2.38,1.74,1.62,0.47,0.55,2,2.62,1.9,
131609076335501,Karadikodi,13.26916667,76.56527778,,,,,,,,,,,,,,,,,,,,,,,,,,,,,,,,,,,,,,,,,,,,,,,,,,,,,,,,,,,,,,,,,,,,,,,,,,,,,,8.72,9.98,9.12,10.32,11.22,11.5,4.25,4.42,7.4,6.32,8.2,11.28,9.55,6,10.03,10.1,10.85,11.5,2.65,9.8,8.9,10.2,7,9.8,11.5,11.5,,7.1,,,2.05,5.2,,8.18,,6.36,2.43,1.37,1.5,5.92,3.47,5.4,
134425076551101,Sira I,13.74027778,76.91972222,,,,,,,,,,,,,,,,,,,,,,,,,,,,,,,,,,,,,,,,,,,,,,,,,,,,,,,,,,,,,,,,,,,,,,,,,,,,,,,,2.35,2.97,2.62,3.25,,2.45,3.29,2.36,1.53,1.7,,2.75,4.85,4.15,9.17,9.17,,,,,,,10.12,9.17,7.45,10.12,,,,,,,,,,,,4.4,,6.76,
131000076490601,Anchihalli,13.16666667,76.81833333,,,,,,,,,,,,,,,,,,,,,,,,,,,,,,,,,,,,,,,,,,,,,,,,,,,,,,,,,,,,,,,,,,,,,,,,,,,,,,,,,,9.2,10.18,6.77,6.97,8.95,8.71,5.65,6.05,8.8,7.24,7.67,8.85,10.25,10.55,8.45,8.7,9.28,9.95,10.55,10.3,11.59,10,10.85,11.06,,,10.22,10.55,,10.55,5.63,4.9,4.28,2.45,2.71,6.58,7.15,8.02,
133047077104301,Gatlagollahalli,13.51305556,77.17861111,,,,,,,,,,,,,,,,,,,,,,,,,,,,,,,,,,,,,,,,,,,,,,,,,,,,,,,,,,,,,,,,,,,,,,,,,,,,,,,,,,2.77,2.7,1.3,1.95,2.78,2.68,0.15,1.45,2.15,0.75,4.3,3.46,3.05,2.95,1.15,2.3,2.6,2.1,2.4,2.95,5.38,4.01,1.85,3.9,,,2.23,2.6,,2.23,1.63,1.25,1.32,0.49,0.55,3,3.5,3.72,
132539077151101,Neelagondanahalli,13.4275,77.25305556,,,,,,,,,,,,,,,,,,,,,,,,,,,,,,,,,,,,,,,,,,,,,,,,,,,,,,,,,,,,,,,,,,,,,,,,,,,,,,,,,,,,,1.25,2.68,2.35,0.82,0.9,2.28,0.95,1.35,2.75,2.9,3.95,0.65,1.15,2.4,3,3.5,5,4.55,2.25,0.65,2.05,,,0.77,1.18,,2.54,0.38,2.08,1.14,0.22,0.52,1.98,2.37,2.83,
132450076564001,Iriksandra,13.41388889,76.94444444,,,,,,,,,,,,,,,,,,,,,,,,,,,,,,,,,,,,,,,,,,,,,,,,,,,,,,,,,,,,,,,,,,,,,,,,,,,,,,,,,,,,,,2.03,8.09,9.3,11.3,2.18,2.38,3.55,5.28,6.18,8.33,2.18,5.1,7.78,2.88,2.08,4.78,15.24,14.32,5.93,8.2,,,1.53,2.42,,3.74,0.86,1.53,1.28,3.35,,,2.5,4.28,
134606077144001,Chilanahalli,13.76833333,77.24444444,,,,,,,,,,,,,,,,,,,,,,,,,,,,,,,,,,,,,,,,,,,,,,,,,,,,,,,,,,,,,,,,,,,,,,,,,,,,,,,,,,,,,,,6.35,0.88,1,2.75,1.36,2.25,3.58,6.05,6.85,1.4,2.35,5.55,6.2,6.5,6.9,22,,,,,,,2.85,,6.9,0.75,1.15,1.06,8.2,0.7,2.36,,,
134356077112701,Giriyammanapalya,13.73222222,77.19083333,,,,,,,,,,,,,,,,,,,,,,,,,,,,,,,,,,,,,,,,,,,,,,,,,,,,,,,,,,,,,,,,,,,,,,,,,,,,,,,,,,,,,,,5.6,3.03,3.35,4.75,3.35,3.87,4.8,5,5.15,1.95,3.9,4.6,3.75,4.45,4.7,5.7,4.84,1.6,4.73,,,2.75,4,,4.83,1.3,2.9,3.43,1.05,2.93,5.4,5.9,5.93,
134150077120301,Jadegondanahalli,13.69722222,77.20083333,,,,,,,,,,,,,,,,,,,,,,,,,,,,,,,,,,,,,,,,,,,,,,,,,,,,,,,,,,,,,,,,,,,,,,,,,,,,,,,,,,,,,,,9.6,2.35,2.75,8.48,3.1,5.85,3,2.75,6.8,2.65,2.25,2.3,4.35,5.3,9.3,12.1,9.83,1.97,3.35,,,1.25,1.45,,2.8,,0.48,,0.69,1.1,4.14,,,
