station_id,station_name,latitude,longitude,1994_season1,1994_season2,1994_season3,1994_season4,1995_season1,1995_season2,1995_season3,1995_season4,1996_season1,1996_season2,1996_season3,1996_season4,1997_season1,1997_season2,1997_season3,1997_season4,1998_season1,1998_season2,1998_season3,1998_season4,1999_season1,1999_season2,1999_season3,1999_season4,2000_season1,2000_season2,2000_season3,2000_season4,2001_season1,2001_season2,2001_season3,2001_season4,2002_season1,2002_season2,2002_season3,2002_season4,2003_season1,2003_season2,2003_season3,2003_season4,2004_season1,2004_season2,2004_season3,2004_season4,2005_season1,2005_season2,2005_season3,2005_season4,2006_season1,2006_season2,2006_season3,2006_season4,2007_season1,2007_season2,2007_season3,2007_season4,2008_season1,2008_season2,2008_season3,2008_season4,2009_season1,2009_season2,2009_season3,2009_season4,2010_season1,2010_season2,2010_season3,2010_season4,2011_season1,2011_season2,2011_season3,2011_season4,2012_season1,2012_season2,2012_season3,2012_season4,2013_season1,2013_season2,2013_season3,2013_season4,2014_season1,2014_season2,2014_season3,2014_season4,2015_season1,2015_season2,2015_season3,2015_season4,2016_season1,2016_season2,2016_season3,2016_season4,2017_season1,2017_season2,2017_season3,2017_season4,2018_season1,2018_season2,2018_season3,2018_season4,2019_season1,2019_season2,2019_season3,2019_season4,2020_season1,2020_season2,2020_season3,2020_season4,2021_season1,2021_season2,2021_season3,2021_season4,2022_season1,2022_season2,2022_season3,2022_season4,2023_season1,2023_season2,2023_season3,2023_season4
173348077413401,Bilalpur(pn),17.56333333,77.69277778,,,,,,,,,8.95,12.86,,,6.6,10.83,11,7.57,8.36,12.7,8.16,5.35,6.66,9.9,28.23,6.3,,11.57,7.32,14.52,9.82,,10.68,7.27,9.92,11.78,10.27,10.5,13.32,14.79,12.72,10.3,12.02,13.04,13.02,11.72,13.65,15.03,10.99,8.87,11.56,13.78,11.63,12.07,13.71,15.29,13.45,14.34,15.47,12.52,9.5,9.62,10.9,13.65,12.19,27.02,12.02,13.99,6.32,10.19,6.79,11.32,8.86,10.36,12.47,16.3,,8.42,11.2,15.55,10.5,5.96,7.94,16.12,12.12,8.94,14.17,15.92,26.97,16.02,,19.17,14.46,9.72,20.64,,20.28,11.87,15.32,18.57,17.72,26.82,29.22,32.64,33.59,24.46,33.22,,,12.82,16.72,,14.74,6.83,8.82,12.78,11.65,8.25,14.29,10.35,6.55,
180204077461701,Narayankher,18.03444444,77.77138889,,,,,,,,,2.44,4.75,4.08,2.2,2.86,4.64,4.9,2.98,2.82,5.33,3.1,2.8,3.71,5.33,3.47,5.9,4.1,,2.73,2.68,2.6,5.65,3.37,2.9,3.55,5.73,4.15,3.87,4.7,6.58,3.35,2.42,2.81,4.77,4.25,3.95,4.65,6.97,3.32,2.65,3.22,5.75,3.79,3.15,3.87,6.97,4.86,3.58,4.53,5.55,2.72,3.36,3.93,7.72,4.99,5.1,5.75,7.72,3.91,1.85,2.55,5.21,2.78,3.86,4.5,6.97,,3.8,4.85,6.97,3.25,2.39,2.4,5.05,5.79,6.25,6.45,6.97,4.32,6.25,,6.97,6.97,5.55,5.37,6.97,4.35,3.12,3.69,6.97,,6.97,,6.97,6.97,6.97,6.97,,,2.45,3.26,,2.35,1.87,2.22,6,2,1.95,3.06,0,5.8,
175100077391801,Nayalkal-i,17.85,77.655,,,,,,,,,1.53,6.52,0.6,0.2,1.01,3.42,2.34,1.5,1.25,5.63,0.37,1.4,2.38,4.28,1.06,2.04,2.5,4.22,1.7,1.83,2.88,5.8,2.46,0.54,1.32,5.08,6.6,1.7,2.9,6.6,2.7,1.69,3.27,5.62,2.7,3.02,4.33,6.6,2.3,1.44,2.76,6.5,9.08,1.7,2.76,6.15,1.83,1.7,3.02,4.37,0.49,1.55,2.33,4.82,2.06,1.72,2.57,5.45,0.47,0.86,1.39,3.47,1.09,2.35,3.39,5.42,,2.67,3.94,6.75,1.07,0.77,1.65,3.67,2.85,2.87,3.72,5.27,4.34,5.87,,6.67,3.57,1.52,2.95,6.45,2.72,2.15,3.11,5.22,4.79,5.81,5.68,8.62,5.29,5.71,6.67,,,1.37,2.82,,0.59,1.71,2.52,,,,15.1,,,
173840078140001,Chintalacheruvu-PZ,17.64444444,78.23333333,,,,,,,,,,,,,,,,,,,,,,,21.42,,,31.2,24.34,20.52,11.75,20.08,26.6,24.64,31.5,28.82,30.02,33.42,29.05,29.2,27.9,23.59,23.48,32.1,28.6,26.4,31.5,30.05,28.06,22.09,19.8,24.26,23.32,18.72,18.3,23.11,23.74,24.57,25.9,32.1,32.1,24.74,32.1,,6.63,,,32.1,25.4,17.3,17.39,23.09,25.22,23.04,23.59,,,13.08,,31.5,31.5,22.4,20.16,24.6,,28.98,29.2,29.2,29.2,29.14,,31.5,31.5,22.9,22.88,26.2,26.4,21.07,31.5,28.03,31.5,28,,,,,26.86,,,17.5,17.91,,17.7,15.8,31.5,21.13,16.97,13.28,14.07,18.42,16.44,
175345078123001,Kaudipally-PZ,17.89583333,78.20833333,,,,,,,,,,,,,,,,,,,,,,,22.67,,,26.6,21.14,21.6,22.38,27.28,32,26.3,24.3,33.86,36.6,12.5,34.48,34.9,30.79,31.12,30.83,37.5,34.83,33.6,36.6,36.41,32.77,29.5,28.96,32.27,30.31,25.37,23.88,,32.31,32.08,32.32,26.5,29.84,25.9,30.72,33.29,30.53,32.8,33.5,35.22,35.7,31.9,28,37.1,29.1,28.79,30.01,34.82,,24.4,24.65,34.4,24.38,19.91,18.86,27.42,29.08,29.55,30.9,34.8,31.39,33.4,,36.5,34.23,25.65,27.57,33.6,21.39,30.5,33.27,34.9,33.34,33.82,35.67,34.87,34.9,33.46,34.52,,,20.3,20.04,,21.7,18.4,17.71,24.2,20.16,16.89,18.02,23.14,21.35,
175720078112001,Kulcharam-PZ,17.95555556,78.18888889,,,,,,,,,,,,,,,,,,,,,,,17.19,,,22,14.25,12.65,14.26,21.47,21.18,18.56,19.44,23.88,24.7,,12,24.89,24.16,17.4,17.87,22.44,23.9,25.39,25.25,27.66,25.18,18.69,17.95,21.88,23.35,14.28,15.03,20.89,21.57,17.41,18.77,22.72,17.03,14.25,15.01,22.44,23.82,24.85,20.75,28.88,23.4,,16.9,25.7,22.24,17.85,18.14,29.6,,14.18,14.68,25.05,17.18,10.39,11.64,20.25,24.8,26.07,23.15,33.6,33.86,33.46,,35.4,33.4,21.2,20.35,30.66,19.4,26.8,32.17,32.66,32.17,31.9,33.4,33.81,30.99,22.94,23.2,,,11.3,14.27,,16.1,9.02,9.46,18,14.81,10.76,12.02,17.68,,
174000077453001,Lingampalle-PZ,17.66666667,77.75833333,,,,,,,,,,,,,,,,,,,,,,,5.82,,,,6.66,6.7,,,8.8,5.6,8.13,8.4,,,,,6.09,6.63,,,31.6,,,,,,,,,,,,,7.76,10.7,8.4,4.35,7.57,8.65,12.3,5.82,6.4,9.1,12.1,3.67,5.95,6.79,22.6,7.8,,,,,,,,31.6,,,,10.2,8.28,,9.82,9.45,10.16,,,10.24,5.65,9.1,26.55,2.97,5.62,8.17,24.65,18.94,22.55,23,27.19,19.5,15.4,,,,5.45,7.7,,5.11,5.38,5.96,7.97,5,4.86,7.16,,5.6,
175130077463001,Raikod-PZ,17.85833333,77.775,,,,,,,,,,,,,,,,,,,,,,,32.84,,,39.04,26.3,35,28.4,32.1,30.96,24.64,28.13,27.1,22.04,23.8,22.7,24.71,22.1,22.08,18.99,27.14,23.1,24.9,27.8,50.2,25.93,24.82,25.11,,24.6,24.65,24.65,,19.01,16.99,19.6,19.6,4.83,8.33,11.2,14.84,5.52,7.24,9.3,11.12,3.86,7.19,8.73,10.8,5.85,9.19,10.24,12.44,,7.73,13.8,24.05,6.13,7.09,9.3,14.3,17.62,19.27,16.65,15.7,16.25,17.51,,,18.83,8.45,14.55,20.52,16.45,10.05,14.9,26.4,23.4,23.98,25.5,25.4,32.78,22.9,23.61,,,7.8,10.1,,8.2,9.08,11.09,18.54,11.53,8.86,11.68,18.33,3.69,
180700078260001,Ramayampet-PZ,18.11666667,78.43333333,,,,,,,,,,,,,,,,,,,,,,,15.17,,,21.85,18.3,12.2,15.16,21.2,20.81,14.7,17.18,22.77,21.9,,20.68,24.32,6.6,22.94,25.04,25.88,25,24.12,24.62,26.1,24.57,18.96,25.43,23.47,16.22,12.53,14.33,18.74,19.42,13.18,14.98,19.23,12.25,11,13.18,18.53,15.58,16.08,18.7,24.6,16.72,5.7,7.87,14.8,8.26,8.28,11.06,18.62,,9.58,12.8,18.13,9.2,5.4,8.6,19.7,15.32,17.05,16.67,21.95,23.24,20.82,,25.05,23.72,11.45,13.72,18.96,17,15.67,17.87,23.25,22.7,21.9,23.36,25.38,19.16,6.01,7.86,,,4.54,6.93,,5.69,4.92,6.7,12.75,4.27,4.7,8.37,12.23,6.62,
180540078513001,Siddipet-PZ,18.09444444,78.85833333,,,,,,,,,,,,,,,,,,,,,,,21.7,,,14.4,12,11.04,12.1,12.42,12.4,12.34,12.42,12.35,12.17,,12.3,12.15,12.36,12.26,11.9,11.72,11,9.95,11.94,,11.8,10.82,17.47,11.28,11.03,10.71,10.77,11.27,11.08,10.09,10.14,10.6,9.18,9.61,11.16,10.47,10.53,10.61,10.75,11.6,10,,8.37,10,8.72,8.34,9.05,10.4,,7.93,9.24,10.31,8.57,6.87,7.2,11,10.46,11.62,10.3,33.9,25.28,11.8,,49.4,39.73,10,12.26,45.06,,9.02,11,36.82,12.3,31.7,29.31,46.19,12.25,8.37,9.48,,,4.6,,,5.58,5.55,8.42,21.68,2.76,5.01,,16.05,8.5,
180115078042001,Papannapet(narsingi),18.02083333,78.07222222,,,,,,,,,,,,,,,,,,,,,,,,,,,,,,,,,,,,,,,3.3,3.91,6.43,8.87,5.46,7.07,7.6,9.2,0.9,3.5,8.02,8.66,3.38,3.1,8.4,8.8,1.15,2.8,6.74,6.94,1.59,3.5,5.15,9.33,5.78,5.89,7.1,8.45,1.26,4.37,5.6,7.54,0.9,3.57,6.49,6.9,,5.62,5.57,8.7,1.58,1.88,5.28,6.75,6.9,6.7,7.1,8.92,7.07,9.15,,9.35,9.5,2.2,4.55,6.39,2.25,4.5,6.44,9.3,8.68,7,7.95,8.43,5.44,2.65,4.09,,,3.1,6.7,,2,4.38,4.76,3.91,1.69,3.17,,7.95,2.62,
180130078131001,Peroor,18.025,78.21944444,,,,,,,,,,,,,,,,,,,,,,,,,,,,,,,,,,,,,,,1.08,0.93,2.88,3.55,2.21,4.78,6.68,10.1,0.15,0.08,2.28,3.61,0.22,0.48,1.88,4.13,0.29,0.28,2.58,4.83,0.62,0.53,1.48,3.72,1.35,1.4,2.98,7.25,0.45,1.88,3.08,4.54,0.67,1.51,3.83,4.74,,0.98,3.78,5.38,0.58,0.75,1.79,4.38,1.21,3.04,4.4,6.43,5.17,11.28,,9.32,3.38,1.23,2.98,3.58,0.38,0.6,1.18,1.93,0.57,1.43,1.74,5.77,0.53,0.72,1.46,,,0.33,1.38,,,,,,,,,,,
175830078263001,Polampalli,17.975,78.44166667,,,,,,,,,,,,,,,,,,,,,,,,,,,,,,,,,,,,,,,6.19,6.8,6.8,6.8,4.5,6.08,6.1,6.1,2.26,5.93,7,6.1,1.53,7,7,7.7,2.66,,7.7,7.7,3.14,5.6,7.7,7.7,4.25,7.7,5.9,7.7,2.84,5.62,,7,3.19,,,7,,6.29,7,7,4.6,3.46,7,5.95,3.46,4.83,7,7,3.53,7,,5.5,4.45,,7,7,,5.2,6.55,7,3.69,7,5.97,7,3.62,5.32,7,,,4.31,5.28,,3.2,5.08,7,4.97,2.53,4.86,,0,2.9,
174430077590001,Sarafpalle-PZ,17.74166667,77.98333333,,,,,,,,,,,,,,,,,,,,,,,,,,,,,,,,,,,,,,,,,15.02,22.65,21.32,26.85,22.58,27.65,21.44,9.72,16.85,21.97,16.66,13.44,16.54,23.99,25.52,23.71,24.3,26.45,12.45,12.75,15.53,20.23,18.9,16.59,18.9,20.57,14.73,,5.99,19.69,18.18,21.28,22.28,27.95,,19.93,20.45,27.77,20.67,12.41,13.85,21.05,,,,23.84,23.84,24.77,,,,17.1,21.58,19.3,22.5,16.85,22.55,23.08,29.45,29.45,25.67,,29.45,25.09,,,,16.51,22.94,,,,,,,,,,,
175845077441001,Manoor,17.97916667,77.73611111,,,,,,,,,,,,,,,,,,,,,,,,,,,,,,,,,,,,,,,,,,,,,17.5,19.55,16.4,14.6,17.4,18.55,,,,,,,,,,,,,,,,,,,,,,,,,,,,,,,,,,,,,,,,,,,,,,,,,,,,,,,,,,,,,,,,,,,,,6.39,
173315078071001,Cherial,17.55416667,78.11944444,,,,,,,,,,,,,,,,,,,,,,,,,,,,,,,,,,,,,,,,,,,,,,,,,,,,,,,,,,,,,,,,,5.7,7.8,6.43,2.76,4.76,17.9,10.53,13.3,17.7,28.99,,12.27,16.37,27.15,10.86,3.43,9.51,14.2,18.06,13.33,18.2,17.56,24.2,20.17,,37.85,20.9,5.98,14.3,33.1,15.4,5,8.43,21.24,16.81,17.1,19.55,26.52,23.94,13.12,17.9,,,3.53,8.11,,23.17,10.18,11.87,17.83,3,2.52,4.12,13.15,8.18,
174540077425001,Jharasangam-pz,17.76111111,77.71388889,,,,,,,,,,,,,,,,,,,,,,,,,,,,,,,,,,,,,,,,,,,,,,,,,,,,,,,,,,,,,,,,,5.28,6.58,0.95,3.46,4.65,7.05,0.22,3.94,5.74,11.4,,5.03,6.58,14.68,1.65,0.67,3.86,6.68,6.23,6.66,7.03,9.3,5.83,6.38,,24.18,5.84,2.08,4.84,6.83,6.7,3.9,6.76,6.54,6.34,6.98,29.78,35.93,3.58,6.03,6.7,,,1.86,4.25,,,3.33,4.95,6.68,3.88,2.83,4.97,6.43,2.39,
173750077311501,Mannapur,17.63055556,77.52083333,,,,,,,,,,,,,,,,,,,,,,,,,,,,,,,,,,,,,,,,,,,,,,,,,,,,,,,,,,,,,,,,,12.7,14.55,3.6,4.8,6.9,9.6,5.8,6.48,9.64,14.21,,7.35,10.34,14.53,5.11,2.89,6.22,10,9.15,10.42,12.97,12.65,13.71,13.5,,17.7,8.61,3.75,7.2,13.3,5.07,3.8,5.07,12.02,8.15,8.95,12.5,13.23,8.6,8.56,10.61,,,2.7,5.56,,2.04,2.76,5.7,10.76,2.99,0.98,4.81,8.52,3.13,
174125077523001,Munipally,17.69027778,77.875,,,,,,,,,,,,,,,,,,,,,,,,,,,,,,,,,,,,,,,,,,,,,,,,,,,,,,,,,,,,,,,,,4.1,5.8,3.6,3.66,9.14,9.3,2.43,5.54,13.29,12.47,,6.15,8.48,15.62,5.05,2.5,5.67,9.57,12.23,9.96,11.9,17.4,12.38,11.62,,18.1,13.35,6.75,5.56,12.55,11.72,8.25,10.6,11.35,13.52,20.7,23.3,21.32,19.3,21.86,38.13,,,5.7,4.66,,3.4,4.77,4.65,7.06,3.4,3.68,4.53,4.89,3.75,
173620077431501,Kohir,17.60555556,77.72083333,,,,,,,,,,,,,,,,,,,,,,,,,,,,,,,,,,,,,,,,,,,,,,,,,,,,,,,,,,,,,,,,,,20.99,18.09,17.78,8.82,19.53,18.44,18.22,20.4,21,,18.6,20.6,21.08,18.83,17.93,18.16,18.33,17.69,19.08,19.18,18.73,18.09,18.93,,21.28,19.73,18.53,18.23,22.49,18.68,18.8,20.31,20.79,20.22,21.53,23.88,25.75,25.3,21.73,24.98,,,22.03,22.53,,20.54,19.59,20.73,20.61,18.03,16.19,16.67,17.99,15.1,
181350077422501,Tadkal,18.23055556,77.70694444,,,,,,,,,,,,,,,,,,,,,,,,,,,,,,,,,,,,,,,,,,,,,,,,,,,,,,,,,,,,,,,,,,,,,,,,,11.18,16.9,,15.38,9.03,14.85,5.48,7.4,9.57,13.87,14.38,15.95,18.5,21.25,21.15,21.86,,28.2,17.65,6.3,9.84,14.47,12.97,12.3,13.85,16.74,13.6,15.3,14.7,22.16,17.86,12.9,12.9,,,4.9,8.05,,8.1,5.98,7.9,15.21,7.3,7.81,,14.51,9.17,
174050078221502,Gumardalla1,17.68055556,78.37083333,,,,,,,,,,,,,,,,,,,,,,,,,,,,,,,,,,,,,,,,,,,,,,,,,,,,,,,,,,,,,,,,,,,,,,,,,,,,4.24,5.87,8.17,2.83,2.33,4.26,8.52,5.46,6.64,7.07,8.47,8.44,8.14,9.92,12.92,8.67,2.82,5.6,10.97,6.12,6.42,7.52,12.92,9.51,9.97,12.92,12.92,10.68,6.92,8.57,,,2.42,4.73,,3,4.46,4.02,6.98,2.1,1.66,2.29,0,1.75,
174416078100501,Hatnoor,17.73777778,78.16805556,,,,,,,,,,,,,,,,,,,,,,,,,,,,,,,,,,,,,,,,,,,,,,,,,,,,,,,,,,,,,,,,,,,,,,,,,,,,22.28,24.74,29.98,18,10.3,11.65,17.6,19.7,18.68,19.65,25.8,27.97,27.66,37.5,33.25,31.4,19.3,21,29.6,28.57,20.43,23.3,31.72,26.7,30.15,30.1,31.24,35,30.84,29.7,,,18.26,18.23,,20.11,10.65,16.88,24.64,16.96,13.3,14.78,21.07,19.7,
173436077373001,Malchelma,17.57666667,77.625,,,,,,,,,,,,,,,,,,,,,,,,,,,,,,,,,,,,,,,,,,,,,,,,,,,,,,,,,,,,,,,,,,,,,,,,,,,,22.65,22.19,23.4,21.2,15.12,20.22,22.6,25.75,26.82,22.5,46.1,29.38,52.88,69.5,,58.35,24.75,38.93,59.7,23.2,26.07,26.6,69.5,68.57,48.1,57.57,69.5,67.3,57.6,60.17,,,16.3,21.04,,14.86,18.26,18.36,26.97,15,15.65,19.15,21.1,16.97,
175259077525601,Nagulapally DW 2012,17.88305556,77.88222222,,,,,,,,,,,,,,,,,,,,,,,,,,,,,,,,,,,,,,,,,,,,,,,,,,,,,,,,,,,,,,,,,,,,,,,,,,,,5.12,4.93,7.58,0.8,2.35,3.13,5.3,4.65,4.53,5.18,6.2,5.17,6.4,7.7,,2.95,2.8,4.5,6.86,2.05,2.4,4.14,5.93,3.97,5.9,6.86,8.7,5.46,8.06,7.91,,,2.5,4.65,,1.88,0.91,4.1,7.2,1.86,,,,,
174150077314001,Satwar,17.69722222,77.52777778,,,,,,,,,,,,,,,,,,,,,,,,,,,,,,,,,,,,,,,,,,,,,,,,,,,,,,,,,,,,,,,,,,,,,,,,,,,,1.91,3.69,4.64,0.03,0.06,2.83,3.87,4.49,5.93,4.73,5,3.32,5.85,6,7.9,1.19,0.5,3.38,5.2,4.5,0.24,0.7,3.98,3.28,4.4,4.9,5.95,2.08,0.79,2.69,,,0.3,2.68,,,1.48,3.39,5.04,0.37,0.19,3.23,5.01,0.76,
175030077584001,Talelma,17.84166667,77.97777778,,,,,,,,,,,,,,,,,,,,,,,,,,,,,,,,,,,,,,,,,,,,,,,,,,,,,,,,,,,,,,,,,,,,,,,,,,,,14.58,,14.4,11.61,,,,,,,,,20.4,,,,,,,,13.5,14.1,22.04,35.67,36.7,39.5,47.61,45.26,25.38,,,,16.4,14.88,,13.52,38.23,12.56,18.85,11.4,6.17,10.15,15.08,26,
173307078161201,Rameshwaram Banda 2012DW,17.55194444,78.27,,,,,,,,,,,,,,,,,,,,,,,,,,,,,,,,,,,,,,,,,,,,,,,,,,,,,,,,,,,,,,,,,,,,,,,,,,,,,7.77,9.3,7.7,4.69,5.65,6.8,7.88,9.1,8.62,,8.8,8.37,9,9.3,9.15,5.75,6.7,8.09,7.6,4.22,5.47,7.55,7.62,7.6,8.15,8.79,8.5,3.45,6.81,,,4.6,6.14,,5.53,3.38,6.27,7.85,4.9,4.35,5.8,7.39,6.01,
180251078081001,Yusuf Peta-DW13,18.0475,78.13611111,,,,,,,,,,,,,,,,,,,,,,,,,,,,,,,,,,,,,,,,,,,,,,,,,,,,,,,,,,,,,,,,,,,,,,,,,,,,,,3,0.58,0.9,1.3,1.9,0.6,0.91,1.4,2.4,1.92,3.78,5.3,5.3,5.3,2.7,2.8,1.92,1.05,1.27,3.95,2.12,0.97,1.6,4.37,2.7,5.3,1.38,5.3,,,1.06,3.6,,0.8,,4.05,1.65,0.7,0.95,4.88,2.41,6.29,
180327078063201,Minpur-DW13,18.0575,78.10888889,,,,,,,,,,,,,,,,,,,,,,,,,,,,,,,,,,,,,,,,,,,,,,,,,,,,,,,,,,,,,,,,,,,,,,,,,,,,,,,,1.2,3.3,3.93,5.87,6.62,6.19,8.36,7.34,8.2,8.36,8.36,8.2,1.9,4.8,6.75,3.45,2.3,5.28,6.9,7.52,8.36,6.73,8.36,6.38,4.05,4.97,,,2.11,5.9,,,2.86,,,,,,,,
175112078035801,Annasagar-PZ,17.85333333,78.06611111,,,,,,,,,,,,,,,,,,,,,,,,,,,,,,,,,,,,,,,,,,,,,,,,,,,,,,,,,,,,,,,,,,,,,,,,,,,,,,,,,,,,,,,,,,22.45,20.4,5,5.81,20.75,18.4,,7.57,11.53,17.87,19.1,18.2,16.76,22.5,18.57,11.15,,,4.6,9.28,,12.7,5.01,4.16,5.08,5.18,3.78,7.01,7.04,5.85,
173817077524101,Aroor-PZ,17.63805556,77.87805556,,,,,,,,,,,,,,,,,,,,,,,,,,,,,,,,,,,,,,,,,,,,,,,,,,,,,,,,,,,,,,,,,,,,,,,,,,,,,,,,,,,,,,,,,,15.6,11.35,2.55,3.7,11.55,6.52,3.47,7.25,13.75,17.16,18.75,21.35,22.81,15.69,14.33,23.82,,,2.56,5.06,,2.7,1.74,3.59,9.63,1.75,1.95,5.67,10.76,3.53,
173927077555601,Atmakur-PZ,17.6575,77.93222222,,,,,,,,,,,,,,,,,,,,,,,,,,,,,,,,,,,,,,,,,,,,,,,,,,,,,,,,,,,,,,,,,,,,,,,,,,,,,,,,,,,,,,,,,,19.3,16.63,9.75,12,16.74,13,11.12,12.97,19.77,18.96,22.35,23.05,26.45,23.1,20.15,23.21,,,,16.16,,18,13.65,16.46,22.19,13.05,13.62,15.48,17.89,14.74,
173403077403501,Badampet,17.5675,77.67638889,,,,,,,,,,,,,,,,,,,,,,,,,,,,,,,,,,,,,,,,,,,,,,,,,,,,,,,,,,,,,,,,,,,,,,,,,,,,,,,,,,,,,,,,,,14.5,,,,,,,,,,,,,,,,,,,,,,,,,,,7.82,,,
180311077582401,Bodagutta,18.05305556,77.97333333,,,,,,,,,,,,,,,,,,,,,,,,,,,,,,,,,,,,,,,,,,,,,,,,,,,,,,,,,,,,,,,,,,,,,,,,,,,,,,,,,,,,,,,,,,11.7,,,,,,,,,,,,,,,,,,,,,,,,,,,,3.27,4.21,
175540077402401,Chalki,17.92777778,77.67333333,,,,,,,,,,,,,,,,,,,,,,,,,,,,,,,,,,,,,,,,,,,,,,,,,,,,,,,,,,,,,,,,,,,,,,,,,,,,,,,,,,,,,,,,,,37.9,,,,,,,,,,,,,,,,,,,,,,,,,,,,4.63,2.2,
174448077360401,Didigi,17.74666667,77.60111111,,,,,,,,,,,,,,,,,,,,,,,,,,,,,,,,,,,,,,,,,,,,,,,,,,,,,,,,,,,,,,,,,,,,,,,,,,,,,,,,,,,,,,,,,,14.6,,,,,,,,,,,,,,,,,,,,,,,,,,,1.38,7.75,,
173949077424401,Digwal-PZ,17.66361111,77.71222222,,,,,,,,,,,,,,,,,,,,,,,,,,,,,,,,,,,,,,,,,,,,,,,,,,,,,,,,,,,,,,,,,,,,,,,,,,,,,,,,,,,,,,,,,,25.8,24.59,13.7,13.12,22.45,15.4,11.48,17.6,21.83,21.95,30,33.37,25.46,30.68,23.84,25.2,,,13.3,15.58,,16.6,13.3,15.61,20.15,14.94,11.47,14.02,18.37,12.68,
175409077515601,Ghatpalli,17.9025,77.86555556,,,,,,,,,,,,,,,,,,,,,,,,,,,,,,,,,,,,,,,,,,,,,,,,,,,,,,,,,,,,,,,,,,,,,,,,,,,,,,,,,,,,,,,,,,11.8,,,,,,,,,,,,,,,,,,,,,,,,,,,3.1,7.34,,
174012077354801,Hoti-B,17.67,77.59666667,,,,,,,,,,,,,,,,,,,,,,,,,,,,,,,,,,,,,,,,,,,,,,,,,,,,,,,,,,,,,,,,,,,,,,,,,,,,,,,,,,,,,,,,,,13.3,,,,,,,,,,,,,,,,,,,,,,,,,,,,,,
173723078092401,Ismailkhanpet-PZ,17.62305556,78.15666667,,,,,,,,,,,,,,,,,,,,,,,,,,,,,,,,,,,,,,,,,,,,,,,,,,,,,,,,,,,,,,,,,,,,,,,,,,,,,,,,,,,,,,,,,,28.25,28.1,22.08,21.35,28.97,25.55,22.92,23.05,26.48,27.65,26.52,28.45,28.35,30.01,27.55,27.61,,,18.46,23.02,,19.25,17.87,18.84,20.73,17.6,16.17,16.32,21.71,,
174312078282501,Kallakal,17.72,78.47361111,,,,,,,,,,,,,,,,,,,,,,,,,,,,,,,,,,,,,,,,,,,,,,,,,,,,,,,,,,,,,,,,,,,,,,,,,,,,,,,,,,,,,,,,,,15.05,,,,,,,,,,,,,,,,,,,,,,,,,,,5.78,7.7,1.93,
174529078023001,Laxmisagar-PZ,17.75805556,78.04166667,,,,,,,,,,,,,,,,,,,,,,,,,,,,,,,,,,,,,,,,,,,,,,,,,,,,,,,,,,,,,,,,,,,,,,,,,,,,,,,,,,,,,,,,,,18.55,17.58,2.8,3.68,13.76,2.4,1.62,2.78,6.47,9.66,14.6,17.45,13.8,17.88,11.15,12.64,,,4.6,4.06,,2.9,2.23,2.49,7.9,2.47,1.62,3.7,6.19,2.07,
173526078035601,Malkapur-PZ,17.59055556,78.06555556,,,,,,,,,,,,,,,,,,,,,,,,,,,,,,,,,,,,,,,,,,,,,,,,,,,,,,,,,,,,,,,,,,,,,,,,,,,,,,,,,,,,,,,,,,27.6,50,,5.15,,,,50,,4.97,,50,50,50,,,,,,50,,,,50,31.46,,,7.48,,,
181015078581801,Mallaram-DW14,18.17083333,78.97166667,,,,,,,,,,,,,,,,,,,,,,,,,,,,,,,,,,,,,,,,,,,,,,,,,,,,,,,,,,,,,,,,,,,,,,,,,,,,,,,,,,,,,,,,,,11.42,,,,,,,,,,,,,,,,,,,,,,,,,,,7.16,,3.93,
175512077532401,Medikonda,17.92,77.89,,,,,,,,,,,,,,,,,,,,,,,,,,,,,,,,,,,,,,,,,,,,,,,,,,,,,,,,,,,,,,,,,,,,,,,,,,,,,,,,,,,,,,,,,,3.97,,,,,,,,,,,,,,,,,,,,,,,,,,,2.68,7.02,1.43,
173140078103202,Pashamalairam-PZ-I,17.52777778,78.17555556,,,,,,,,,,,,,,,,,,,,,,,,,,,,,,,,,,,,,,,,,,,,,,,,,,,,,,,,,,,,,,,,,,,,,,,,,,,,,,,,,,,,,,,,,,22.4,,,,,,,,,,,,,,,,,,,,,,,,,,,10.96,,,
174200077382901,Pastapur,17.7,77.64138889,,,,,,,,,,,,,,,,,,,,,,,,,,,,,,,,,,,,,,,,,,,,,,,,,,,,,,,,,,,,,,,,,,,,,,,,,,,,,,,,,,,,,,,,,,19.45,,,,,,,,,,,,,,,,,,,,,,,,,,,2.53,,4.3,
174956078153901,Rajipet-PZ,17.83222222,78.26083333,,,,,,,,,,,,,,,,,,,,,,,,,,,,,,,,,,,,,,,,,,,,,,,,,,,,,,,,,,,,,,,,,,,,,,,,,,,,,,,,,,,,,,,,,,36.65,38.1,24.05,31.68,33.53,28.45,26.69,27.7,33.98,38.03,37.3,38.65,41.87,36.67,31.59,30.53,,,20.48,32.73,,35.3,21.43,19.64,27.51,24.06,15.2,22.3,27.55,,
180934078554101,Ramanpatla,18.15944444,78.92805556,,,,,,,,,,,,,,,,,,,,,,,,,,,,,,,,,,,,,,,,,,,,,,,,,,,,,,,,,,,,,,,,,,,,,,,,,,,,,,,,,,,,,,,,,,13.55,,,,,,,,,,,,,,,,,,,,,,,,,,,5.7,,,
174648078153101,Reddypalli-PZ,17.78,78.25861111,,,,,,,,,,,,,,,,,,,,,,,,,,,,,,,,,,,,,,,,,,,,,,,,,,,,,,,,,,,,,,,,,,,,,,,,,,,,,,,,,,,,,,,,,,30.85,29.9,23.1,20.8,26.57,20,26.02,26.44,27.88,28.27,29.35,30.9,30.26,30.68,29.38,29.74,,,26.27,23.26,,27.3,23.55,11.31,18.16,23.47,16.42,15.71,22.73,21.66,
175825077524901,Regode,17.97361111,77.88027778,,,,,,,,,,,,,,,,,,,,,,,,,,,,,,,,,,,,,,,,,,,,,,,,,,,,,,,,,,,,,,,,,,,,,,,,,,,,,,,,,,,,,,,,,,16.25,,,,,,,,,,,,,,,,,,,,,,,,,,,5.12,9.03,,
175340078032901,Rollapadu-PZ,17.89444444,78.05805556,,,,,,,,,,,,,,,,,,,,,,,,,,,,,,,,,,,,,,,,,,,,,,,,,,,,,,,,,,,,,,,,,,,,,,,,,,,,,,,,,,,,,,,,,,32.25,28.62,23.2,21.66,28.32,20.04,24.4,25.75,29.14,30.96,32.4,34.2,34.94,35.36,26.6,30.31,,,23.1,18.72,,29.84,20.58,19.62,25.68,21.35,17.7,18.7,28.14,22.13,
173334078100801,Rudraram-PZ,17.55944444,78.16888889,,,,,,,,,,,,,,,,,,,,,,,,,,,,,,,,,,,,,,,,,,,,,,,,,,,,,,,,,,,,,,,,,,,,,,,,,,,,,,,,,,,,,,,,,,14.15,17,9.05,8.41,11.57,12.15,7.6,8.42,12.63,13.94,17.08,18.7,28.15,28.9,27.11,28.97,,,14.55,14.65,,32.59,16.11,15.08,22.01,11.89,10.31,12.04,14.41,13.48,
180605077445301,Sirgapur,18.10138889,77.74805556,,,,,,,,,,,,,,,,,,,,,,,,,,,,,,,,,,,,,,,,,,,,,,,,,,,,,,,,,,,,,,,,,,,,,,,,,,,,,,,,,,,,,,,,,,16.3,,,,,,,,,,,,,,,,,,,,,,,,,,,,12.57,,
174328078150101,Avancha-pz,17.72444444,78.25027778,,,,,,,,,,,,,,,,,,,,,,,,,,,,,,,,,,,,,,,,,,,,,,,,,,,,,,,,,,,,,,,,,,,,,,,,,,,,,,,,,,,,,,,,,,,,24.83,17.82,25.2,21.7,16.25,17.43,27.23,27.51,28.4,30.1,36.86,32.4,27.77,28.5,,,19.33,15.2,,23.07,13.52,13.28,21.75,15.48,10.1,10.67,18.89,17.87,
180310078162601,Medak IMD-Pz,18.05277778,78.27388889,,,,,,,,,,,,,,,,,,,,,,,,,,,,,,,,,,,,,,,,,,,,,,,,,,,,,,,,,,,,,,,,,,,,,,,,,,,,,,,,,,,,,,,,,,,,24.1,18.05,20.65,20.47,,19.8,,25.81,26.15,25.11,31.62,31.05,22.1,20.12,,,,12.5,,10.7,9.55,11.63,16.16,11,9.62,12.07,,,
173839078164701,Solakapalli-Pz,17.64416667,78.27972222,,,,,,,,,,,,,,,,,,,,,,,,,,,,,,,,,,,,,,,,,,,,,,,,,,,,,,,,,,,,,,,,,,,,,,,,,,,,,,,,,,,,,,,,,,,,8.96,4.87,7.28,6.49,1.35,2.03,7.18,5.03,7.65,10.6,19.84,10.18,3.27,4.55,,,1.5,3.72,,0.02,2.08,3.47,6.42,1.7,1,3.63,5.07,1.79,
174556078004501,Mudimanikyam-PZ,17.76555556,78.0125,,,,,,,,,,,,,,,,,,,,,,,,,,,,,,,,,,,,,,,,,,,,,,,,,,,,,,,,,,,,,,,,,,,,,,,,,,,,,,,,,,,,,,,,,,,,,13.16,16.96,11.42,11,13.5,16.98,18.44,19.8,20.8,22.65,22.5,16.96,17.45,,,9.65,11.42,,11.7,8.58,10.91,14.7,7.6,6.78,10.43,12.74,7.46,
174607077572501,Peddareddypet-PZ,17.76861111,77.95694444,,,,,,,,,,,,,,,,,,,,,,,,,,,,,,,,,,,,,,,,,,,,,,,,,,,,,,,,,,,,,,,,,,,,,,,,,,,,,,,,,,,,,,,,,,,,,7.1,7.95,5.7,4.5,6.48,6.56,6.09,7.3,9.5,9.01,8.6,7.71,7.81,,,4.7,4.85,,4.4,3.45,4.42,6.12,2.65,2.24,3.59,4.29,2.82,
174033078061001,Shivampet-PZ,17.67583333,78.10277778,,,,,,,,,,,,,,,,,,,,,,,,,,,,,,,,,,,,,,,,,,,,,,,,,,,,,,,,,,,,,,,,,,,,,,,,,,,,,,,,,,,,,,,,,,,,,16.85,26.37,20.8,15.88,16.75,21.12,19.45,23.25,21.08,30.65,29.35,21.91,23.19,,,13.95,15.49,,23.39,11.56,12.05,18.76,5.53,3.85,8.3,14.43,4.92,
CGWHYD0245,Avancha_1,17.7244,78.2503,,,,,,,,,,,,,,,,,,,,,,,,,,,,,,,,,,,,,,,,,,,,,,,,,,,,,,,,,,,,,,,,,,,,,,,,,,,,,,,,,,,,,,,,,,,,,,,,,,,,,,,,,,,,,,,,,,,,,16.11,19.13,17.91,
CGWHYD0241,Bodagattu,18.0486,77.9794,,,,,,,,,,,,,,,,,,,,,,,,,,,,,,,,,,,,,,,,,,,,,,,,,,,,,,,,,,,,,,,,,,,,,,,,,,,,,,,,,,,,,,,,,,,,,,,,,,,,,,,,,,,,,,,,,,,,,4.99,3.27,2.23,
CGWHYD0234,Gurralagondi,18.2108,78.8255,,,,,,,,,,,,,,,,,,,,,,,,,,,,,,,,,,,,,,,,,,,,,,,,,,,,,,,,,,,,,,,,,,,,,,,,,,,,,,,,,,,,,,,,,,,,,,,,,,,,,,,,,,,,,,,,,,,,,10.47,9.6,7.7,
CGWHYD0246,IMD Medak,18.0528,78.2739,,,,,,,,,,,,,,,,,,,,,,,,,,,,,,,,,,,,,,,,,,,,,,,,,,,,,,,,,,,,,,,,,,,,,,,,,,,,,,,,,,,,,,,,,,,,,,,,,,,,,,,,,,,,,,,,,,,,,14.44,26.32,,
CGWHYD0235,Kallakal_1,17.70611111,78.4775,,,,,,,,,,,,,,,,,,,,,,,,,,,,,,,,,,,,,,,,,,,,,,,,,,,,,,,,,,,,,,,,,,,,,,,,,,,,,,,,,,,,,,,,,,,,,,,,,,,,,,,,,,,,,,,,,,,,,3.85,,,
CGWHYD0242,Kallakal_1,17.7083,78.4761,,,,,,,,,,,,,,,,,,,,,,,,,,,,,,,,,,,,,,,,,,,,,,,,,,,,,,,,,,,,,,,,,,,,,,,,,,,,,,,,,,,,,,,,,,,,,,,,,,,,,,,,,,,,,,,,,,,,,6.82,7.6,3.44,
CGWHYD0239,Kaudipally-Pz_1,17.9014,78.2078,,,,,,,,,,,,,,,,,,,,,,,,,,,,,,,,,,,,,,,,,,,,,,,,,,,,,,,,,,,,,,,,,,,,,,,,,,,,,,,,,,,,,,,,,,,,,,,,,,,,,,,,,,,,,,,,,,,,,21.19,22.94,20.83,
CGWHYD0238,Kulcharam-Pz_1,17.9564,78.1914,,,,,,,,,,,,,,,,,,,,,,,,,,,,,,,,,,,,,,,,,,,,,,,,,,,,,,,,,,,,,,,,,,,,,,,,,,,,,,,,,,,,,,,,,,,,,,,,,,,,,,,,,,,,,,,,,,,,,15.54,,12.12,
CGWHYD0229,Manoharabad,17.765761,78.463667,,,,,,,,,,,,,,,,,,,,,,,,,,,,,,,,,,,,,,,,,,,,,,,,,,,,,,,,,,,,,,,,,,,,,,,,,,,,,,,,,,,,,,,,,,,,,,,,,,,,,,,,,,,,,,,,,,,,,23.35,23.11,19.81,
CGWHYD0233,Medipalli_1,17.1633,78.9631,,,,,,,,,,,,,,,,,,,,,,,,,,,,,,,,,,,,,,,,,,,,,,,,,,,,,,,,,,,,,,,,,,,,,,,,,,,,,,,,,,,,,,,,,,,,,,,,,,,,,,,,,,,,,,,,,,,,,1.59,5.32,3.98,
CGWHYD0226,Narsapur_1,17.7377,78.28766,,,,,,,,,,,,,,,,,,,,,,,,,,,,,,,,,,,,,,,,,,,,,,,,,,,,,,,,,,,,,,,,,,,,,,,,,,,,,,,,,,,,,,,,,,,,,,,,,,,,,,,,,,,,,,,,,,,,,10.17,10.42,9.38,
CGWHYD0231,Patigadda Thada,18.098057,78.248605,,,,,,,,,,,,,,,,,,,,,,,,,,,,,,,,,,,,,,,,,,,,,,,,,,,,,,,,,,,,,,,,,,,,,,,,,,,,,,,,,,,,,,,,,,,,,,,,,,,,,,,,,,,,,,,,,,,,,8.83,8.94,8.51,
CGWHYD0244,Rajipet-PZ_1,17.8322,78.2608,,,,,,,,,,,,,,,,,,,,,,,,,,,,,,,,,,,,,,,,,,,,,,,,,,,,,,,,,,,,,,,,,,,,,,,,,,,,,,,,,,,,,,,,,,,,,,,,,,,,,,,,,,,,,,,,,,,,,24.32,,29.68,
CGWHYD0236,Ramayampet_1,18.11388889,78.42972222,,,,,,,,,,,,,,,,,,,,,,,,,,,,,,,,,,,,,,,,,,,,,,,,,,,,,,,,,,,,,,,,,,,,,,,,,,,,,,,,,,,,,,,,,,,,,,,,,,,,,,,,,,,,,,,,,,,,,9.55,10.73,5.91,
CGWHYD0237,Ramayampet-Pz_1,18.1142,78.4269,,,,,,,,,,,,,,,,,,,,,,,,,,,,,,,,,,,,,,,,,,,,,,,,,,,,,,,,,,,,,,,,,,,,,,,,,,,,,,,,,,,,,,,,,,,,,,,,,,,,,,,,,,,,,,,,,,,,,11.75,12.42,7.6,
CGWHYD0243,Reddypalli_1,17.78,78.25861,,,,,,,,,,,,,,,,,,,,,,,,,,,,,,,,,,,,,,,,,,,,,,,,,,,,,,,,,,,,,,,,,,,,,,,,,,,,,,,,,,,,,,,,,,,,,,,,,,,,,,,,,,,,,,,,,,,,,20.26,22.97,,
CGWHYD0240,Regode_1,17.975,77.8456,,,,,,,,,,,,,,,,,,,,,,,,,,,,,,,,,,,,,,,,,,,,,,,,,,,,,,,,,,,,,,,,,,,,,,,,,,,,,,,,,,,,,,,,,,,,,,,,,,,,,,,,,,,,,,,,,,,,,8.15,9.27,,
CGWHYD0230,Shankarampet_1,17.984503,78.412047,,,,,,,,,,,,,,,,,,,,,,,,,,,,,,,,,,,,,,,,,,,,,,,,,,,,,,,,,,,,,,,,,,,,,,,,,,,,,,,,,,,,,,,,,,,,,,,,,,,,,,,,,,,,,,,,,,,,,21.54,23.48,24.82,
CGWHYD0232,Shivampet_1,17.786301,78.369658,,,,,,,,,,,,,,,,,,,,,,,,,,,,,,,,,,,,,,,,,,,,,,,,,,,,,,,,,,,,,,,,,,,,,,,,,,,,,,,,,,,,,,,,,,,,,,,,,,,,,,,,,,,,,,,,,,,,,10.82,12.7,6.05,
CGWHYD0228,Tupran,17.803479,78.470868,,,,,,,,,,,,,,,,,,,,,,,,,,,,,,,,,,,,,,,,,,,,,,,,,,,,,,,,,,,,,,,,,,,,,,,,,,,,,,,,,,,,,,,,,,,,,,,,,,,,,,,,,,,,,,,,,,,,,20.26,21.95,13.84,
CGWHYD0247,Wadiyaram,17.9573,78.4649,,,,,,,,,,,,,,,,,,,,,,,,,,,,,,,,,,,,,,,,,,,,,,,,,,,,,,,,,,,,,,,,,,,,,,,,,,,,,,,,,,,,,,,,,,,,,,,,,,,,,,,,,,,,,,,,,,,,,8.2,7.11,4.99,
CGWHYD0227,Zapthi Shivnoor,18.069046,78.42611,,,,,,,,,,,,,,,,,,,,,,,,,,,,,,,,,,,,,,,,,,,,,,,,,,,,,,,,,,,,,,,,,,,,,,,,,,,,,,,,,,,,,,,,,,,,,,,,,,,,,,,,,,,,,,,,,,,,,9.52,9.7,7.93,
