station_id,station_name,latitude,longitude,1994_season1,1994_season2,1994_season3,1994_season4,1995_season1,1995_season2,1995_season3,1995_season4,1996_season1,1996_season2,1996_season3,1996_season4,1997_season1,1997_season2,1997_season3,1997_season4,1998_season1,1998_season2,1998_season3,1998_season4,1999_season1,1999_season2,1999_season3,1999_season4,2000_season1,2000_season2,2000_season3,2000_season4,2001_season1,2001_season2,2001_season3,2001_season4,2002_season1,2002_season2,2002_season3,2002_season4,2003_season1,2003_season2,2003_season3,2003_season4,2004_season1,2004_season2,2004_season3,2004_season4,2005_season1,2005_season2,2005_season3,2005_season4,2006_season1,2006_season2,2006_season3,2006_season4,2007_season1,2007_season2,2007_season3,2007_season4,2008_season1,2008_season2,2008_season3,2008_season4,2009_season1,2009_season2,2009_season3,2009_season4,2010_season1,2010_season2,2010_season3,2010_season4,2011_season1,2011_season2,2011_season3,2011_season4,2012_season1,2012_season2,2012_season3,2012_season4,2013_season1,2013_season2,2013_season3,2013_season4,2014_season1,2014_season2,2014_season3,2014_season4,2015_season1,2015_season2,2015_season3,2015_season4,2016_season1,2016_season2,2016_season3,2016_season4,2017_season1,2017_season2,2017_season3,2017_season4,2018_season1,2018_season2,2018_season3,2018_season4,2019_season1,2019_season2,2019_season3,2019_season4,2020_season1,2020_season2,2020_season3,2020_season4,2021_season1,2021_season2,2021_season3,2021_season4,2022_season1,2022_season2,2022_season3,2022_season4,2023_season1,2023_season2,2023_season3,2023_season4
191925082404202,Anchalguma1,19.32361111,82.67833333,,,,,3.76,6.48,1.32,2.03,3.44,6.79,1.23,2.83,4.35,7.42,1,2.49,3.62,6.57,1.61,1.9,3.33,6.89,2.65,,4.13,6.66,0.98,2.89,4.35,7.86,0.36,2.53,4.03,7.28,0.89,3.71,5.63,7.74,0.83,1.58,3.13,5.83,0.98,2.07,3.4,5.45,0.97,2.03,4.35,6.16,0.58,1.94,3.19,5.83,0.78,1.93,3.53,5.63,4.33,2.53,3.83,7.23,0.93,2.48,4.13,7.03,0.78,1.68,2.63,5.23,3.03,2.63,4.13,7.13,,2.35,3.55,6.05,1.35,1.45,2.85,5.25,1.15,1.95,3.35,4.25,1.25,2.55,,6.05,,2.15,3.55,5.85,1.5,0.63,0.83,7.43,0.65,,4.43,5.53,0.03,1.85,3.02,,,1.87,3.33,,0.92,2.23,2.74,5.36,1.18,2.53,,6.84,1.92,
194158082074701,Bhaskel-dam sit,19.69944444,82.12972222,,,,,4.62,6.84,1.17,3.35,5.01,8.45,1.2,2.86,4.43,7.67,1.9,3.27,4.3,7.33,5.06,2.27,4.43,8.4,0.65,,4.85,7.65,0.89,3.47,5.18,7.44,0.28,2.41,3.38,,1.48,3.97,6.43,7.41,2.31,3.58,,7.93,1.48,4.05,6.51,6.3,3.11,,5.18,5.53,0.53,2.15,2.63,7.29,0.49,2.1,7.2,8.3,2,1.45,3.43,7.63,0.31,1.22,2.82,7.95,2.15,2.14,3.92,5.38,2.22,2.28,2.65,,,,,,,,,,,,,,,,,,2,2.4,3.8,,2.4,2.15,2.6,7.2,2.6,,5.7,5.7,1.2,5.12,5.89,,,5.18,5.55,,4.78,5.7,5.2,8.76,2.07,4.19,,9.34,2.45,
192710082243001,Debugaon,19.45277778,82.40833333,,,,,2.52,3.69,1.18,2.1,2.69,5.09,1.27,3,2.86,4.52,1.07,1.94,2.45,,,2.17,2.69,,0.6,,2.85,4.16,1.49,2.62,3.06,5.5,0.93,2.16,2.7,,1.22,2.71,3.53,5.91,2.05,2.08,,3.54,1.2,1.2,3.69,,3.31,1.61,3.06,9.1,2.43,1.73,,3.91,0.38,1.96,3.08,3.56,1.61,1.82,2.35,5.16,1.32,1.58,2.6,4.95,1.8,2.64,2.41,2.81,1.48,2.72,3.4,4.9,,2,2.5,3.1,1.4,1.92,2.1,3.8,1.05,2.2,2.4,0.52,0.52,1.75,,5.5,1.3,1.3,3.5,3.9,1.2,0.6,1.5,2.5,0.8,,3,4,1,2.51,3.12,,,4.01,2.45,,2.23,,,4.19,2.91,4.41,,,,
191905082255701,Dengaguda,19.31805556,82.4325,,,,,5.76,7.07,2.15,4.73,5.78,,1.73,4.43,5.63,6.5,2.17,4.53,4.18,6.66,4.91,5,4.84,7.33,3.27,,5.03,6.45,1.68,4.54,5.5,7.03,0.2,4.19,5.43,8.13,2.9,5.31,6.53,,,2.2,5.03,6.63,0.83,3.73,5.03,,,,,,,,,,0.3,1.85,4.1,5.7,5.21,2.8,4.1,6,0.1,3.2,4.75,6,0.3,0.55,1,5.2,0.2,0.5,4.3,5.6,,3.6,5.2,7.1,1.8,2.4,5.2,6.5,1.3,4.1,5.3,5.4,1.3,3.95,,6,1.7,3.3,5.55,6.05,1.5,,5.47,5.2,1.3,,3.9,,1.2,2.65,3.9,,,1.84,3.6,,0.37,2.8,3.8,,0.5,3.32,,0,0.72,
193935082041001,Dondasora,19.65972222,82.06944444,,,,,2.27,3.22,0.85,1.67,2.52,3.83,0.17,1.28,2.77,3.59,0.32,1.6,1.95,3.86,0.36,1.29,2.92,4.42,0.17,,3.12,3.78,0.29,1.86,2.92,4.22,0.51,1.32,2.76,,2.43,4.41,3.86,7.61,2.73,4.3,,7.53,,4.41,2.61,7.32,3.57,,2.92,3.52,0.59,0.57,2.71,3.45,1.14,1.41,2.77,3.14,0.27,1.22,2.8,3.67,0.34,1.37,3.25,4.07,,,,1.24,,,3.32,,,,4,,0.4,0.8,1.8,,0.35,0.62,2.1,0.24,0.24,0.95,,,1.2,1.3,,6.7,0.7,0.22,1.72,0.72,0.52,,1.57,4.72,0.02,0.92,2.32,,,1.11,2.42,,0.98,2.79,3.29,4.86,,1.62,,4.63,,
194242082220601,Jharigan,19.71166667,82.36833333,,,,,3.33,5.3,0.95,2.14,3.36,5.97,0.99,2.41,4.03,5.94,0.79,1.9,2.48,5.19,1.22,1.71,3.18,5.39,0.49,,3.52,6.3,1.01,3.77,4.28,5.92,0.21,2.64,3.55,,4.01,3.58,5.11,6.6,2.08,3.46,,,0.71,,,,,,4.28,6.21,1.16,2.06,2.54,6.26,1.2,1.25,2.79,5.41,,1.17,2.87,7.84,0.4,0.81,3.18,7.99,,,2.26,5.48,,,2.31,5.69,,2.3,3.6,5.9,1.1,1.45,2.1,8.5,0.65,1.9,2.85,4.4,0.95,2.35,,6.5,,2,3.85,7,1.8,1.29,1.69,7.69,0.59,,3.79,6.99,0.29,1.95,2.93,,,,,,,,,,,,,7.71,4.33,
191812082204501,Kodinga,19.30333333,82.34583333,,,,,5.11,11.27,1.79,3.59,5.37,11.22,0.62,3.2,4.84,8.24,0.84,3.14,4.44,6.42,0.87,0.89,4.51,8.32,5.16,,5.24,10.73,,3.7,5.89,10.96,0.5,2.96,5.46,,0.59,3.33,6.24,10.72,,1.52,4.14,9.74,0.69,2.4,4.54,9.97,0.99,3.58,5.89,8.55,0.54,2.32,4.36,6.84,0.64,2.39,4.44,7.64,5.03,3.34,4.94,8.94,0.74,3.04,4.84,9.34,0.74,1.49,3.64,5.04,0.34,2.94,4.74,9.04,,2.6,4.45,6.65,0.82,0.95,3.85,5.65,0.75,2.55,5.4,5.45,1.05,2.95,,7.75,0.55,2.55,4.45,8.45,1.3,0.84,1.14,8.54,2.04,,4.14,4.54,0.89,2.5,4.12,,,1.78,3.74,,0.54,2.21,3.69,5.61,0.76,3.65,,6.24,1.02,
191635082143401,Kosagumunda,19.27638889,82.24277778,,,,,4.8,4.18,2.5,4.85,5.78,7.28,1.39,4.5,5.4,7.36,1.97,,5.57,7.33,2.1,1.7,5.54,9.41,6.31,,5.5,7.4,,5.07,6.72,7.38,1.3,4.92,7.2,,1.9,5.01,7.17,,,,5.7,,1.55,4.13,,5.41,1.19,2.97,6.72,6.59,1.85,3.37,5.03,6.8,0.6,2.5,4.2,4.5,5.29,3.3,4.4,7.69,1.01,3.8,5.3,7.05,0.6,2.45,4.2,3.9,0.2,4,5,8.2,,3.7,4.5,4.8,2.23,4.5,4.5,5.4,1.2,3.7,4.6,4.2,1.05,3.7,,,1,3.65,4.6,5,1.25,1.2,2.2,2.2,1.5,,5.35,6.5,0.8,,5.41,,,,,,,,,,,,,4.9,1.58,
192802082343201,Maidalpur1,19.46722222,82.57555556,,,,,4.58,7.19,1.2,1.94,4.78,6.84,0.49,1.81,4.81,6.4,0.79,2.04,2.85,4.22,1.06,0.91,2.73,6.09,0.59,,4.36,6.11,0.5,3.11,5.38,6.53,,2.1,4.47,,1.34,4.3,6.58,7.54,0.72,2.06,,6.02,0.46,2.85,6.66,6.17,0.97,3,5.38,6.84,1.41,1.32,4.21,6.46,1.16,0.76,4.32,6.16,0.57,0.74,3.76,3.26,0.71,0.39,4.11,3.36,0.59,,3.92,1.46,0.59,1.59,1.15,6.54,,1.5,4.1,6.9,0.8,0.9,4.25,6.3,0.8,1.55,3.62,6.55,,1.55,,7.7,1.5,1.8,3.9,7.1,1.4,0.64,0.94,7.14,0.44,,3.54,3.94,0.24,1.1,3.52,,,0.91,2.84,,0.52,,,,,,,7.06,0.57,
195315082043001,Raigarh,19.8875,82.075,,,,,6.73,8.82,3.72,5.73,7.97,11.08,4.03,6.86,9.14,10.58,5.5,5.72,5.6,9.21,6.93,7.27,9.27,8.73,3.98,,8.82,13.9,6.23,7.67,9.23,,0.5,,,,,8.57,10.8,,4.13,4.81,,,3.52,3.52,10.92,,3.7,,9.23,8.9,1.03,5.1,2.89,9.22,3.82,5.02,9,8.85,2.9,3.4,3.32,9.22,1.62,4.25,4.36,9.15,2.85,4.3,3.55,6.57,2.72,4.52,5.25,,,,,,,,,,,,,,,,,,,,,,,,,,,,,,,,,,,,,,,,,,,,,8.91,0.76,
191240082270701,Sonamasigan,19.21111111,82.45194444,,,,,3.5,6.23,1.65,2.05,3.58,3.28,0.64,3.1,4.4,5.28,0.08,2.25,3.06,4.47,1.19,1.37,2.52,,7.37,,5.35,6.4,1.15,2.3,3.92,,,2.53,4.5,3.75,0.9,2.46,4.65,,,,2.75,5.85,0.8,1.7,3.45,,2.37,1.55,3.92,5.13,0.6,1.56,3.3,6.35,0.65,2.45,3.45,6.35,5.42,2.35,4.15,6.75,0.65,1.85,3.55,6.75,0.75,0.9,2.35,5.85,0.25,2.25,3.95,5.05,,1.9,3.65,,1.32,1.25,2.65,,0.65,1.45,3.15,0.55,0.55,2.15,,,0.65,1.75,3.45,7.5,0.7,0.25,0.65,6.65,0.6,,2.95,5.95,0.65,2.5,,,,,,,,,,,,,,0,1.32,
193950082122501,Umarkot,19.66388889,82.20694444,,,,,2.11,3.57,1.16,0.66,2.11,4.05,0.4,0.07,2.18,3.31,0.14,0.43,1.68,3.99,1.25,0.02,1.66,4.49,0.92,,1.98,4.64,0.25,0.99,2.65,4.41,0.1,0.95,2.91,,0.53,1.12,4.06,7.22,3.02,1.79,,1.93,0.11,0.33,3.26,4.99,2.98,,2.65,5.81,2.48,0.34,2.03,4.18,1.11,0.33,2.37,1.74,0.11,0.11,1.86,4.42,0.29,0.23,2.59,4.26,0.79,0.35,1.9,1.78,0.62,0.46,1.65,4.31,,0.3,2.8,4.35,0.6,0.55,1.85,1,0.45,0.5,1.86,4.25,0.35,0.52,,5,,1,,4.3,0.75,0.16,0.31,2.01,0.21,,1.61,2.71,0.21,0.61,2.44,,,0.68,3.51,,0.51,,2.93,4.72,1.26,,,5.78,1.7,
191635082145401,Kosagumuda,19.27638889,82.24833333,,,,,,,,,,,,,,,,,,,,,,,,,,,,,,,,,,,1.2,4.23,,,,,,,,,,,,,,8.35,1.95,,,,,3.4,6.4,5.92,2.95,1.78,5,5.05,2.25,3.75,5.15,10.4,1.55,,5.15,4.9,2.55,3.7,4.06,7.7,,5.3,6.1,6.4,,4.25,5.6,6.45,2,3.55,,,,,,4.95,,,,,,,,7.6,,,8.2,7.2,1.05,,8.42,,,,,,6.6,,,,,,,,,
193935082124601,Baheda,19.65972222,82.21277778,,,,,,,,,,,,,,,,,,,,,,,,,,,,,,,,,,,,,,,,,,,,,,,,,,,,,,,,,,,,,,,,,,,,,,,,,,,,3.8,5.3,,2.2,1.2,3.75,5.7,2.4,1.9,4.65,,2.25,2.05,5.35,8.7,2.7,3,4.7,6.8,2.4,1.7,2.2,8.1,1.3,,5.7,7.2,0.5,5,5.9,,,2.74,3.85,,4.3,4.06,5.14,7.11,1.76,,,5.87,1.62,
191244082335101,Daibata,19.21222222,82.56416667,,,,,,,,,,,,,,,,,,,,,,,,,,,,,,,,,,,,,,,,,,,,,,,,,,,,,,,,,,,,,,,,,,,,,,,,,,,,,7,8.4,3.56,3.5,5.9,8.4,2.4,4.5,6.6,7.5,2.6,5.1,6.9,8.4,3,4.2,7.1,7.85,3.5,2.9,3.5,8.8,2.2,,5.8,8.8,0.4,4.27,6.49,,,4.19,6.2,,3.61,5.28,6.43,9.37,4,6.04,,6.9,3.88,
193849082233701,Fufugaon,19.64694444,82.39361111,,,,,,,,,,,,,,,,,,,,,,,,,,,,,,,,,,,,,,,,,,,,,,,,,,,,,,,,,,,,,,,,,,,,,,,,,,,,,3,5.5,1.1,2.6,3.8,5.4,1.15,2.3,3.86,4.35,1.25,2.55,2.93,6.2,2.5,3,5.1,7,2.3,1.9,2.4,7.2,1,,3.4,6.2,0.4,3.4,4.49,,,2.94,3.3,,1.75,2.93,2.96,4.83,1.33,3.41,,5.62,3.24,
191328082213901,Karchamal,19.22444444,82.36083333,,,,,,,,,,,,,,,,,,,,,,,,,,,,,,,,,,,,,,,,,,,,,,,,,,,,,,,,,,,,,,,,,,,,,,,,,,,,,7.1,8.9,1.5,1.55,5.7,8.65,0.9,3.7,7.3,9,3.9,4.9,7.5,9.7,2.55,4.95,7.8,10,3.5,3.2,3.7,9.9,1.9,,6.3,8.8,0.9,4.44,7.24,,,3.84,7.1,,3.1,4.62,6.8,,1.94,5.64,,9.76,2.01,
191502082354101,Kurlaghati,19.25055556,82.59472222,,,,,,,,,,,,,,,,,,,,,,,,,,,,,,,,,,,,,,,,,,,,,,,,,,,,,,,,,,,,,,,,,,,,,,,,,,,,,3.6,3.8,0.38,2.3,2.4,3.8,2.2,2.35,2.7,3.7,2.7,2.85,2.9,3.8,0.6,1.2,2.95,3.85,1.2,0.8,1.4,3.7,0.4,,3.7,3.7,0.4,1.02,2.43,,,1.42,2.5,,1.3,1.8,1.9,4.07,1.36,1.7,,0,1.42,
191602082423301,Digi,19.26722222,82.70916667,,,,,,,,,,,,,,,,,,,,,,,,,,,,,,,,,,,,,,,,,,,,,,,,,,,,,,,,,,,,,,,,,,,,,,,,,,,,,,5.4,1.37,1.75,2.9,4.5,1.35,2,3,3.8,1.45,2.3,3.2,4.5,1.6,2.3,3.1,4.6,1.3,0.2,1.3,8.3,0.83,,2.7,6.7,0.1,2.11,2.84,,,2.09,2.95,,1.41,2.55,2.78,4.64,1.47,2.65,,4.72,1.58,
191413082401201,Nandahandi,19.23694444,82.67,,,,,,,,,,,,,,,,,,,,,,,,,,,,,,,,,,,,,,,,,,,,,,,,,,,,,,,,,,,,,,,,,,,,,,,,,,,,,,5.4,2.18,2.45,3.2,4.7,2.5,2.7,3.3,4,1.6,2.8,3.5,5.9,2.8,3,3.85,5.8,2,1.3,2.1,6.2,1.3,,3.7,5.2,1.1,2.82,3.44,,,3.06,3.5,,2.5,2.9,3.2,4.39,2.48,3.09,,5.36,2.62,
191913082233102,Baksaguda,19.32027778,82.39194444,,,,,,,,,,,,,,,,,,,,,,,,,,,,,,,,,,,,,,,,,,,,,,,,,,,,,,,,,,,,,,,,,,,,,,,,,,,,,,,,,5,6.4,2.9,4.2,5.3,6.3,4.7,4.5,5.4,6.5,2.7,4.1,5.35,6.5,4.5,4.2,4.9,5,2.9,,4.7,5.5,1.3,4.6,5.3,,,3.99,4.9,,3.82,4.6,,,2.85,4.78,,0,3.03,
191806082180801,Dadia-Majhiguda,19.30166667,82.30222222,,,,,,,,,,,,,,,,,,,,,,,,,,,,,,,,,,,,,,,,,,,,,,,,,,,,,,,,,,,,,,,,,,,,,,,,,,,,,,,,,4,5.9,1.3,2.6,4.5,5.5,1.2,3.15,4.8,6.1,1.2,2.6,4.6,6.15,1.4,0.5,1.15,8.15,,,4.6,,0.15,2.8,4.13,,,,,,,,,,,,,,,
191405082341801,Rangamatiguda,19.23472222,82.57166667,,,,,,,,,,,,,,,,,,,,,,,,,,,,,,,,,,,,,,,,,,,,,,,,,,,,,,,,,,,,,,,,,,,,,,,,,,,,,,,,,7.6,10,2.8,5.4,7.9,10,6.1,6.1,8.2,10.4,2.9,5.2,7.9,10.1,5.3,4,4.5,7.5,2.9,,7.3,10.3,0.4,7.13,8.19,,,5.96,7.9,,4.6,7.45,8.85,10.67,2.5,6.89,,8.04,2.34,
191409082325601,Nowrangpur 1,19.23583333,82.54888889,,,,,,,,,,,,,,,,,,,,,,,,,,,,,,,,,,,,,,,,,,,,,,,,,,,,,,,,,,,,,,,,,,,,,,,,,,,,,,,,,,,,,2,2.3,4.25,1.7,2.1,3.3,0.9,1.6,2,2.9,4,3.15,3.4,2.65,1.1,,3.4,1.4,0.1,1.56,2.8,,,1.59,1.7,,1.18,1.58,1.59,1.59,1.12,1.4,,2.61,1.07,
191437082391901,Sagarmunda,19.24361111,82.65527778,,,,,,,,,,,,,,,,,,,,,,,,,,,,,,,,,,,,,,,,,,,,,,,,,,,,,,,,,,,,,,,,,,,,,,,,,,,,,,,,,,,,,2.7,3.7,0.75,2.3,3.1,4.2,1.7,2.15,3,4.2,1.3,0.6,0.9,2.9,0.93,,3,5.6,0.3,2.1,2.65,,,2.49,3,,2.07,2.55,3.24,4.46,1.7,2.5,,3.5,1.54,
191816082431601,Tentulikunti 2,19.30444444,82.72111111,,,,,,,,,,,,,,,,,,,,,,,,,,,,,,,,,,,,,,,,,,,,,,,,,,,,,,,,,,,,,,,,,,,,,,,,,,,,,,,,,,,,,3.25,3.8,0.95,2.55,3.65,5.85,,2.15,3.5,5.65,1.4,0.75,1.55,8.15,0.45,,3.65,3.65,0.25,2.04,2.98,,,1.91,2.65,,1.02,2.27,2.63,5.18,1.05,2.56,,5.99,1.68,
192100082311901,Papadahandi1,19.35,82.52194444,,,,,,,,,,,,,,,,,,,,,,,,,,,,,,,,,,,,,,,,,,,,,,,,,,,,,,,,,,,,,,,,,,,,,,,,,,,,,,,,,,,,,,,,,,6.9,4.25,4.8,5.9,6.6,3,2.55,5.15,7.15,1.75,,6.25,3.65,0.85,5.21,6.63,,,4.97,6.15,,4.96,6.31,6.05,7.74,2.78,5.87,,8.2,3.17,
191716082430901,Udaipur,19.28777778,82.71916667,,,,,,,,,,,,,,,,,,,,,,,,,,,,,,,,,,,,,,,,,,,,,,,,,,,,,,,,,,,,,,,,,,,,,,,,,,,,,,,,,,,,,,,,,,4.2,1.45,2.3,2.7,4.3,1.5,0.4,0.7,2.45,1.84,,2.5,4.2,0.8,1.79,2.82,,,2.11,2.8,,1.92,2.41,2.85,4.59,1.6,2.35,,5.74,2.22,
