station_id,station_name,latitude,longitude,1994_season1,1994_season2,1994_season3,1994_season4,1995_season1,1995_season2,1995_season3,1995_season4,1996_season1,1996_season2,1996_season3,1996_season4,1997_season1,1997_season2,1997_season3,1997_season4,1998_season1,1998_season2,1998_season3,1998_season4,1999_season1,1999_season2,1999_season3,1999_season4,2000_season1,2000_season2,2000_season3,2000_season4,2001_season1,2001_season2,2001_season3,2001_season4,2002_season1,2002_season2,2002_season3,2002_season4,2003_season1,2003_season2,2003_season3,2003_season4,2004_season1,2004_season2,2004_season3,2004_season4,2005_season1,2005_season2,2005_season3,2005_season4,2006_season1,2006_season2,2006_season3,2006_season4,2007_season1,2007_season2,2007_season3,2007_season4,2008_season1,2008_season2,2008_season3,2008_season4,2009_season1,2009_season2,2009_season3,2009_season4,2010_season1,2010_season2,2010_season3,2010_season4,2011_season1,2011_season2,2011_season3,2011_season4,2012_season1,2012_season2,2012_season3,2012_season4,2013_season1,2013_season2,2013_season3,2013_season4,2014_season1,2014_season2,2014_season3,2014_season4,2015_season1,2015_season2,2015_season3,2015_season4,2016_season1,2016_season2,2016_season3,2016_season4,2017_season1,2017_season2,2017_season3,2017_season4,2018_season1,2018_season2,2018_season3,2018_season4,2019_season1,2019_season2,2019_season3,2019_season4,2020_season1,2020_season2,2020_season3,2020_season4,2021_season1,2021_season2,2021_season3,2021_season4,2022_season1,2022_season2,2022_season3,2022_season4,2023_season1,2023_season2,2023_season3,2023_season4
252720083435001,Ajaipur,25.45555556,83.73055556,,,,,,,,,6.3,8.52,2.42,1,5.96,5.51,2.61,4.35,4.7,,,2.85,,5.86,0.01,2.54,1.58,6.53,0.02,1.29,,,1.46,3.08,,,,2.11,2.99,7.5,1.05,1.05,1.76,5.97,4.23,1.85,3.33,7.74,0.44,2.84,2.79,6.34,3.84,1.74,3.14,6.43,0.44,1.53,2.31,3.64,0.78,1.29,2.64,6.36,5.26,5.08,6.11,7.9,7.11,,,8.96,6.96,,,,,6.68,7.32,9.15,,5.09,5.29,6.85,5.43,,7.03,7.84,5.01,5.42,,7.75,2.91,2.95,4.75,6.93,3.89,4.44,5.46,6.95,0.11,2.53,1.86,6.91,2.22,,1.97,,2.48,,2.04,,,0.19,2.02,3.7,0.8,0.82,1.92,,,
252330083340001,Baresar,25.39166667,83.56666667,,,,,,,,,10.5,11.95,4.9,9.62,10.73,13.73,6.73,6.61,7.6,12.7,,9.97,,13.35,5.35,9.73,11.1,12.83,4.83,10.75,,13.65,6.7,7.18,11.46,12.9,11.76,10.6,11.28,13.67,6.3,10.95,11.39,14.08,10.14,12.06,12.25,13.7,7.2,11.3,12.4,13.7,7.3,10.35,12.65,13.7,8.95,12.15,13.75,13.95,7.12,10,13.1,13.7,11.41,11.2,11.9,14,8.4,10.67,12.8,13.7,5.63,10.75,11.85,13.45,,11.49,12.75,13.5,,9.1,11.2,12.27,9.53,,9.74,12.08,11.33,11.58,,,4.65,4.62,6.47,7.82,9.5,7.18,7.95,9.82,7.89,9.74,9.73,13.68,7.61,,9.62,,5.3,6.8,12.3,,8.3,8.6,12.58,13.05,9.02,8.67,12.14,,,
253712083123001,Bhimapur,25.62,83.20833333,,,,,,,,,5.13,7.81,3.16,4.5,5.67,7.57,3.46,4.49,5.03,5.83,,4.19,,8,2.2,3.97,4.98,7.49,3.7,4.26,,7.06,3.54,2.73,5.51,4.71,3.3,3.6,4.76,7.26,2.42,3.31,4.66,7.51,5.94,4.59,6.9,8.55,,4.96,5.85,7.95,5.15,5.4,6.81,7.99,4.11,5.35,5.85,8.34,3.45,6.02,7.35,9.15,9.16,9.65,,,,,,,,,,,,,,,,,,,,,,,,,,,,,,,4.96,,,,,5.16,,,6.25,,4.16,,,,,,6.81,,,,,,,,,
252850083343001,Deoria,25.48055556,83.575,,,,,,,,,3.11,5.22,1.91,2.35,2.95,4.89,0.91,1.73,3.04,2.24,,1.41,,4.66,0.35,1.15,2.46,4.79,0.91,1.36,,2.63,1.08,1.24,2.83,2.24,0.95,0.97,1.93,3.88,0.81,1.53,2.44,4.28,1.64,2.62,3.04,5.06,1.36,2.06,3.36,4.56,2.16,1.01,3.26,4.52,0.41,2.31,2.76,4.26,0.4,0.68,2.61,3.96,1.73,1.16,3.02,,3.16,2.76,4.09,5.22,1.19,2.66,3.99,5.81,,2.41,3.76,4.81,1.1,1.36,2.66,4.38,1.53,,2.09,4.49,3.29,2.32,,4.36,0.83,0.72,2.05,5,2.91,3.14,3.73,5.13,1.07,2.98,2.12,,3.18,,2.32,,2.04,2.38,5.31,,1.56,1.11,2.19,5.3,1.11,0.73,4.28,,,
252700083393601,Dildar nagar,25.45,83.66,,,,,,,,,2.02,3.96,0.6,1.8,,,,,,3.5,,1.3,,2.75,0.93,1.49,2.12,4.11,,1.25,,6.94,0.8,1.73,5.14,4.28,2.24,0.92,2.55,4.25,0.6,2.26,2.97,4.39,1.37,3.5,3.97,3.7,1,2.15,2.6,4,1.2,1.05,3.2,,1.05,2.55,2.65,3.87,,0.86,3.25,3.35,1.1,0.81,2.3,3.7,0.83,0.87,1.7,3.32,0.2,0.92,1.25,3.6,,1.03,2.6,3.7,,1.06,2.2,3.87,3.34,,2.8,4.02,2.95,4.25,,5.45,0.76,0.69,1.66,2.88,2.67,2.65,3.62,4.26,2.08,2.72,2.87,4.87,1.17,,3.65,,0.85,0.98,4.8,,0.45,1.33,3.35,4.2,1.05,0.95,2.87,,,
252810083501001,Gahmar,25.46944444,83.83611111,,,,,,,,,10.48,11.67,5.6,9.5,,5.89,1.71,2.37,2.3,1.42,,8.2,,11.74,3.46,8.1,,11.63,,9.35,,11.3,4.9,5.68,9.77,12.6,9.58,9,11.17,12.28,4.7,9.25,9.23,12.47,5.2,10.66,11.02,12.3,5.2,9.8,11,12.1,6,9.45,10.8,12.79,7.7,10.75,11.1,11.99,4.97,9.13,10.8,12.07,9.05,10.7,11.62,12.6,6.87,9.7,1.2,12.22,4.3,10.05,11.1,12.4,,10.86,11.59,12.42,,7.94,9.8,11.3,5.38,,10.11,11.86,10.43,11.08,,13.05,2.05,2.02,5.22,8.24,8.05,6.79,7.79,10.41,6.59,10.55,9.95,13.3,6.7,,9.75,,2.26,3.36,11.55,,,6.75,10.56,9.1,7.61,5.21,11.24,,,
254830083331501,Kabirpur,25.80833333,83.55416667,,,,,,,,,4.64,6.72,3.64,4.21,3.56,7.4,0.73,2.47,4.44,5.11,,1.78,,6.6,0.72,2.25,3.32,6.42,2.3,2.84,,5.6,0.96,1.87,4.05,4.5,3.31,2.16,3.4,6.28,1.87,1.24,3.52,6.86,5.54,5.58,6.35,8.43,1.73,7.44,7.23,6.64,3.98,6.38,6.83,6.56,1.2,3.04,4.13,6.63,0.93,2.99,4.53,9.6,3.98,4.61,5.93,,,,,,0.93,2.08,3.17,7.83,,,,,,,,,,,,,,,,,,,3.89,5.89,3.65,,,,2.75,5.37,5.2,,,,4.98,,0.93,3.53,,,,1.28,,7.1,,,,,,
254125083511001,Karimuddinpur,25.69027778,83.85277778,,,,,,,,,7.9,8.9,5.06,7.35,8.8,8.18,4.69,6.65,6.55,7.12,,4.08,,6.71,3.34,3.96,5.32,7.03,5.22,5.86,,7.42,3.8,2.73,6.18,6.18,4.64,2.51,6.68,7.72,1.73,6.24,6.18,7.25,7.08,8.11,8.5,9.11,5.56,6.31,7.26,7.91,7.56,6.81,8.51,7.88,3.86,6.11,7.01,8.41,0.68,6.81,6.66,8.53,6.36,8.91,9.54,9.16,8.73,6.7,8.86,8.81,6.44,6.88,7.5,6.03,,8.91,9.09,,5.98,6.29,6.21,7.32,8.22,,8.54,7.32,7.32,7.75,,,5.71,5.77,6.88,7.86,6.7,6.92,7.68,8.69,,8.56,,,8.32,,,,0.78,2.22,,,,,,,,,,,,
254655083465501,Kasimabad,25.78194444,83.78194444,,,,,,,,,8.22,10.44,8.12,8.5,8.61,9.52,5.43,6.62,6.59,8.34,,3.89,,7.19,1.12,1.45,2.45,6.5,4.35,1.99,,6.52,0.8,2.94,5.99,6.13,4.61,1.27,4.4,5.5,0.88,4.2,4.8,6.09,4.69,2.95,5.09,7.17,2.57,4.22,5.52,6.92,5.92,4.57,6.72,6.63,0.97,2.92,3.67,6.58,1.22,1.06,,6.06,4.1,5.72,5.87,,6.62,5.94,6.95,,4.57,6.1,6.42,,,8.22,6.19,9.37,4.32,8.15,8.89,9.54,8.36,,8.77,9.62,8.9,7.02,,,5.07,5.04,,,7.94,,,,,5.96,,,,,,,,,4.24,,,0.17,3.87,5.96,4.44,,,,,
253130083294501,Mainpur,25.525,83.49583333,,,,,,,,,7.14,8.37,3.44,,6.76,8.72,2.07,3.87,6.07,4.63,,4.04,,8.09,,3.79,5.48,7.92,2.51,5.14,,6.08,3.97,2.84,5,4.98,3.43,2.46,3.91,5.86,,3.64,4.01,6.16,2.2,4,3.84,8.44,7.59,7.59,7.74,8.34,7.94,7.39,7.49,8.3,6.39,7.5,7.29,3.54,0.72,5.34,6.64,7.54,7.38,7.16,7.54,8.01,7.84,,,6.72,7.69,,,,,,,,,,,,,,,,,,,,,1.08,5.06,7.25,5.87,6.58,7.11,7.71,5.24,6.14,6.41,7.36,,,,,,,,,2.74,0.44,,,,,,,,
254100083250001,Manihari,25.68333333,83.41666667,,,,,,,,,3.14,5.4,2.1,4.8,5.68,6.4,2.43,2.56,4.48,5.51,,1.37,,4.66,0.53,1.5,1.95,4.38,1.41,2.19,,4.78,0.6,2.3,3.56,4.14,2.68,1.53,2.2,,0.39,2.06,3.17,4.4,7.17,4.3,5.77,5.5,3.05,3.25,3.7,3.5,3.3,2.75,3.05,3.18,0.85,2.07,2.55,4.74,0.61,1.9,2.6,4.78,3.02,2.47,3.08,,4.6,4.07,6.06,,4.4,4.25,4.5,7.6,,2.7,3.65,5.52,4.56,0.9,2.09,3.95,2.13,,2.84,,,4.57,,6.93,,,,,,,,,,,,,,,,,,,,,,,,,,,,,,
253800083450501,Mohammadabad2,25.63333333,83.75138889,,,,,,,,,10.84,11.9,8.8,8.5,10.6,11.47,7.7,7.4,7.64,9.85,,6.88,,10.3,6.31,6.63,8,10.23,7.77,8,,10.8,7.7,5.32,9.77,10.17,9.68,8.6,10.26,11.48,7.38,9.77,9.59,10.57,10.3,10.89,11.53,12.1,9.6,9.6,10.4,11.6,10.7,9.55,10.75,11.61,7.25,8.8,9.7,11.2,7.08,8.6,9.7,10.2,10.88,11.75,11.67,,12.21,10.49,12.1,,12.2,10.58,10.6,14.68,,11.95,14.68,,11.23,8.86,8.97,10.84,10.25,,11.85,12.47,11.43,11.96,,,4.6,4.58,5.39,7.36,9.6,6.45,7.15,9.35,10.37,11.15,10.57,10.88,10.97,,10.2,,5.26,6.68,,,,,,,,,,,,
253236083404201,Nandganj,25.54333333,83.67833333,,,,,,,,,5.07,9.72,3.37,6.87,7.99,9.39,4.43,6.41,6.66,7.33,,1.48,,6.13,0.04,1.29,2.12,6.25,4.43,2.87,,7.77,2.54,1.32,3.83,6.17,3.17,3.17,4.61,6.87,5.37,2.27,3.57,7.45,5.32,7.84,8.33,9.77,3.57,5.67,6.67,8.07,4.67,5.87,7.52,7.92,1.67,2.72,4.07,8.47,1.92,3.26,5.52,8.35,5.02,6.27,7.2,9.27,5.82,8.93,,,8.62,9.11,9.57,10.75,,6.72,10.84,11.22,10.57,7.47,8.32,10.13,9.09,,10.25,5.68,5.68,9.92,,,2.97,2.93,4.3,10.24,7.47,8.77,9.8,,5.88,,,,,,,,4.67,6.37,,,,1.47,2.27,6.62,1.22,1.02,,,,
254515083281501,Orulari,25.75416667,83.47083333,,,,,,,,,1.8,4.2,0.6,,1.79,3.47,2.63,1.78,1.69,5.9,,1.08,,3.89,,1.1,1.66,3.71,2.26,1.07,,5.3,0.38,0.76,4.23,4.42,2.77,1.55,3.31,5.23,1.39,3.17,4.45,5.47,3.95,4.16,4.48,4.5,0.7,2.05,3,4.2,0.7,1.35,3,4.28,0.65,1.95,2.55,5.2,0.39,0.93,2.5,4.08,0.57,1.61,2.94,3.3,0.77,0.9,1.5,4.3,0.25,0.8,1.45,4.54,,2.6,3.6,4.02,0.34,1.7,2.65,4.92,1.57,,2.64,5.18,1.7,1.97,,5.4,1.3,1.16,2.95,5.43,1.49,3.34,4.43,5.5,1.79,3.49,2.45,5.7,1.62,,2.55,,1.07,2.65,3.35,,,1.05,2.49,4.64,1.37,2.65,3.27,,,
254030083143001,Pyrepur,25.675,83.24166667,,,,,,,,,1.42,4.27,0.7,1.45,4.36,5.54,0.49,1.56,2.62,4.63,,1.2,,3.78,0.55,1.25,1.4,3.98,0.37,1.3,,3.1,0.79,1.07,3.02,2.18,1.03,0.8,1.43,3.1,0.38,1.26,1.64,3.5,1.65,2.62,2.27,4.3,0.85,1.8,2.4,3.7,1,1.55,4.75,3.5,0.65,1.6,2.2,5.9,0.81,3.07,4.1,5.27,4.67,4.78,5,6.3,5.7,5.35,6.95,6.72,5.7,5.55,5.8,5.5,,5.29,5.08,4.88,5.56,1,1.6,2.91,2.74,,2.61,4.98,3.89,5.37,,6.76,1.38,1.27,2.63,5.05,3.37,0.88,1.67,3.52,1.55,6.22,4.78,6.9,6.88,,4.57,,1.03,1.56,3.2,,1.26,,2.28,,5.01,4.25,5.29,,,
253215083423001,Reotipur,25.5375,83.70833333,,,,,,,,,4.88,6.13,1.38,3.03,4.25,5.35,0.79,2.64,2.36,5.23,,3.73,,5.8,4.2,3.56,4.54,7.53,0.75,3.63,,5.98,5.93,1.32,4.28,5.92,3.62,5.52,5.99,6.43,4.3,5.29,6.3,6.7,1.02,4,5.88,6.63,5.72,5.23,5.57,6.43,6.42,5.17,5.52,6.55,4.63,4.77,6.52,6.42,3.41,3.66,4.67,6.17,8.7,7.59,7.77,8.5,9.63,,,9.86,8.14,,,,,,,,,,,,,,,,,,,,,,,,,,,,,,,,,,,,,,,,,,,,5.61,5.6,,,,
253748083384501,Sadikapur,25.63,83.64583333,,,,,,,,,4.49,7.96,1.64,3.13,3.73,6.06,0.25,2.82,3.11,5.89,,2.98,,7.62,0.73,2.56,3.89,7.37,0.25,,,7.69,,2.83,5.6,7.01,4.72,2.2,3.1,5,2.02,2.51,4.12,5.08,3.53,9.16,9.71,8.35,4.94,3.99,4.84,7.14,3.14,2.09,3.29,7.26,1.24,2.34,3.09,4.41,,1.87,2.74,6.14,4.39,3.34,4.29,7.54,3.34,4.76,5.99,7.19,0.55,4.86,4.45,6.54,,4.02,4.24,6.96,3.24,2.45,2.84,5.84,1.29,,4.05,1.64,1.64,2.69,,7.09,1.8,1.76,2.7,5.59,1.29,3.49,4.39,5.58,,2.14,2.61,6.94,2.13,,2.69,,0.9,1.54,4.64,,2.24,1.79,2.62,,,,,,,
253230083133001,Saidpur,25.54166667,83.225,,,,,,,,,12.81,14.05,8.78,8.55,8.87,10.78,6,5.61,9.04,9.88,,6.58,,9.53,5.79,5.65,6.15,,5.12,5.68,,7.13,4.91,2.93,5.18,6.52,6.56,5.88,2.2,8.22,7.01,6.17,6.63,9.06,8.03,9.16,9.43,10.68,10.78,9.28,9.78,12.98,9.98,9.03,9.78,13.22,9.08,9.58,10.48,13.58,7.44,8.76,9.58,12.98,12.38,12.78,13.02,,13.08,13.98,,,10.52,10,,,,,,,,,,,,,,,,,,,,,,,,,,,,,,,,,,,,,,,,,,,,,,,,
255030083434001,Sidhagarghat,25.84166667,83.72777778,,,,,,,,,5.26,7.51,,6.16,5.08,7.36,4.42,4.22,4.26,5.46,,3.36,,5.01,2.63,2.91,3.62,4.59,,3.21,,4.96,3.91,2.02,2.44,4.04,2.63,3.92,4.69,,,3.83,,,,,,6.26,,4.06,4.66,6.46,5.01,4.81,5.95,6.36,3.66,4.41,5.76,5.41,1.78,3.16,4.46,5.16,5.47,5.52,5.81,6.36,5.68,,,8.26,4.44,,,,,,,,,,,,,,,,,,,,,4.45,5.83,6.79,4.79,5.61,6.83,,5.06,5.48,6.46,,,,4.56,,,,4.31,,2.16,,4.58,4.6,4.66,4.81,4.72,,,
253445083333501,Ghazipur (Urban),25.57916667,83.55972222,,,,,,,,,,,,,,,,,,,,,,,,,,,,,,,,,,,,,,,,,,,,,,,,,,,,,,,,,,,,,,,,,,,,,,,,,,,,,,,,,,,,,,,,,,1.01,,,,0.75,,,1.35,1.55,,,0.35,1.1,0.25,,0.07,,0.9,2.3,0.35,,0.5,0.06,0.1,1.5,0.65,0.6,0.79,,,
253220083111501,Saidpur 1,25.53888889,83.1875,,,,,,,,,,,,,,,,,,,,,,,,,,,,,,,,,,,,,,,,,,,,,,,,,,,,,,,,,,,,,,,,,,,,,,,,,,,,,,,,,,,,,,,,,,12.83,4.92,4.95,5.32,11.2,6.9,9.73,10.83,12.78,,,8.41,12.85,10.02,,8.83,,7.2,8.7,9.85,,,6.05,7.58,10,8.23,7.85,,,,
254150083171501,Tanda Bairakh,25.69722222,83.2875,,,,,,,,,,,,,,,,,,,,,,,,,,,,,,,,,,,,,,,,,,,,,,,,,,,,,,,,,,,,,,,,,,,,,,,,,,,,,,,,,,,,,,,,,,,0.99,0.99,3.16,4.08,5.67,3.67,4.61,6.27,,,5.99,6.29,,,5.2,,,1.96,3.94,,1.94,1.31,3.23,,5.54,4.91,5.48,,,
254840083344001,Mardah,25.81111111,83.57777778,,,,,,,,,,,,,,,,,,,,,,,,,,,,,,,,,,,,,,,,,,,,,,,,,,,,,,,,,,,,,,,,,,,,,,,,,,,,,,,,,,,,,,,,,,,,,2.68,6.18,4.93,4.95,5.4,6.98,,,4.37,7.03,5.03,,3.9,,0.25,,3.03,,0.55,0.9,1.86,5.55,1.51,1.44,5.92,,,
253435083334801,Ghazipur church,25.57638889,83.56333333,,,,,,,,,,,,,,,,,,,,,,,,,,,,,,,,,,,,,,,,,,,,,,,,,,,,,,,,,,,,,,,,,,,,,,,,,,,,,,,,,,,,,,,,,,,,,,,1.06,4.3,4.68,7.36,4.24,2.26,4.95,6.46,4.98,,3.56,,2.96,0.66,4.26,,0.32,,2.87,4.34,4.98,3.73,4.87,,,
253403083333601,Ghazipur  Sadar new,25.5675,83.56,,,,,,,,,,,,,,,,,,,,,,,,,,,,,,,,,,,,,,,,,,,,,,,,,,,,,,,,,,,,,,,,,,,,,,,,,,,,,,,,,,,,,,,,,,,,,,,2.47,4.21,4.82,5.9,3.75,4.46,5.31,6.92,4.83,,3.57,,0.85,0.8,5.23,,0.95,1.85,2.37,,2.48,1.85,12.45,,,
