station_id,station_name,latitude,longitude,1994_season1,1994_season2,1994_season3,1994_season4,1995_season1,1995_season2,1995_season3,1995_season4,1996_season1,1996_season2,1996_season3,1996_season4,1997_season1,1997_season2,1997_season3,1997_season4,1998_season1,1998_season2,1998_season3,1998_season4,1999_season1,1999_season2,1999_season3,1999_season4,2000_season1,2000_season2,2000_season3,2000_season4,2001_season1,2001_season2,2001_season3,2001_season4,2002_season1,2002_season2,2002_season3,2002_season4,2003_season1,2003_season2,2003_season3,2003_season4,2004_season1,2004_season2,2004_season3,2004_season4,2005_season1,2005_season2,2005_season3,2005_season4,2006_season1,2006_season2,2006_season3,2006_season4,2007_season1,2007_season2,2007_season3,2007_season4,2008_season1,2008_season2,2008_season3,2008_season4,2009_season1,2009_season2,2009_season3,2009_season4,2010_season1,2010_season2,2010_season3,2010_season4,2011_season1,2011_season2,2011_season3,2011_season4,2012_season1,2012_season2,2012_season3,2012_season4,2013_season1,2013_season2,2013_season3,2013_season4,2014_season1,2014_season2,2014_season3,2014_season4,2015_season1,2015_season2,2015_season3,2015_season4,2016_season1,2016_season2,2016_season3,2016_season4,2017_season1,2017_season2,2017_season3,2017_season4,2018_season1,2018_season2,2018_season3,2018_season4,2019_season1,2019_season2,2019_season3,2019_season4,2020_season1,2020_season2,2020_season3,2020_season4,2021_season1,2021_season2,2021_season3,2021_season4,2022_season1,2022_season2,2022_season3,2022_season4,2023_season1,2023_season2,2023_season3,2023_season4
245925080160301,Ajaigarh,24.99027778,80.2675,,,,,,,,,6.68,7.84,4.4,5.1,6.18,8.96,6.65,5.15,5.15,6.92,6,5.75,6.87,8.46,4.44,5.2,5.45,7.23,4.4,5.45,5.54,8.25,4.02,5.25,6.72,7.55,6.47,4.9,6.1,7.6,1.74,4.35,5.52,7.18,3.7,4.6,5.7,7.65,2.02,4.8,5.95,7.37,6.5,6.8,8,9,9.42,11.1,9.94,14.25,8.6,8.4,9.25,11,10.4,8.75,8.8,10.6,10,10.4,6.1,11.3,7.2,6.3,6.9,8.2,,5.5,6.35,8.5,2.8,3.8,4.2,6.4,6.55,6.74,7.66,8.31,8.15,8.48,10.08,,2.46,,6.08,8,6.7,7.2,8.2,10.2,7.8,4.1,7.2,8.95,7.9,4.35,5.35,,6.3,,,,6.7,5.6,6.7,9.5,7.7,,6.05,8.45,,
242517080020201,Amanganj,24.42138889,80.03388889,,,,,,,,,4.48,6.05,3.18,3.72,5.02,5.68,3.9,3.8,3.95,5.74,3.5,4.28,5,6.13,3.07,3.54,4.9,6.14,3.8,4.52,5.6,6.5,2.83,5.58,6.06,6.48,4.7,3.77,5.4,6.2,1.7,4.15,5.05,6.4,2.9,4.2,5.7,7.42,1.9,4.1,7.64,7.67,3.7,4.65,7.1,6.9,5,5.3,8.7,8.7,3,4,6.25,6.85,4.7,4.35,5,6.7,3.7,3.4,6.1,7.3,1.8,3,7,8.7,,4.07,8.18,8.58,1.58,2.52,7.7,6,3.5,6.34,9.11,7.54,4.71,5.5,8.7,,1.36,5.99,8.5,8.5,4.65,7.5,8.5,8.2,7.8,7.5,8.2,8.1,7.7,2.6,8.5,,1.5,6.6,8.4,,7.1,7.5,,,2.55,2.15,8.4,0,,
243725080204401,Badagaon1,24.62361111,80.34555556,,,,,,,,,3.31,11.5,0.53,2.13,2.92,7.38,1.33,2.28,2.3,5.32,0.46,2.16,2.63,6.99,0.55,2.08,2.47,8.41,1.47,2.65,4.25,8.1,0.6,2.65,4.18,12.2,0.93,1.7,2.7,5.6,0.7,2.35,2.55,9.52,1.1,2.19,2.7,8.65,0.44,2.4,5.55,9.35,0.5,3.85,6.1,,0.95,2.9,5.92,12.7,0.95,2.95,4.1,10.82,7.1,3.02,2.4,5.7,7,2.7,4.05,8.7,0.7,3.1,3.5,13.2,,4.4,7.25,12.5,0.59,2.5,3.4,6.18,1.5,3.4,5.18,8.62,5.65,5.54,13,,0.98,3.18,4.26,11.55,0.95,5.9,5.8,12.2,0.9,3.35,5.2,12.7,0.8,1.95,3.3,,1.2,4.1,4.3,,1.5,5.95,9.3,,0.85,3.57,3.94,6.6,,
243944080151701,Bahera,24.66222222,80.25472222,,,,,,,,,5.03,9.7,0.18,1.3,3.64,9.98,0.36,1.37,2.75,7.56,0.06,1.22,4.13,9.54,0.11,1.15,3.9,9.53,0.5,2.48,5.6,10.75,0.1,2.52,5.62,10.72,2.95,1.2,4.3,9.6,0.65,1.53,3.52,10.4,0.16,2.76,4.06,9.5,0.05,2.1,5.5,10.2,0.6,3.17,6.4,11.6,4.7,5.65,9.84,14.7,0.3,2.6,5.75,12.25,6.05,1.5,6.3,8,5.9,4,6.95,12.8,0.7,1.9,4.6,10.75,,2.28,5.6,11.9,0.8,1.55,4.4,8.2,2.1,5.67,8.56,11.8,4.39,6.88,10.7,,0.66,2.18,6.44,11.3,1.1,3.8,7.2,13.6,1.7,3,5.9,12.25,1.1,1.25,3.4,,1,3,6.45,,2.6,3.7,6.9,13.8,0.9,0.46,3.95,10.1,,
245058080054201,Bariyarpur,24.84944444,80.095,,,,,,,,,7.18,9.85,3.2,6.18,6.85,8.92,8.07,5.05,5.15,8.26,5.74,7.12,8.78,10.14,,,5.8,8.5,,5.06,6.02,9.38,2.96,4.77,6.78,8.97,7.02,5.2,6.8,8.82,2.8,4.17,5.25,8.8,4.54,2.56,6.9,8.85,6.02,5.6,8.7,9.38,9.25,8.65,10.1,10.8,9.88,11.05,10.16,10.15,7.4,7.5,8.4,10.5,3.6,9.5,4.1,6.3,3.3,4.46,4.95,10.6,6.75,7.3,7.8,9.9,,5.35,8.39,9.78,4.39,3.1,6.3,8.16,6.95,6.82,8.72,10,5.75,7.32,9.77,,2.58,5.33,8.6,9.7,8.3,7.8,9.2,11,9.2,7.5,9.2,11.6,9.35,3.83,6.3,,4.9,6.2,9.15,,8.6,7.1,9.4,11,6.85,4.81,7.9,10,,
243243080102401,Barrachh,24.54527778,80.17333333,,,,,,,,,5.86,7.87,3.12,4.62,5.67,8.26,3.42,3.81,3.97,7.21,1.46,4.32,5.66,8.55,5.2,4.26,5.37,8,2.07,4.92,6.02,8.48,3.47,5.65,7.64,8.87,7.74,5.04,6.32,8.36,1.32,4.34,5.07,8.07,3.32,4.11,5.52,8.54,1.54,3.07,6.32,8.73,5.92,5.55,7.42,8.82,8.62,10.37,8.18,9.54,6.02,5.67,6.42,8.92,3.44,7.62,3.82,9.02,9.42,,6.7,9.62,5.32,5.82,6.52,8.42,,8.87,6.34,8.99,3.02,3.6,5.52,6.72,5.67,5.59,2.52,9.02,6.61,6.63,9.26,,4.52,5.82,6.7,8.57,5.97,6.12,9.22,10.92,9.12,7.22,8.62,10.49,10.72,6.12,6.72,,4.22,5.82,7.47,,3.43,9.98,8.62,11.5,10.07,7.4,8.77,8.72,,
235845080185301,Dharampura,23.97916667,80.31472222,,,,,,,,,3.74,5.85,0.95,1.44,3.68,5.3,0.85,1.42,1.3,4.18,1.58,1.85,2.25,5.29,0.6,0.87,3.1,5.3,5.1,2.52,3.9,6.01,0.5,3.6,4.28,6.95,2.05,2.55,4.1,,0.55,3.15,3.1,7.1,1.8,4.96,3.1,5.95,,2.6,4.2,6.97,2,3.4,5,6.3,6,7.4,6.49,8,2.25,8.1,3.25,9.9,,3.85,5,,5.25,3.4,4.8,7.5,0.9,4,5.15,6.35,,4.95,4,6.2,0.75,1.7,4,5.35,1.9,4.32,5.3,6.43,5.69,5.88,6.74,,2.76,2.96,5.25,7.5,1.85,2.2,4.2,6.9,2.8,3.6,4.8,7.2,5.25,1.7,3.15,,0.8,2.2,4.2,,2.09,6.45,7.1,6.8,,,,,,
242746080150501,Gunaur,24.46277778,80.25138889,,,,,,,,,4.8,6.23,1.8,3.53,4.78,8.13,2.8,2.68,2.53,5.35,1.68,3.36,4.85,,1.58,2.94,3.93,,1.98,3.7,5.18,,1.41,4.15,,,3.81,2.98,4.84,,0.78,4.53,4.6,8.13,1.38,4.12,4.68,8.13,0.4,3.38,5.13,13.9,1.58,4.58,16.88,16.88,2.58,3.98,16.88,16.88,1.18,4.03,4.18,16.88,,5.73,16.88,,,16.88,3.6,5.18,1.08,2.28,3.88,16.88,,2.88,1.7,,0.58,1.78,2.58,3.58,1.38,1.93,2.5,4.2,3.24,4,3.12,,,2.52,4.05,4.08,1.18,2.08,3.38,4.48,0.68,2.58,3.08,3.63,0.58,0.98,1.28,,0.68,1.48,1.93,,3.35,2.11,1.48,3.7,0.88,1.08,2.03,4.32,,
244346080003801,Madla,24.72944444,80.01055556,,,,,,,,,1.89,3.25,0.25,1.06,2.67,4.58,0.27,0.6,0.62,6.33,0.2,0.8,2.79,4.79,2.08,,6.8,7.42,1.75,6.26,7.1,5.35,0.2,1.68,3.68,5.35,2.67,0.8,8.35,6.76,0.5,0.3,0.65,6.92,0.2,0.93,1.85,7.03,0.15,2.13,4.5,,5.25,3.19,12.65,,,,,15,2.5,3.4,4.3,12.25,3.2,4.52,3.6,12.7,3,4.5,5.15,12.8,1.35,3.6,5.2,6.45,,3.12,4.05,10.65,1.4,3.3,4.1,5.3,3.9,4.41,5.11,10.53,3.44,4.31,5.1,,1.42,3.53,4.25,9.55,2.85,4,4.9,12,2.9,3.7,4.5,12.7,3.6,3.13,4.1,,2.1,3.8,4.8,,4.7,4.75,6.6,13.8,3.55,3.67,4.95,5.28,,
241126079575801,Mohendra,24.19055556,79.96611111,,,,,,,,,4.93,8.73,,4.06,3.43,7.65,1.24,2.04,2.14,5.24,1.16,3.73,5.38,10.23,2.57,,3.17,8.16,2.61,4.47,5.26,10.37,1.09,3.16,6.29,7.58,4.63,2.63,3.81,9.01,0.71,4.46,4.86,8.76,2.48,3.86,4.01,9.61,1.18,2.01,4.91,9.91,1.91,5.16,7.21,9.11,4.86,3.96,6.15,10.13,1.41,3.26,4.11,8.66,5.81,4.81,4.76,,3.41,5.21,6.4,,2.31,4.11,4.11,11.71,,3.11,3.76,5.5,0.66,2.71,3.31,8.11,4.06,5.95,8.24,11.89,5.6,6.27,9.85,,2.23,3.5,4.85,9.51,6.06,7.31,9.26,12.01,8.71,7.51,7.51,11.71,4.31,6.43,6.61,,5.41,8.91,8.11,,5.41,6.71,8.41,11.7,2.26,1.81,3.21,7.13,,
245030080160101,Pandepurwa,24.84166667,80.26694444,,,,,,,,,4.34,5.03,3.2,3.98,4.33,5.26,3.92,3.8,3.85,4.54,3.1,4.22,4.79,5.93,2.82,3.88,4.28,4.84,3.64,4.17,4.65,5.55,3.28,4.25,4.34,5.18,4.5,4.22,4.5,5.3,2.3,4.03,4.72,5,3.52,4.05,4.4,5.1,2.62,4.3,4.6,5.37,3.9,4.35,4.8,5.25,4.2,5.45,4.86,6.3,3.5,4.2,4.4,5.85,4.6,4.4,4.6,6.1,4.8,6,6.9,6.5,3.15,4.1,3.7,5.3,,3.8,3.95,5.3,2.2,3.5,4,4.35,3.7,4.05,4.42,5.4,4.26,5.23,5.24,6.42,1.42,3.78,4.3,5.1,4.1,4.2,4.7,6.1,3.6,4.2,4.6,6.05,3.6,3.75,4.1,,3.2,3.9,4.2,,3.37,4.1,4.2,5.9,3.2,3.7,4.1,4.55,,
244220080105001,Panna1,24.70555556,80.18055556,,,,,,,,,7.35,11.05,5.45,5.87,7.73,13.05,5.05,4.95,4.7,7.35,0.38,1.32,4.82,6.17,3.99,6.83,9.35,7.86,5.51,2.83,6.23,11.93,3.32,4.73,5.93,7.85,7.82,5.05,5.75,7.25,1.47,4.2,5,7.35,3.86,4.75,5.35,7.5,3.02,5.05,6.05,7.8,4.55,5.55,6.85,12.55,7.45,8.05,8.57,10.6,3.35,6.43,7.45,9.1,7.75,5.45,5.35,8.85,6.35,5.1,5.35,7.35,1.7,2.55,5.05,6.55,,3.81,4.8,6.4,0.3,3,4.59,5.95,2.45,5.29,5.4,5.55,6.71,5.18,5.75,,4.55,4.83,5.61,6.55,3.4,4.95,5.8,6.45,4.25,4.85,5.55,6.33,4.15,3.15,4.55,,0.65,3.05,4.05,,1.85,3.25,4.45,6.3,,2.36,5.45,7.95,,
241553080095501,Powai,24.26472222,80.16527778,,,,,,,,,15.5,16.25,12.22,13.85,14.54,19.4,12.8,16.7,17.1,19.81,18.9,20,20.2,20.17,16.9,16.01,16.7,19.5,17.16,17.04,16.6,19.6,15.68,16.57,16.9,20.05,17.8,17.3,17.3,19.8,11.5,14.23,14.85,17.05,15.2,3.19,15.1,19.98,12.62,13.6,14.5,17.26,16.05,16.3,17.3,18.4,18.15,17.65,18.08,19.3,20.5,16.1,17.14,20.8,20.8,,20.8,20.3,18.3,18,20.7,21.3,19.5,18.3,18.7,20.8,,17.65,15.7,20.5,14.9,16.3,18.3,18.3,17.4,17.91,17.46,20.17,17.6,16.76,16.84,,4.76,14.79,15.6,17,16.4,16.1,16.9,19.5,15.8,16.9,16.9,20.6,16.9,15.6,16.65,,16,16.6,16.9,,16.7,17.45,18.3,19.5,18.3,16.5,16.8,18.35,,
242448080240901,Salleha,24.41333333,80.4025,,,,,,,,,2.05,8.54,0.95,1.54,2.16,5.98,0.37,1,1.2,2.67,0.03,1.05,2.02,2.59,0.09,0.97,1.48,2.88,1.46,1.67,2.4,2.85,0.15,1.42,2.3,7.85,0.67,1.04,2.3,6.8,0.1,1.15,2.52,5.55,0.95,1.62,3.11,7.35,1.59,1.1,4.6,5.65,0.3,1.75,7.1,9.25,0.55,0.95,2.47,9.58,0.1,5.5,3,6.95,3.8,1.7,4.4,,3.65,5.5,3.45,6.6,0.25,1.5,2.5,2.65,,0.7,2.35,4.45,0.1,0.85,2.1,2.5,1.05,4.35,8.25,2.53,0.4,1.3,1.61,3.42,,1.57,2.15,3.6,0.8,1.7,2,2.2,0.4,1,1.4,2.7,0.2,1.3,2.2,,0.4,1.8,2.1,,0.28,1.2,2.2,3.7,0.05,0.69,1.25,2.18,,
241607079540001,*Semaria,24.26861111,79.9,,,,,,,,,3.24,6.5,,1.79,3.02,6.5,0.69,1.74,1.86,4.38,0.88,2.49,3.64,,0.49,,1.92,,2.31,2.8,4.16,,0.4,4.13,7,8.71,2.15,1.97,3.67,,0.4,2.15,2.15,6.5,1.9,4.74,6.3,8.68,,,,,,,,,,,,,,,,,,4.9,,,,,6.8,,0.8,,7.7,9.4,,,8.25,,,,,,,,,,,,,,,,,,,,,,,,,,,,,,,,,,,,,,,,8.45,0,,
243730080204401,Badagaon Deep,24.625,80.34555556,,,,,,,,,,,,,,,,,,,,,,,,3.38,4.08,6.97,2.12,3.93,4.08,5.68,1.48,3,5.14,6.88,2.13,3,4.38,5.91,0.75,3.55,4.38,7.8,2.56,3.89,4.23,6.41,0.99,4.02,4.56,6.65,1.93,4.93,6.91,8.62,1.53,4.08,6.28,8.83,1.4,4.38,,7.9,,,5.9,6.53,,,5.55,7.98,1.14,4.08,4.48,7.97,,6,8.18,8.8,2.28,3.46,4.31,6.08,2.69,4.78,6.81,9.38,5.27,6.85,13.71,,1.92,4.28,5.71,8.48,2.63,5.03,7.93,14.33,1.88,4.64,6.74,15.58,0.98,2.69,3.93,,2.6,5.41,6.88,,2.97,6.48,12.08,,0.93,4.28,6.98,5.88,,
244220080105101,Panna Deep,24.70555556,80.18083333,,,,,,,,,,,,,,,,,,,,,,,,8.43,23.17,17.77,,28.2,23.17,32.47,22.7,20.62,21.77,25.7,27.07,23.13,23.67,25.18,19.57,17.23,19.42,27.57,20.6,22.12,23.8,24.67,,23.77,27.47,,27.67,28.22,24.57,,35.97,44.97,,26.97,35.42,42.77,,45.52,,,27.87,31.17,,,26.27,46.57,36.37,23.57,24.77,41.12,,,27.17,28,,40,49.17,54.17,45.17,31.87,39.89,24.61,45.38,49.17,28.44,,,49.17,29.54,49.17,,,,49.17,,,,32.07,,,49.17,,,,,,10.73,8.27,10.47,14.62,,8.45,,12.17,,
241548080095201,Pawai Deep,24.26333333,80.16444444,,,,,,,,,,,,,,,,,,,,,,,,15.17,16.29,17.79,16.29,15.49,16.29,17.66,15.08,15.44,16.08,17.24,16.51,16.06,16.44,17.74,11.93,12.63,13.14,16.64,15.38,5.95,15.56,16.79,13.57,13.62,14.39,15.66,15.45,16.21,16.96,17.94,18.34,17.74,17.82,19.79,16.99,17.44,,18.26,,,19,20.19,,,18.01,20.38,17.55,18.19,18.99,19.01,,16.92,17.65,19.3,16.21,16.22,16.84,17.92,17.57,17.62,17.52,19.11,18.33,18.31,18.59,,5.91,15.79,15.52,17.65,16.69,16.83,17.88,18.86,17.02,17.03,17.61,19.22,16.69,15.74,16.24,,16.3,16.62,16.49,,17.54,5.79,17.89,19.29,17.19,16.79,16.84,17.79,,
241557079540001,Semaria Deep,24.26583333,79.9,,,,,,,,,,,,,,,,,,,,,,,,8.5,6.32,8.53,3.22,4.46,6.32,8.64,1.97,5.71,7.28,8.71,3.6,4.18,7.18,8.87,1.65,4.22,6.53,9.13,2.82,5.87,7.08,9.9,,4.83,7.06,,2.56,6.36,8.48,10.29,4.26,5.13,8,10.38,2.48,5.38,,10.83,,,4.38,9.38,,,8.04,9.46,1.91,5.58,6.58,12,,5.78,8.98,13.2,1.73,4.38,9.07,10.63,4.81,8.3,17.91,12.24,5.49,7.19,13.27,,1.7,7.21,15.29,22.38,3.96,7.98,16.18,24.98,2.88,9.18,15.99,27,2.95,4.75,10.38,,6.08,14.58,22.07,,4.2,12.28,20.38,43.1,2.99,5.04,13.85,25.68,,
243710080075601,Akola,24.61944444,80.13222222,,,,,,,,,,,,,,,,,,,,,,,,,,,,,,,,,,,,,,,,,,,,,,,,,,,,,,,,,,,,,,,,,,,,,,,,,,,,,4,4,1.4,2,3.9,2.5,2.1,5.67,3.11,2.61,2.07,2.78,4.7,3.81,1.62,3.8,4,3.5,2,5.5,3.8,4.4,1.6,5.1,3.1,3.5,1.4,2.8,2.75,,1.7,3.3,4.1,,2.2,3.35,4.6,9,1.5,2.17,5.9,2.5,,
244320080060601,Backchur,24.72222222,80.10166667,,,,,,,,,,,,,,,,,,,,,,,,,,,,,,,,,,,,,,,,,,,,,,,,,,,,,,,,,,,,,,,,,,,,,,,,,,,,,5.45,8.5,1.8,2.5,4.7,7.6,2.4,4.38,7.35,8,5.1,6.58,7.63,14.2,2.28,5.31,6.3,10.6,2.4,2.6,6.8,9.3,2.7,2.6,6.8,8.15,2.65,2.5,3.65,,2,2.6,5.4,,3.7,9.3,7.7,9.7,2.3,2.11,3.5,6.65,,
245113080104301,Banahari Kalan,24.85361111,80.17861111,,,,,,,,,,,,,,,,,,,,,,,,,,,,,,,,,,,,,,,,,,,,,,,,,,,,,,,,,,,,,,,,,,,,,,,,,,,,,6.96,7.9,3.29,4.8,5.25,5.85,4.2,6.09,6.91,7.03,6.02,6.29,8.23,9.05,3.32,5.6,5.74,6.75,5.1,7,8.3,8.8,4.5,6.9,7.6,8.8,3.85,4.42,5.8,,3,6.4,6.4,,4.7,5.35,6.5,8.7,3.05,4.19,5.4,6.92,,
241445080040801,Hathkuri,24.24583333,80.06888889,,,,,,,,,,,,,,,,,,,,,,,,,,,,,,,,,,,,,,,,,,,,,,,,,,,,,,,,,,,,,,,,,,,,,,,,,,,,,7.1,8.25,2.15,4.85,7.3,7.4,5.4,6.68,7.65,8.07,4.62,5.41,7.94,7.98,1.74,5.2,6.08,7,4.7,6.2,6.8,7.9,4.6,6.5,6.8,7.85,1.3,4.75,6.1,,4.8,7.7,8.2,,5.4,7.1,7.5,,3.3,4.68,6.08,5.55,,
240719080154001,Kharmora,24.12194444,80.26111111,,,,,,,,,,,,,,,,,,,,,,,,,,,,,,,,,,,,,,,,,,,,,,,,,,,,,,,,,,,,,,,,,,,,,,,,,,,,,3.57,6.9,0.26,1.6,2.6,5,1.53,2.43,3.47,4.62,1.46,2.24,4.7,6.47,0.92,2.04,2.96,6.6,1.2,2.4,3.9,8.1,0.7,2.4,3.3,3.5,0.4,1.55,2,,0.5,1.9,2.7,,2.42,2.7,3.7,5.52,1.25,1.59,2.7,2.85,,
235413079570701,Raipura,23.90361111,79.95194444,,,,,,,,,,,,,,,,,,,,,,,,,,,,,,,,,,,,,,,,,,,,,,,,,,,,,,,,,,,,,,,,,,,,,,,,,,,,,3.9,6.58,1.4,2.6,4,4.6,1.4,2.67,4.7,8.3,2.6,3.67,6.04,10.35,2.54,1.66,3.67,7.2,3.4,2.65,3.6,9.8,2,3.1,6.8,9.15,3.05,1.78,3.15,,3.1,6.1,7.7,,3.1,3.55,6.4,,4.17,2.8,4.45,9.4,,
235405079552201,Kuankheda,23.90138889,79.92277778,,,,,,,,,,,,,,,,,,,,,,,,,,,,,,,,,,,,,,,,,,,,,,,,,,,,,,,,,,,,,,,,,,,,,,,,,,,,,,,,,4.25,8,1.2,3.44,4.77,6.92,0.64,1.86,5.9,8.42,2.42,3.31,7.05,9.45,0.7,3.05,5.1,9.2,0.5,3.3,4.8,9.15,0.45,2.23,3.85,,0.6,2.8,6.3,,0.8,2.75,4.3,9.47,0.5,1.67,3.85,9,,
240450079575501,Saharan,24.08055556,79.96527778,,,,,,,,,,,,,,,,,,,,,,,,,,,,,,,,,,,,,,,,,,,,,,,,,,,,,,,,,,,,,,,,,,,,,,,,,,,,,,,,,2.25,5.5,2,1.15,5.23,6.34,0.5,1.49,3.45,6.92,1.98,0.51,4.05,8.2,1.5,3.8,4.1,8.4,0.9,3.4,3.4,6.25,0.5,2.3,3.2,,1.2,2.6,5.35,,1.72,3.8,4,7,1.25,2.62,2.75,5.1,,
245512080133101,Sinhai,24.92,80.22527778,,,,,,,,,,,,,,,,,,,,,,,,,,,,,,,,,,,,,,,,,,,,,,,,,,,,,,,,,,,,,,,,,,,,,,,,,,,,,,,,,8.8,10.3,10.5,10.34,11.56,10.25,11.65,11.89,13.76,13.9,2.92,8.85,11.07,12.45,11.1,11.9,13.1,12.7,12.1,11.1,12.6,14.1,11.45,7.55,8.9,,8.7,10.1,11.5,,9.3,8.75,10.4,12.1,8.65,7.36,9.8,10.12,,
235916079570201,Takhori,23.98777778,79.95055556,,,,,,,,,,,,,,,,,,,,,,,,,,,,,,,,,,,,,,,,,,,,,,,,,,,,,,,,,,,,,,,,,,,,,,,,,,,,,,,,,3.25,6.95,1,3.07,6.6,8,0.89,2.18,5.88,6.9,0.84,3.56,5.38,7.4,1.3,1.9,4.4,7.1,0.9,2.8,5.1,8.55,0.8,1.5,2.8,,0.8,1.6,3.05,,2.21,2.6,6.7,8,2.2,2.6,4.83,10.7,,
243159080052001,Tara,24.53305556,80.08888889,,,,,,,,,,,,,,,,,,,,,,,,,,,,,,,,,,,,,,,,,,,,,,,,,,,,,,,,,,,,,,,,,,,,,,,,,,,,,,,,,,,,,,9.49,5.11,5.92,9.97,10.22,2.68,4.2,7.33,9.6,4.6,6.6,9.5,10.1,5.5,6,8.7,9.9,6.3,4.7,6.33,,3.2,4.9,7.6,,6.8,7.1,10.3,,4.58,4.52,7.35,0,,
