station_id,station_name,latitude,longitude,1994_season1,1994_season2,1994_season3,1994_season4,1995_season1,1995_season2,1995_season3,1995_season4,1996_season1,1996_season2,1996_season3,1996_season4,1997_season1,1997_season2,1997_season3,1997_season4,1998_season1,1998_season2,1998_season3,1998_season4,1999_season1,1999_season2,1999_season3,1999_season4,2000_season1,2000_season2,2000_season3,2000_season4,2001_season1,2001_season2,2001_season3,2001_season4,2002_season1,2002_season2,2002_season3,2002_season4,2003_season1,2003_season2,2003_season3,2003_season4,2004_season1,2004_season2,2004_season3,2004_season4,2005_season1,2005_season2,2005_season3,2005_season4,2006_season1,2006_season2,2006_season3,2006_season4,2007_season1,2007_season2,2007_season3,2007_season4,2008_season1,2008_season2,2008_season3,2008_season4,2009_season1,2009_season2,2009_season3,2009_season4,2010_season1,2010_season2,2010_season3,2010_season4,2011_season1,2011_season2,2011_season3,2011_season4,2012_season1,2012_season2,2012_season3,2012_season4,2013_season1,2013_season2,2013_season3,2013_season4,2014_season1,2014_season2,2014_season3,2014_season4,2015_season1,2015_season2,2015_season3,2015_season4,2016_season1,2016_season2,2016_season3,2016_season4,2017_season1,2017_season2,2017_season3,2017_season4,2018_season1,2018_season2,2018_season3,2018_season4,2019_season1,2019_season2,2019_season3,2019_season4,2020_season1,2020_season2,2020_season3,2020_season4,2021_season1,2021_season2,2021_season3,2021_season4,2022_season1,2022_season2,2022_season3,2022_season4,2023_season1,2023_season2,2023_season3,2023_season4
173800073290001,Aawashi,17.63333333,73.48333333,,,,,,,,,3.7,5.4,1.54,4.58,5.5,6.3,1,6.35,5.9,6.47,3.7,5.49,5.4,,3.4,5,5.67,5.65,0.9,4.7,5.6,6.7,2.32,4.95,5.67,6.5,3.55,5,6.35,6.65,3.6,5.35,6.1,3.65,,,2.7,6.65,1.75,,5.8,7.25,3.6,4.4,5.58,6.3,1.4,3.43,5.1,6.3,2,4.4,9.9,6.9,1.65,8.7,4.4,7.1,0.6,4.21,2.5,4.4,0.6,2.56,6.62,7.86,,3.9,5.62,7.1,0.4,2,2.6,6.9,4.75,2,5.7,3.9,3.5,3.4,,8.2,1.75,3.4,,8.35,2.85,,3.8,4.4,1.8,,5.3,7.8,3.1,3.5,4.3,,,3.1,4.85,,1.7,3.7,4.8,,2.4,3.5,5.35,7.8,,
172042073204001,Abloli,17.345,73.34444444,,,,,,,,,5.1,6.1,1.95,4.37,4.57,6.15,1.2,4.59,5.05,5.79,2.7,4.09,4.7,5.3,2.95,5.1,5.05,5.1,1,4.38,4.95,5,2.45,4.22,5.12,9.7,2.15,4.9,5.4,7,2.05,4.15,5.25,6.8,,,5.3,6.05,1.9,4.28,5.1,2.32,3.2,4.46,5.16,5.65,1.7,4.3,5.2,6.73,2.85,5.25,6.1,6.1,2.55,4.3,5.1,6.75,1.55,4.5,5.3,6.45,2.25,4.85,5.85,7.2,,4.95,6.22,4.6,3.05,4.35,5.45,6,1,4.55,5.45,6.8,3.9,4.2,,8.2,2.95,4,4.9,8,3.7,4.45,5,6.75,2.15,,5.7,7.3,2.3,4.15,5.15,,,4.1,5.3,,1.6,4.4,5.6,,3.3,5.1,5.8,9.95,,
172130073320001,Agave,17.35833333,73.53333333,,,,,,,,,3.9,3.6,0.1,1.15,2.45,7.1,0.9,1.75,1.75,3.92,0.15,2.42,2,8.25,0.1,1.2,2.34,4.9,0.01,0.82,1.75,3.55,0.2,1.15,2.28,5.2,0.1,1.2,1.95,4.85,0.7,1.8,2.7,3.35,,,2.1,4,0.65,1.25,2.15,3.78,0.95,1.1,2.05,3.3,0.15,0.8,2.1,4.05,0.2,,2.3,4.35,,1.9,1.75,4.05,,1.38,2.1,3.55,0.2,3.15,4.6,4.1,,0.61,2.92,3.9,0.1,0.9,1.6,,1.2,1.2,1.8,4.64,1.2,1.3,,,0.65,1.5,2.1,,0.7,1.3,2,4.1,0.01,,2.1,4.4,0.1,1.1,2.45,,,0.96,2.1,,0.5,1.1,2.25,3.4,,0.4,2.1,0,,
170800073290001,Ambed Budruk,17.13333333,73.48333333,,,,,,,,,2.5,5.8,0.66,1,1.1,3.55,1.45,2.3,2.55,4.76,1.55,1.89,2.4,2.3,1.52,0.6,2.48,5.7,1.3,3.07,2.65,1.2,1.22,1.82,2.63,,1.15,2.3,2.6,6.1,1.5,1.9,2.85,2.9,,,2.63,5.62,1.2,2.1,2.63,5.62,1.68,2.25,2.32,6.05,1.38,1.95,2.7,5.16,0.01,,4.5,,1.48,3.7,2.55,5.68,1.63,0.7,1.1,5.28,1.78,2.98,3.42,5.17,,3.4,3.35,5.3,1.15,1.82,2.6,4.5,0.9,2.18,2.7,4.13,2.05,2.2,,6.3,1.4,2.2,2.7,6.4,1.6,2.18,2.6,3.28,0.55,,3,4.5,0.6,1.78,3.1,,,2,3.9,,1.3,2.07,2.4,3.6,,3.1,2.6,4,,
173200073310001,Chiplun,17.53333333,73.51666667,,,,,,,,,2.3,3.5,1.25,1.12,1.99,3.2,0.7,1.16,1.4,1.98,0.5,0.94,1.7,1.2,0.8,2.65,1.65,1.8,0.8,1.3,1.62,2,1,1.35,1.49,2.3,0.35,1.1,2.36,2.15,0.85,1.9,2.05,1.45,,,1,1.76,0.55,0.87,1.3,,0.9,1,1.5,3.2,0.5,1.25,2,1.5,1.45,2.35,3.1,3.4,0.8,,1.8,2.8,0.8,6.7,1.4,2.7,0.9,2.62,2.78,3.22,,3.9,2.9,2.3,1.1,1.15,2.4,2.45,0.7,1.2,2.3,1.65,1.9,1.6,,3.6,1.55,1.2,1.4,3.8,1.65,1.29,1.45,2,0.5,,1.7,3.2,1.5,1.4,2.1,,,1.3,1.55,,2.1,1.1,2.2,1,1.7,1.2,16,1.7,,
173524073103701,Dabhol,17.59,73.17694444,,,,,,,,,4.7,5.6,1.17,3.45,4.65,5.5,1.05,7.95,5.2,5.64,2,2.98,4.85,,3.05,4.6,4.02,5.5,,4.05,5.35,6.3,1.85,4.35,4.85,6.4,0.45,4.2,5.55,5.92,0.3,4.1,5.75,5.75,,,5,6.07,1.7,7.1,5.1,,2.6,4.23,5.22,9.3,0.05,3.8,5.2,4.63,1.7,4.5,8.2,,1.95,8.2,5,5.4,,3.69,4.4,5.4,0.2,4.25,5.3,,,1.4,,5.5,4,,4.3,9,0.01,3.8,4.7,5.3,6,3.8,,6.4,7,3.5,4.6,6.1,7.1,3.6,,5.7,0.95,,4.5,,1.5,,,,,3.4,4.3,,1.1,,,,2.5,,,,,
165900073360001,Dabhola,16.98333333,73.6,,,,,,,,,3.2,3.55,11.97,16.85,19.05,3.4,8.5,18.5,18.1,,12.65,,17.85,,14.8,17.3,18.1,,11.9,16.45,18.15,,12.6,16.93,18.14,,14.6,17,18.7,4,18.95,17.45,19.1,99.99,,,18.35,25.25,11.2,16.83,18.6,3.4,2.45,2.7,2.83,3.6,0.45,1.75,2.9,25.25,0.05,9.8,6.5,,,15.75,,3.65,2.75,,2.95,4,10.25,7.9,3,,,6.95,,,,1.5,2.25,,0.65,,,,,,,,13.7,,,,13.8,,,8.5,1.8,,7.8,7,3.2,6.55,8.15,,,2.6,7.7,,2.9,4.65,7.4,,,4,8,3.2,,
174545073113001,Dapoli,17.7625,73.19166667,,,,,,,,,7.5,9.02,6.03,6.77,7.18,7.8,4.7,7.1,7.3,8.27,5.95,6.77,7.3,7.8,6.6,7.4,6.57,8.8,,6.85,7.4,8.4,5.85,7.12,7.63,8.8,6.15,7.1,7.55,8.4,6.95,5.2,7.55,8.3,,,7.95,9.38,5.7,7.1,7.2,6.55,6.6,7.32,7.58,9,3.05,7.13,8.4,9.11,6.5,8.1,8.45,10.1,5.45,6.8,7.4,8.35,3.87,2.7,6.75,7.9,5.05,5.24,5.3,10.4,,6.35,8.02,8,5.15,6.7,6.45,8.4,1.65,7.25,9.05,8.8,7.5,7,,10.45,2.9,6.9,7.9,10.45,2.75,6.95,7.2,9,,,9.3,8.9,2.4,6.45,11.2,,,5.8,7.25,,3.65,8.65,8,8.15,7,7,7.35,8.65,,
174450073211501,Dasturi,17.74722222,73.35416667,,,,,,,,,1.6,6.93,0.32,1.75,1.96,7.2,0.65,2.26,2.05,4.7,1.2,1.28,1.8,3.2,1,1.9,2.16,4.4,,1.75,2.37,6,1.32,1.93,2.67,,0.85,2.1,2.9,7,0.8,2.05,2.2,6.45,,,2.85,7.25,1.2,2.12,2.47,1.3,0.95,1.7,2.15,6.4,0.84,1.65,2.4,6.62,1,2.7,3,,0.25,2,1.75,7.1,,6.6,2.2,4.8,0.9,2.98,3.89,8.02,,2.95,3.48,6.6,0.9,1.4,2.1,,0.55,1.9,2.35,7.1,2,1.9,,8.24,1.7,2.1,2.8,8.25,1.7,1.6,2.5,8.2,0.6,,3,7,2.8,1.6,2.25,,,2,2,,0.7,1.3,2.8,3.6,1,1.7,3.25,3.5,,
172900073210001,Devghar,17.48333333,73.35,,,,,,,,,5,6.05,1.8,4.15,4.92,6,1.4,4.33,5.1,6.86,3.1,4.4,2.8,6.1,2.97,4.55,2.97,6,1,3.9,4.88,6,3.12,4.1,5.36,6.3,1.9,4.7,5.4,6.41,1.4,3.75,5.4,6.5,,,5.3,6.3,2.3,4.3,6.25,3.08,3.95,4.32,5.24,5.9,1.94,4.2,5.3,6.5,2.94,4.7,6.4,7.8,1.69,4.4,5.15,5.34,1.3,5.08,6.1,5.94,1.69,4.45,6.2,7,,3.9,5.45,5.9,3.94,3.53,4.14,5.8,0.14,3,5.05,5.2,3.3,4.1,,8,3,4.2,4.9,8,3.6,3.44,4.9,6.3,2.4,,5.5,6.4,7.6,3.9,5.1,,,3.9,5.34,,1.9,4.3,5.2,5.74,2.9,4,5.6,5.54,,
172409073241501,Dugvay,17.4025,73.40416667,,,,,,,,,2.35,3.1,0.77,1.65,2.1,4.8,0.68,1.77,2.56,3.92,0.8,2.17,2.4,3.2,1.1,1.65,2.59,2.9,0.01,1.4,2.3,3.2,0.72,1.67,2.49,,1.3,2.3,2.5,3.56,1.4,1.65,2.85,3.3,,,3.3,4.24,0.42,1.98,2.95,1.06,1.5,1.88,2.63,3.85,0.75,1.73,2.7,3.7,0.85,1.6,2.2,4.4,0.45,1.1,2.5,3.8,1.43,2.18,2.9,,2.3,2.7,3.85,4.93,,5,6.6,3.8,1.1,2.15,5.1,4,0.7,2,3.05,3.1,1.55,2.2,,4.85,1.3,2.2,3.2,5.1,1.3,2.2,2.6,4,1,,3,6.4,0.6,1.9,3.1,,,3.75,3.15,,1.1,2.35,3.35,3.9,1.3,1.8,3.1,3.62,,
172904073112601,Guhagar,17.48444444,73.19055556,,,,,,,,,2.5,3.22,1.25,2.17,2.48,,,,,,,,,,,,,,,,,,,,,,,,,,,,,,,,,,,,,,,,,,,,,,,,,,,,,,,,,,,,,,,,,,,,,,,,,,,,,,,,,,,,,,,,,,,,,,,,,,,,,,,,1.4,1.4,,
171807073131801,Jaigarh,17.30194444,73.22166667,,,,,,,,,11.8,20.7,14.05,18.16,18.8,19.5,,18.5,18.7,19.62,15.6,18.58,18.7,,17.8,18.8,19.04,,6,18.5,19,19,13.5,18.05,18.95,19.2,15.8,19.4,19.2,19.55,15.9,17.3,18.75,99.99,,,18.75,19.2,12.75,16.3,18.75,15.22,16.15,18.17,18.59,19.05,8.23,17.9,18.6,18.05,14.3,8.4,18.7,19.55,16.45,18.3,18.6,19.15,9.35,16.3,17.1,18.95,12.55,11.73,21.46,20.03,,,19.79,18.3,15.15,,18.15,18.8,,18.35,18.4,18.55,16,18.8,,22.5,15.65,18.4,16.5,22.1,15.8,19.55,,21,14.05,,20,20.3,16.4,16.95,19.3,,,17,20.85,,12.1,16.35,20.1,20.55,16,19.06,20,20.8,,
171000073240001,Jakadevi,17.16666667,73.4,,,,,,,,,11.5,11.7,3.7,10.9,11.25,12.1,,10.95,11.25,12.08,6.7,11.16,11.3,9.7,7.45,10.5,11.15,10.95,0.3,10.12,11.03,10.8,2.78,10.06,11.23,13,0.25,10.7,12.1,14.05,0.3,10.9,12.05,15,,,13.26,13.06,2,10.06,11,3.43,6.76,11.62,11.31,10.6,0.71,4.5,11.3,11.37,4.06,11.8,13.8,11.35,10.41,10.5,12.3,11.96,5,10.11,10.95,12.96,5.56,7.14,10.2,14,,6.85,14.62,13.6,6.7,10.83,11,12.5,0.21,10.56,11.6,12.6,9,11,,15.13,7.35,9.8,13.1,15.14,6.45,10.56,12,12.9,1.5,,12,14,6.7,9,13.1,,,9.9,9.86,,2.8,12.45,12,12.04,6.9,8.1,13.3,12.75,,
174445073110001,Jalgaon,17.74583333,73.18333333,,,,,,,,,8.6,11.25,4.58,7,11.56,11.1,0.75,7.35,8.15,10.57,5.6,6.53,8.5,11.1,6.2,7.5,8.02,10.3,,7.32,8.96,11.7,3.25,6.81,8.65,12.8,0.15,7.9,11.05,12.48,0.1,3.7,8.85,11.75,,,8.2,12.8,2.9,7.35,8.3,6.34,5.1,7.77,9.29,11.9,0.05,6.65,9.2,10.67,4.65,7.9,9.2,12.4,4.1,7.7,,10.25,3.3,7.18,7.35,10.25,1.95,9.4,10.5,11.41,,6.65,8.96,11,4.25,6,7.5,10.9,0.01,7.1,8.75,10.42,6.1,6.7,,13.8,7.65,8.9,9.9,13.2,7.2,8.15,10,12.8,3.1,,10.8,12.1,6.5,8.85,10.4,,,6.2,9.65,,3.4,8.25,10.2,2.8,6.7,7.6,10.45,15.35,,
174600073250001,Kalambani,17.76666667,73.41666667,,,,,,,,,3.2,4.2,2.37,3.73,2.8,4.15,2.95,3.72,3,4.34,3.4,3.64,2.9,3.8,3.45,3.7,3.06,0.01,0.01,3.8,3.6,4.3,3.1,3.7,3.68,4.3,0.85,1.1,3.05,4.25,0.9,1.95,3.55,3.95,,,3.05,3.74,3.1,3.8,3.6,3.43,3.2,3.35,3.07,4.5,1,3.12,2.8,3.7,3.5,3.6,4.5,5.8,2.2,3.3,2.75,5.1,3,4.71,5.2,4.1,1.8,4.7,3.8,5.15,,3.6,3.76,4.3,3.2,3.45,3,3.2,2.5,2.1,3.7,3.5,4.4,3.6,,1.9,4.1,3.8,3.3,2,3.7,3.9,3.6,3.5,3.3,,3.1,1.2,0.7,3.4,3.7,,,3.3,3.1,,2.01,3.1,3.8,2.8,2.8,3.2,3.75,3.2,,
174702073141901,Karanjani,17.78388889,73.23861111,,,,,,,,,6.2,6.8,1.17,3.56,6.09,6.7,1.1,4.45,6,8.85,0.85,2.58,5.8,6.7,1.98,3.7,5.87,7.9,,3.94,6.1,7,1.06,3.9,6.31,7.2,0.85,5.4,2.5,7.2,11.3,1.9,6.4,6.75,,,6.3,6.92,0.8,3.8,6.2,1.4,1.05,4.13,6.4,6.7,0.85,3.65,6.5,7.05,1.15,5.4,7.22,7.75,0.7,6.8,6,6.3,,5,4.95,6.95,0.9,4.02,5.95,7.75,,3.1,6.75,6.9,0.5,2.9,5.2,6.5,0.1,4.9,6.35,6.2,2.9,3.6,,7.6,2,4,5.9,7.65,1.95,3.3,,7,1,,6.5,6.5,2.1,2.8,6.1,,,3.6,5.95,,0.8,4.55,5.1,,2.8,3.5,6.6,7.3,,
165945073341501,Karanjari,16.99583333,73.57083333,,,,,,,,,13.9,,9.05,13.5,10.35,14.6,8.05,14.2,13.9,,10.9,8.22,11.3,10.3,12.3,13.9,11.37,15.1,6.9,13.7,13.9,15.3,11.05,13.94,12.25,13.7,10.85,13.8,14.4,14,11.5,11.85,13.75,15.1,,,13.4,14.87,8.7,13.7,14.25,11.71,10.9,9.32,6.4,14.67,1.2,9.13,10.5,14.35,3.75,11.9,12,12,9.55,,11.25,12,3.1,14.5,10.4,13.6,3.1,11.15,11.1,13.25,,11,7.83,11.15,4.85,9.4,9.6,12.1,1.5,9.9,10,9.5,6.3,11,,13.7,12.45,12.7,15.2,13.5,5.8,13.4,12.9,14.8,9.6,,15.6,10,12.8,13.8,16.5,,,3.7,15.45,,12.15,14.8,10,16,12.5,3.6,10.2,6.5,,
175320073260501,Kashedi,17.88888889,73.43472222,,,,,,,,,4.1,,0.01,2.58,3.99,5,0.2,3.63,3.95,,0.75,1.99,3.5,4.15,0.78,2.9,9.19,5.1,,3.05,3.85,4.9,0.05,2.84,3.89,4.9,1.1,3.7,4.35,5.5,,2.9,4.1,5.95,,,4.69,6.2,0.01,4.05,4.82,4.68,0.84,3.09,3.75,4.4,,3,4,5.5,0.94,4.95,5.1,5.4,0.86,,4.1,5.34,0.84,3.58,4.2,6,0.64,4.25,5.55,6.35,,3.7,5.42,4.85,0.94,3.46,4.44,5.4,0.69,4.14,4.55,5.39,2.6,3.5,,7.3,1.6,4.2,4.8,7.15,1.7,3.94,4.4,6,0.8,,4.5,6.2,0.9,2.7,4.8,,,3.2,4.96,,1.02,3.6,5.4,5.14,,2.84,3.7,0,,
172330073192001,Kotluk,17.39166667,73.32222222,,,,,,,,,5.5,,1.82,5.15,4.95,5.55,1.15,5.25,5.55,,3.55,2.37,5.34,3.8,3.2,5.45,5.1,5.7,0.6,5.33,5.66,6.6,3.1,5.3,5.11,7.8,0.25,5,5,5.8,0.1,3.9,5.05,5.75,,,5,5.73,1.1,5.47,5.6,3.37,2.45,4.64,4.74,7.1,1.35,4.29,5,7.15,2.45,5.4,6.1,6.1,1.87,5.9,5,8,1.25,8,11,8.65,1.45,5.85,7.6,7.71,,4.15,5.5,7,2.15,4.32,4.5,8,0.01,5.05,4.75,8.25,3.9,4.4,,11.5,2.6,4.8,5.4,11.5,3.25,4.35,5.2,8.65,1.65,,5.4,7.3,2.1,3.55,5.8,,,4.2,5.15,,1.65,4.9,3.8,7.15,2.65,2.3,5.5,3.55,,
175645073174001,Kumble,17.94583333,73.29444444,,,,,,,,,2.3,4.45,0.8,1.09,1.73,4.05,1,1.62,2.1,4.1,0.9,1.15,1.5,3.1,1,1,2.31,1.9,,0.95,1.87,3.36,1.11,1.14,2.4,7.35,0.75,2.4,2.45,6,0.9,1.85,2.1,3.9,,,2.35,3.8,0.8,1.2,2.47,0.95,1.2,0.96,1.86,3.15,1,1.2,2.3,4.07,1.2,3.2,3.45,3.55,0.62,2.1,2.35,3.2,0.5,2.1,2.7,3.45,1,2.61,3.95,5.05,,0.6,3.67,4,,1.2,2.1,4.5,0.7,2.1,2.4,3.5,1.5,1.3,,5.7,1.5,1.7,3.3,5.85,1.4,1.3,1.9,4.2,0.7,,3.2,4,1,1.2,3.7,,,1.6,2.6,,0.7,0.9,2.9,3.3,1,3.1,3,3.7,,
180300073170001,Mahapral,18.05,73.28333333,,,,,,,,,3.4,5.27,0.6,1.87,3.1,5.6,0.49,2.56,3.5,,0.9,1.41,3,4.7,1.1,1.6,3.13,3.95,,2.2,3.52,4.5,1.1,1.86,3.47,6.8,2.1,2.85,3.65,6.35,1.9,2.4,3.3,3.9,,,3.5,6.19,,2.4,3.73,0.93,1.45,2.1,3.82,5.75,0.45,2.05,3.7,6.19,1.15,3.3,3.55,4.25,,0.9,2.95,4.55,0.85,2.7,3.3,4.45,0.65,2.26,3.99,,,1.6,4.74,4.9,,2,6.25,4.9,0.6,2.25,3.25,4.65,1.9,1.4,,5.9,1.7,1.3,3.1,5.9,1.75,1.85,,4.45,0.85,,3.9,5.4,1.2,1.65,3.3,,,1.2,2.9,,0.55,1.8,2.4,4.35,1.1,3,3,3.05,,
175800073140001,Mandangarh,17.96666667,73.23333333,,,,,,,,,8.1,9.64,3.6,4.78,7.53,8.7,3.55,6.6,8.2,9.35,3.78,5.16,7.4,9,4.2,5,7.94,8.85,,5.2,8.05,9.4,3.85,5.82,8.2,,1.1,2.85,8.1,8.72,5.9,7.05,8.15,8.6,,,8,9.22,3.6,5.6,8.22,4.9,4,5.76,8.82,8.3,3.55,4.55,8.2,9.67,4.6,7.6,9.16,9.65,3.9,7.8,8.15,8.9,3.8,6,7.9,9.4,3.3,5.21,8.47,9.22,,5,8.92,8.8,,5.05,7.9,9,2.5,6.85,8.9,9,4,5,,9.7,4.2,5.8,8.7,9.7,4.4,5,,9,3.8,,8.8,9.9,2.4,4.8,8.1,,,5.4,8.85,,3.05,5.2,8.25,10.2,4,4.7,,,,
170820073354001,Muchari (Bhatadewadi),17.13888889,73.59444444,,,,,,,,,8.6,9.62,3.09,4.16,4.25,9.5,2.5,7.72,8.53,9.8,2.7,5.38,8.1,,4.2,7.5,8.63,5.9,2.3,6.14,8.44,9.4,3,6.42,8.44,,,7.3,4.95,16.35,1,3.25,8.65,8.9,,,8.6,11,2.6,6.42,6.05,,3.65,7.35,8.75,8.8,,,,9.95,,6,6.3,,2.65,5.2,8,6.7,1.45,6.21,6.9,4.45,2.9,3.47,4.4,9.91,,,7.15,,,,4.35,6.1,2.2,3.15,5.1,6.2,2.1,6.6,,11,3.9,7.3,8.3,11,2.1,6.8,7.6,9.5,,,8.4,,,,,,,6.4,8.05,,,,8,,2.8,6.17,7.15,5.1,,
174200073350001,Oni,17.7,73.58333333,,,,,,,,,9.2,12.38,1.17,5.1,8.81,12.45,,7.54,9.1,7.79,1.25,3.47,8.5,10.2,1.1,8.2,8.61,9.9,0.45,4.15,8.7,9.7,1.22,4.85,9.22,11.25,0.8,8,9.65,12.55,0.7,7.2,9.35,9.9,,,8.65,12.5,0.6,5.55,9.1,12.35,1.65,4.54,8.95,10,1.05,4.2,8.95,11.4,0.7,8.4,8.9,11.95,0.92,7.1,9.2,12.25,1.25,3.88,8.35,12.35,0.5,6.7,9.96,12.85,,7.15,9.8,12.1,1.35,6.15,8.45,4.2,0.25,4.65,9.3,10.05,2.3,5,,,2.7,6.8,9.3,6.5,1.4,5.35,8.9,10,0.9,,9.7,10.6,1.4,2.65,9.45,,,3.25,8.95,,1.5,7.65,9.1,10.45,1,5,4.5,10.45,,
172345073160001,Pimper,17.39583333,73.26666667,,,,,,,,,1.25,6.15,3.07,6.34,5,4.4,1.6,6.58,5.35,6.04,5.3,6,3,3.95,3.6,6.1,3.31,5.2,0.01,6.1,4,4.4,4.25,6.18,4.35,,0.1,4.7,4.1,5.68,0.8,3.05,4.65,5.1,,,6.65,8.27,3.15,6.27,6.6,3.87,1.45,6.5,6.75,9,2.2,0.49,6.5,6.47,4,7.2,6.4,5.95,3.1,6.4,5.65,6.2,3.2,6.6,7.2,4.4,3.1,6.71,2.3,5.25,,6,6.62,6.3,4.6,5.9,5.4,6,0.7,6.6,7.1,6.4,5.55,6.2,,7.25,3.95,6.2,6.5,7,4.4,6.3,5.8,6.7,2.7,,6.4,7.5,3.6,6.1,6.9,,,6.4,7.65,,2.3,6.3,6.55,7.3,4.7,3,6.7,6.7,,
165445073205001,Pomendi (Kh),16.9125,73.34722222,,,,,,,,,4.5,4.84,1.94,3.77,4.36,5.4,,4.06,4.5,5.35,2.7,3.18,4.25,4.08,3,4.2,4.37,6,1.5,4,4.5,5.9,2.28,3.92,4.49,5.2,,3.7,2.75,5.52,1,1.95,4.35,4.9,,,1.3,5.26,1.8,3.9,4.38,,2.8,4.1,4.7,4.65,1.3,3.8,4.8,4.82,2.4,1.4,4.3,3.9,1.72,3.7,4.5,4.9,2.54,3.31,3.8,4.9,2.4,3.9,5.4,5,,4.95,9.07,10,1.5,3.4,3.6,5.2,1,3.5,3.9,4.9,2.6,3.3,,5.7,1.45,3.8,4.8,5.6,1.4,4.1,4,4.85,2.4,,4.8,,9.7,3.5,4.9,,,3.2,4.45,,3.14,3.6,4.7,,2.9,4.17,,4.9,,
172500073400001,Pophali,17.41666667,73.66666667,,,,,,,,,6.8,6.13,4.1,5,5.38,5.95,3.85,4.95,5.05,6.15,4,5.15,5.5,6,4.25,5.6,6.32,5.9,3.62,5.55,6.94,5.4,3.8,5.96,5.75,5.3,1.35,5.8,5.9,5.9,2.7,4.3,5.9,5.35,,,6.2,5.12,3.95,4.1,5.45,3.78,4.7,5.1,4.65,5.65,3.8,4.9,5.3,5.52,3.7,2.3,6.1,4.2,4.72,4.6,5.45,6.2,4.53,5.2,6.15,,3.2,5.5,5.5,6.1,,,6.1,5,1.4,5.2,5.4,7.1,0.75,5,4.5,5.4,4.8,4.5,,8.45,4.45,4.3,4.8,8.45,4.25,5.1,4,5.2,4.3,,5.3,4.6,4.3,4.5,6.5,,,4.5,5.2,,3.1,5.85,7.3,,4,5.17,5,0,,
164200073420001,Raipatan,16.7,73.7,,,,,,,,,5.9,6.4,1.73,4.3,5.92,6.25,,6.12,5.5,,1.3,4.59,6,6.14,1.6,5,5.77,,1,4,5.85,6.6,1.28,4.9,6.37,,0.7,5.6,6.45,6.9,3.1,5.1,6.05,7.8,,,6.1,5.6,1.22,3.42,5.8,5.15,2.23,4.83,6.1,6.6,1.2,4.1,6.2,6.1,1.25,4.2,6.3,6.8,1.62,4.7,5.55,6.05,1.85,4.85,5.2,,1.3,6.1,7.72,7.85,,,6.6,6,1.8,3.65,4.95,6,0.8,4,5.4,5.35,3.1,4.4,,8,1.8,5.2,,8,1.6,4.1,5.3,5.5,1.6,,8,5.7,2.4,3.7,6.3,,,,5.8,,1.8,5.3,5.9,8,1.8,5.2,,,,
163900073310001,Rajapur,16.65,73.51666667,,,,,,,,,13.2,,11.43,12.72,13.65,14.4,,13.3,13.33,12.99,12.05,12.56,13,13.5,12.3,12.9,13.32,14.6,7.5,12.6,13.05,13.7,10.2,12.87,12.87,,0.25,12.8,13.1,15,4.7,10.1,13.05,15.95,,,12.8,14.96,8.7,16.6,13.5,14.09,12.24,12.4,12.89,13.6,8.01,12.64,13,14.43,11.24,13.6,13.4,14.1,10.84,11.3,12.65,14.24,10.49,12.8,12.55,13.39,8.74,13.6,10.1,14.11,,9.95,13.2,13.1,11,12.8,12.64,14,9.09,13.04,12.65,13.64,12.2,12.6,,15.4,12.35,12.7,13.2,15,11.3,12.64,13,14.25,10.5,,14,14.5,11.8,12.55,13.6,,,13.2,13.44,,11.46,12.7,13.25,12.24,12,13,12.6,14.24,,
171405073162001,Saitwade,17.23472222,73.27222222,,,,,,,,,7.6,8.5,0.95,4.56,7.7,9.1,,5.85,6.7,7.95,3.16,6.28,7.2,6.3,2.2,6,7.31,7.35,0.6,4.8,5.93,7.6,1.92,5.76,8.13,9.55,0.35,7.3,4.3,9.55,0.7,3.1,8.45,99.99,,,7.65,8.2,1.05,6.25,7.62,5.82,2.7,6.2,7.78,8.05,0.6,5.52,7.8,9.05,2.1,8,8.8,8.35,1.7,6.75,7.95,8.4,0.6,7.3,7.9,8.35,1.2,2.4,8.62,9.35,,6.9,3.4,7.6,1.5,7,7.5,7.5,0.01,10.1,7.55,8,3,5.9,,9.5,1.5,5.7,7.8,9.4,3,5.2,5.9,8.4,1.25,,7.3,3.6,2.6,4.2,7.75,,,5.2,7.9,,2.14,5.2,7,8,2.7,5.2,8.4,8.8,,
165900073430001,Sakarpa,16.98333333,73.71666667,,,,,,,,,8.15,9.36,5.48,7.5,8.1,9.15,4.6,7.65,8,,6.15,7.67,7.45,8.8,5.16,7.4,7.51,9.1,3,7.38,8,8.6,6.1,7.43,8.18,10.2,2.3,7.3,8.2,8.9,5.2,7.5,8.15,99.99,,,8,8.89,4.3,7.4,8,8.8,6.65,7.33,7.93,8.25,4.9,6.9,8.55,8.4,6,8.4,9.1,,5.82,6.8,8.05,7.9,5.85,7.36,8.1,8.5,2.8,8.45,8.5,7.23,,8.23,6.35,10.5,6.2,6.9,4.35,9.2,5.4,7.3,6.4,9.2,7.7,7.4,,11,6.1,7.3,7.9,11,7.1,7.4,,11,4.3,,7.9,10,6.4,7,8.5,,,7.45,7.85,,4.7,7.35,9.1,8.2,6.5,7.12,8.85,7.8,,
163921073255001,Solgaon,16.65583333,73.43055556,,,,,,,,,5.2,5.6,3.9,,2.28,6.2,,,4.6,5.42,4.4,5.32,3.5,9.1,4.51,2.2,4.02,7,3.1,5.35,5.1,5.35,3.9,4.72,5.4,7.1,0.75,2,2.15,3.31,0.6,1.7,2.45,3.65,,,1.95,7.04,3.7,4.58,4.5,2.48,1.75,1.82,3.16,5.95,3.38,4.38,5.35,6.05,4.1,3.9,3.1,5.9,1.73,1.9,2.05,5.48,,1.94,2.6,,1.18,6.7,3.1,12.87,,,,5,,,12,,1.9,2.03,2.05,4,2.2,4.2,,6.2,2.1,2,1.8,6.1,2.25,1.93,2.2,7.4,1.8,,2.5,4.9,1.9,2.07,2.4,,,3.1,2.07,,2.17,2,2.95,,1.9,2.17,3.23,4.4,,
174200073183001,Tetavli (Kadamvadi),17.7,73.30833333,,,,,,,,,8.2,9.86,3.4,5.08,7.64,9.65,3.6,6.4,8.74,7.72,3.6,4.18,7.5,9.9,3.8,4.72,7.45,9.7,,5.45,8.24,9.9,3.7,5.67,8.42,10.2,0.65,7.1,8.85,10.47,1.2,7.25,7.9,8.3,,,8.25,9.95,3.7,5.95,8.47,4.22,3.75,5.75,8.25,10.05,3.1,5.06,8.4,10.1,3.85,6.7,9.15,,3.3,7.75,7.95,9.5,3,7,8.15,9.9,3.5,9.15,8.1,10.8,,4.1,5.75,10.4,3.2,3.9,7.3,10,2.2,6.4,9,11,4,5.2,,11,4.5,5.3,6.9,11,4.6,4.8,8,10.9,3.3,,8.8,9.8,4.8,4.3,7.7,,,5.1,7.8,,2.8,5.9,8.25,9.2,3.8,4.7,8.6,0,,
174500073170001,Vakvali,17.75,73.28333333,,,,,,,,,2.5,5.05,0.3,0.9,2,3,0.35,1.76,2.3,,0.3,0.94,1.7,3.1,0.4,0.8,1.66,3.85,,0.92,2.2,4.15,0.41,1.05,2.1,,0.95,6.85,2.5,,0.9,1.7,2.4,3.9,,,2.1,4.15,0.3,1.15,2.42,0.71,0.15,1.09,2.14,5.1,0.2,0.9,2.3,5.1,0.01,2.1,2.8,,1.65,2.2,4.1,4.4,,3.66,1.4,3.9,1,1.42,2.75,5.3,,3.48,3.1,4.7,0.1,3.6,1.45,5,0.04,1.2,2.2,4.75,1.3,0.9,,6.3,1.15,1,2.2,6.15,1.2,0.7,1.9,4,0.2,,2.9,5.6,1.8,0.5,2.2,,,1.1,1.9,,0.01,1.2,2.55,,0.2,0.4,2.25,4.9,,
173312073302901,Valops Buddhwadi,17.55333333,73.50805556,,,,,,,,,2.6,,0.74,0.76,4.8,5.4,0.45,1.35,2.7,4.5,0.8,0.68,2.3,2.5,0.8,0.9,2.81,4.55,0.01,0.77,2.4,4.9,0.74,0.82,3.26,,0.95,1.8,3.7,4.8,,2.65,3.4,3.75,,,3.6,5.1,0.76,1.14,3.55,,2.85,0.65,2.09,4.1,0.4,1.25,2,5.1,0.5,1.8,4.45,4.8,0.42,3.95,3.2,4.4,0.8,1.81,2.5,5.45,0.9,1.82,3.9,5.42,,0.65,4.8,4.1,0.95,0.2,3.6,4.2,0.2,2.2,3.3,4.15,1.35,0.4,,5.4,1.75,1.6,3.1,5.5,1.7,0.9,2.5,4.1,1,,3,3.8,1,0.9,2.6,,,0.8,2.7,,1.01,0.75,3,,,,2.8,3.6,,
173619073360801,Dhamnand_Pz,17.60527778,73.60222222,,,,,,,,,,,,,,,,,,,,,,,,,,6.5,8.72,,,,,,,,,,,,,,,,,,,,,,,9.8,,,,,,9.05,,,,9.55,9.9,9.9,9.2,9.9,9.35,12.2,9.25,,,36.4,42,,,,,10.5,,55.5,22.5,10.7,9.32,31.3,31.25,25.6,41,42,20.1,24.5,,,25.1,40,,60,27.4,21.3,30.5,35,21.4,,33,,26,28.6,33,,,30,27.3,,26.55,26.8,21.9,60,26.6,24.1,,,,
174230073251001,Veral_Pz,17.70833333,73.41944444,,,,,,,,,,,,,,,,,,,,,,,,,,,,,,,,,,,,,,4.65,0.1,2.85,4.05,4.55,,,3.95,6.52,1.23,,,,,,,,,,,,,,4.65,4.65,8.3,7.7,14.7,6.1,8.1,,,16.4,6.4,,,15.22,,6.9,8.57,14.8,5.8,13.5,16.3,16,10,14.8,16,16.95,12.9,14.9,,,6.4,7.9,9.5,,12.5,8.3,8.1,,,,,,,,,,,,,,,,,,,,,,,
170445073363001,Devrukh,17.07916667,73.60833333,,,,,,,,,,,,,,,,,,,,,,,,,,,,,,,,,,,,,,,,,,,,,,8.15,3.4,4.15,13,,,,,5.7,,,,8.6,3.8,,,,,1.9,,8.1,,,,8.6,4.1,3.11,8,,,,,8.9,4.45,4.25,7.51,8,3.15,5.15,5.15,8.5,9.6,4.1,,9.7,4.75,4.4,4.7,9.1,11.5,4.8,4.9,9,4.4,,5.1,16,4.2,5,5.05,,,4.2,4.85,,4.15,4.8,15.6,8.2,,4.53,5.5,8.1,,
165310073264001,Morewadi(Agave),16.88611111,73.44444444,,,,,,,,,,,,,,,,,,,,,,,,,,,,,,,,,,,,,,,,,,,,,,15.5,7.76,13,4.47,,,,,13.3,,,,15.5,10.2,,,,,2,,,,,,13,1.7,9.93,10.76,,,,10.35,14.1,9.5,12.5,4.2,13.2,5.9,13,13.3,13.1,12,12.9,,15.49,8.25,12.8,13.3,15.5,5.5,12.9,13.3,15.5,6.7,,13.9,13.4,11.6,12.9,14.3,,,13.35,12.8,,10.37,13.1,13,5.8,13,13.46,13.75,11.6,,
170951073161001,Ganapati Pule-1,17.16416667,73.26944444,,,,,,,,,,,,,,,,,,,,,,,,,,,,,,,,,,,,,,,,,,,,,,,,,,,,,,,,,,,,,,,,,,,,,,,,,,,,4.3,,,11.9,14.75,16.9,17.6,3.5,16.15,17.2,17.8,12.7,16.2,17.45,20,12.2,15.9,16.5,20,12.05,15.1,1.3,19,10.8,,15.5,17,11.9,13,16.7,,,14.3,15.95,,11.6,14.8,15,18.2,12,14.36,16.8,16,,
170017073173301,Ratnagiri-1,17.00472222,73.2925,,,,,,,,,,,,,,,,,,,,,,,,,,,,,,,,,,,,,,,,,,,,,,,,,,,,,,,,,,,,,,,,,,,,,,,,,,,,0.9,,4.6,,,5.1,,0.8,10.1,,10.5,1.1,,1.65,2.8,1.15,1.5,1.8,2.95,1.15,0.8,1.3,2.2,0.4,,2.1,1.5,1.3,0.6,2.25,,,1.6,1.4,,1.32,1.2,1.7,1.5,0.6,1.28,1.5,1,,
172930073154401,Shingartale-1,17.49166667,73.26222222,,,,,,,,,,,,,,,,,,,,,,,,,,,,,,,,,,,,,,,,,,,,,,,,,,,,,,,,,,,,,,,,,,,,,,,,,,,,3,,3.3,3.05,4,5,4.6,,2.54,5.65,6.8,,4.8,6.38,7.8,3.4,5,5.9,7.7,1.75,4.55,5.6,4.75,2.05,,6.3,1.8,3.9,4.15,6.3,,,4.15,6.25,,1.95,5.1,4.45,7.45,2,1.5,5.35,7,,
175137073154401,Visapur,17.86027778,73.26222222,,,,,,,,,,,,,,,,,,,,,,,,,,,,,,,,,,,,,,,,,,,,,,,,,,,,,,,,,,,,,,,,,,,,,,,,,,,,3.3,,,,3.5,3.65,6,1,3.55,,,3,3,4.33,6.43,3.2,3.1,4.1,6.43,2.9,3,3.4,6.43,2.6,,4.3,6.4,1.1,3.1,3.9,,,2.9,3.8,,1.8,3.4,4,,,3,3.75,0,,
171038073194201,Chafe Katalwadi,17.17722222,73.32833333,,,,,,,,,,,,,,,,,,,,,,,,,,,,,,,,,,,,,,,,,,,,,,,,,,,,,,,,,,,,,,,,,,,,,,,,,,,,,5.9,,,,10.25,10.1,0.6,7.9,9.1,9,4.8,5.7,7.65,9.5,3.4,4.4,5.4,9,3.1,4.6,4.6,6.5,2.3,,5.2,10.2,2.3,3,5.6,,,,5.2,,2.6,4.8,10.4,6.4,3,4.08,5.1,5.6,,
174310073233401,Khed,17.71944444,73.39277778,,,,,,,,,,,,,,,,,,,,,,,,,,,,,,,,,,,,,,,,,,,,,,,,,,,,,,,,,,,,,,,,,,,,,,,,,,,,,2.9,,1.3,,2.1,2.8,0.1,1.8,2.3,2.65,1.4,1.6,2.45,4.5,1,1.6,2.4,4.65,0.9,1.65,2,2,,,2.5,3,0.75,1.2,3.7,,,1.5,2.2,,,,,,,,,0,,
170516073234501,Lanjuka Sada,17.08777778,73.39583333,,,,,,,,,,,,,,,,,,,,,,,,,,,,,,,,,,,,,,,,,,,,,,,,,,,,,,,,,,,,,,,,,,,,,,,,,,,,,13.25,,,,10.7,13.1,1.5,7.7,,,,,,,,,,,4.9,,,11,9.2,,11.6,12.3,9.8,11.7,12.9,,,,12.1,,9.8,11.8,10.75,,10,11.64,12.5,12.3,,
172354073304301,Mandki,17.39833333,73.51194444,,,,,,,,,,,,,,,,,,,,,,,,,,,,,,,,,,,,,,,,,,,,,,,,,,,,,,,,,,,,,,,,,,,,,,,,,,,,,2.6,,,,1.25,2.4,0.67,1.05,1.5,1.15,4.05,1,2,4.1,1.7,0.9,1.5,4.35,1.8,0.9,1.2,4,0.85,,1.8,4.9,1,1.15,1.5,,,0.9,1.95,,1.01,1,2.3,3.85,0.75,1.72,1.6,3.75,,
172900073280101,Pachad,17.48333333,73.46694444,,,,,,,,,,,,,,,,,,,,,,,,,,,,,,,,,,,,,,,,,,,,,,,,,,,,,,,,,,,,,,,,,,,,,,,,,,,,,1.72,,,,0.75,1.1,0.7,1.5,0.85,1.45,1.3,0.3,1.53,3,1.2,0.7,1.5,3.2,0.95,0.55,2.5,3,0.8,,1.5,3.7,0.3,0.45,1.35,,,2.1,1.15,,0.4,0.8,1.5,2.85,0.2,1,1.8,3.55,,
165915073285201,Pali-1,16.9875,73.48111111,,,,,,,,,,,,,,,,,,,,,,,,,,,,,,,,,,,,,,,,,,,,,,,,,,,,,,,,,,,,,,,,,,,,,,,,,,,,,8.1,,5.8,7.8,10.6,13,4.45,9.1,1.7,12.5,6,8.2,11.51,15.2,5.7,8.5,11.3,14.5,6.15,7.7,,13.2,5.3,,12.3,14,5.7,6.3,11.6,,,,11.75,,5.6,9.3,11.6,12.8,5.5,3.56,9.8,8.9,,
170005073223201,Pomendi,17.00138889,73.37555556,,,,,,,,,,,,,,,,,,,,,,,,,,,,,,,,,,,,,,,,,,,,,,,,,,,,,,,,,,,,,,,,,,,,,,,,,,,,,15.2,,,,14.1,,6.5,13.9,,,9.65,10.8,13.15,17.1,8.7,10.8,11.9,16.5,9.8,9.8,11.8,14.7,6.7,,13,16,2.4,13.2,15.6,,,10.4,16.3,,9.22,15.45,16.3,12.2,7.9,16.64,4.6,16.5,,
174523073131601,Talsure,17.75638889,73.22111111,,,,,,,,,,,,,,,,,,,,,,,,,,,,,,,,,,,,,,,,,,,,,,,,,,,,,,,,,,,,,,,,,,,,,,,,,,,,,1.8,,,,0.45,1.75,0.01,1,1.2,1.2,1,1,1.58,2.76,1.3,1,1.2,2.7,1.35,1,1,1.6,0.4,,1.2,1.5,0.6,1.1,1.5,,,0.9,1.3,,0.25,0.4,2.35,1.4,0.3,0.9,1.2,1.4,,
172755073242201,Umroli,17.46527778,73.40611111,,,,,,,,,,,,,,,,,,,,,,,,,,,,,,,,,,,,,,,,,,,,,,,,,,,,,,,,,,,,,,,,,,,,,,,,,,,,,5.55,,,,4.1,6,1.1,2.1,4.7,5.7,3.3,3.5,5.33,7.8,2.65,3.7,4.5,7.6,1.75,3.65,4.4,6,1.4,,5.1,7,1.5,3.2,4.6,,,3.3,4.4,,1.3,4.2,5.2,6.6,1.65,4,5.4,5.8,,
165232073302501,Gawane,16.87555556,73.50694444,,,,,,,,,,,,,,,,,,,,,,,,,,,,,,,,,,,,,,,,,,,,,,,,,,,,,,,,,,,,,,,,,,,,,,,,,,,,,,5.1,,4.7,4.8,5,4,4.8,4.8,5.2,5.5,5,5.37,,5.25,5.1,5,6.65,4.9,4.7,5.3,5.4,4,,6.7,6.2,4.3,4.8,6.35,,,,4.95,,4.6,4.9,5.8,5.2,4.3,3.94,4.87,5.5,,
171359073161901,Khandala,17.23305556,73.27194444,,,,,,,,,,,,,,,,,,,,,,,,,,,,,,,,,,,,,,,,,,,,,,,,,,,,,,,,,,,,,,,,,,,,,,,,,,,,,,,0.55,1.05,2.45,5,0.45,1.6,3.15,5.25,1,1.3,4.08,6.23,1.1,1.1,2.5,6.4,1.2,1.2,1.6,3.9,0.55,,2.4,3.8,0.6,0.85,2.3,,,,2.1,,0.74,1,2.3,3.75,1,1.73,2.8,5.05,,
172710073373501,Shirgaon,17.45277778,73.62638889,,,,,,,,,,,,,,,,,,,,,,,,,,,,,,,,,,,,,,,,,,,,,,,,,,,,,,,,,,,,,,,,,,,,,,,,,,,,,,,1.45,7.6,7.6,10.5,1.75,8.1,8.3,8.55,7.5,8.1,8.05,9.5,8.45,8.3,8.6,9.1,6.4,7.7,8,9.4,4.8,,8.9,8.6,6.8,8.4,8.4,,,6.3,8.4,,6.1,7.7,8.45,6.7,6.6,8.94,8.45,8.8,,
164154073234102,Dhartale,16.69833333,73.39472222,,,,,,,,,,,,,,,,,,,,,,,,,,,,,,,,,,,,,,,,,,,,,,,,,,,,,,,,,,,,,,,,,,,,,,,,,,,,,,,,,,,,,5.3,7.35,4.6,4.8,7.3,9.55,4.4,5,5.6,9.1,2.05,4.45,6.5,3.4,2.9,,6.3,7.9,3.7,3.75,7.4,,,7.1,6.15,,3.2,4.55,7,2.65,3.7,1.49,7.9,9.15,,
163625073325701,Hatiwale,16.60694444,73.54916667,,,,,,,,,,,,,,,,,,,,,,,,,,,,,,,,,,,,,,,,,,,,,,,,,,,,,,,,,,,,,,,,,,,,,,,,,,,,,,,,,,,,,11.2,10.4,2.2,,10.68,,6.3,8,9.5,,3.8,8.2,9.6,10,3.4,,9.5,,5.1,8.2,9.5,,,9.75,10.1,,8.8,9.65,10.3,9.3,8.8,9,10.1,10.4,,
163739073321301,Jaitapur,16.6275,73.53694444,,,,,,,,,,,,,,,,,,,,,,,,,,,,,,,,,,,,,,,,,,,,,,,,,,,,,,,,,,,,,,,,,,,,,,,,,,,,,,,,,,,,,2.1,2.8,1.5,2,3.61,4.4,1.6,1.8,3.5,4.55,1.5,1.8,2.5,3.2,1.5,,3,3.4,1.4,1.7,3.3,,,1.8,3.15,,1.35,2.2,2.8,3.9,1.15,1.9,27,2.6,,
164154073234101,Pawas,16.69833333,73.39472222,,,,,,,,,,,,,,,,,,,,,,,,,,,,,,,,,,,,,,,,,,,,,,,,,,,,,,,,,,,,,,,,,,,,,,,,,,,,,,,,,,,,,2.55,4.3,2.1,2.2,3.3,4.75,1.95,2.1,2.6,4.6,1.6,2.5,2.6,4.1,1.7,,3.4,4.6,2.2,1.4,3.15,,,2,2.9,,2.09,2.45,2.8,5.5,2.15,3.09,3.2,4.2,,
163335073293301,Dattawadi,16.55972222,73.4925,,,,,,,,,,,,,,,,,,,,,,,,,,,,,,,,,,,,,,,,,,,,,,,,,,,,,,,,,,,,,,,,,,,,,,,,,,,,,,,,,,,,,,,,12.3,13.7,6.85,10.3,1.6,13.2,,7.2,12.6,13.2,12.2,6.6,,13.2,12.8,9.3,11.8,13.5,,,12,13.3,,7.8,12.4,13,12.8,11.8,12.7,13,12.9,,
170515073171801,Varewadi,17.0875,73.28833333,,,,,,,,,,,,,,,,,,,,,,,,,,,,,,,,,,,,,,,,,,,,,,,,,,,,,,,,,,,,,,,,,,,,,,,,,,,,,,,,,,,,,,,,,,,,,,,,,4.3,5.8,2,,4.7,6.3,2.9,2.7,4.3,,,3.15,4.1,,1.6,3.75,4.8,5.9,2.65,3.92,5,5.8,,
