station_id,station_name,latitude,longitude,1994_season1,1994_season2,1994_season3,1994_season4,1995_season1,1995_season2,1995_season3,1995_season4,1996_season1,1996_season2,1996_season3,1996_season4,1997_season1,1997_season2,1997_season3,1997_season4,1998_season1,1998_season2,1998_season3,1998_season4,1999_season1,1999_season2,1999_season3,1999_season4,2000_season1,2000_season2,2000_season3,2000_season4,2001_season1,2001_season2,2001_season3,2001_season4,2002_season1,2002_season2,2002_season3,2002_season4,2003_season1,2003_season2,2003_season3,2003_season4,2004_season1,2004_season2,2004_season3,2004_season4,2005_season1,2005_season2,2005_season3,2005_season4,2006_season1,2006_season2,2006_season3,2006_season4,2007_season1,2007_season2,2007_season3,2007_season4,2008_season1,2008_season2,2008_season3,2008_season4,2009_season1,2009_season2,2009_season3,2009_season4,2010_season1,2010_season2,2010_season3,2010_season4,2011_season1,2011_season2,2011_season3,2011_season4,2012_season1,2012_season2,2012_season3,2012_season4,2013_season1,2013_season2,2013_season3,2013_season4,2014_season1,2014_season2,2014_season3,2014_season4,2015_season1,2015_season2,2015_season3,2015_season4,2016_season1,2016_season2,2016_season3,2016_season4,2017_season1,2017_season2,2017_season3,2017_season4,2018_season1,2018_season2,2018_season3,2018_season4,2019_season1,2019_season2,2019_season3,2019_season4,2020_season1,2020_season2,2020_season3,2020_season4,2021_season1,2021_season2,2021_season3,2021_season4,2022_season1,2022_season2,2022_season3,2022_season4,2023_season1,2023_season2,2023_season3,2023_season4
202500076270001,Amdapur,20.41666667,76.45,,,,,,,,,5.5,7.43,5.2,4.8,6.15,8.1,6.98,5.61,4.92,7.4,4,4.15,5.1,5.7,4.75,5.7,5.8,7.15,4.65,5.15,6.6,7.25,4.65,4.15,5.5,7.35,1.6,4.87,6.09,11.49,5.5,5.6,6.63,9.3,,,7.73,7.65,5.52,6.35,7.34,10.39,3.75,6.33,6.1,7.45,6,4.9,6.25,9.15,8.85,6.35,8.05,11.85,,,,7.25,,,7,10.45,6.35,7.4,8.35,,,12.9,13.4,,5.15,5.5,7.7,13.75,2.9,7.05,8.25,12.55,6.35,6.85,,12.65,5.6,6.5,7.2,12.4,7.85,6.7,7.95,13.6,6.75,,7.75,13.05,5,3.18,5.8,,,,7.1,,4.52,4.69,6.56,9.1,4.4,5.75,6.1,10.16,,
200530076105001,Deolgaon Mahi,20.09166667,76.18055556,,,,,,,,,6.1,,5.5,4.8,6.15,,7.32,4.88,4.13,,1.85,3.45,2.65,,3.1,4.05,5.25,,4.2,5,7.2,,2.35,3.65,5.18,,3.2,4.3,5.19,,2.32,4.7,5.56,7.35,,,5.35,7.82,1.27,5.77,5.3,7.35,1.1,4.02,5.12,7.35,3.49,3.92,5.62,7.35,3.92,4.02,5.03,7.42,3.55,4.3,4.9,7.6,1.17,3.82,5.5,,4,4.4,5.1,8,,4,5.9,7.2,1.2,3.7,4.7,4.92,1.5,4.22,5.35,5.8,3,3.72,,5.32,1.25,4,4.8,5.6,2.97,3.5,4.22,5,2.52,,3.92,5.02,1.7,1.37,3.4,,,,4.75,,0.88,1.97,4.03,6,1.4,3.42,4.7,5.04,,
200100076020001,Deolgaon Raja,20.01666667,76.03333333,,,,,,,,,11.7,11.65,9.8,7.1,8.5,,9.42,10.79,9.51,,1.3,1.05,2.65,,2.52,2.35,3.8,,2.05,3.1,7.3,,1.85,1.85,2.85,4.16,1.5,1.98,2.98,13.49,0.85,2.5,2.64,3.72,,,9.52,7.05,1.7,1.5,3.15,6.6,0.95,1.5,2.65,5.7,2.88,1.45,2.95,5.75,3.2,1.95,2.75,5.45,3.15,2.2,2.6,7.5,0.79,1.25,2.7,3.6,1.6,2.3,2.5,4.35,,2.85,5,11.29,1,2,3.65,7.45,4.2,4.15,,7.8,7,6.05,,9.05,2.53,2.8,3.4,5.6,5.45,6.4,2.75,8.3,2.18,,3.95,9.55,4,1.07,2.6,,,,5.8,,2.17,1.91,3.16,,2.3,3.6,4.1,7.45,,
202600076410001,Deolgaon (Sakarsha),20.43333333,76.68333333,,,,,,,,,8.6,,7.5,7.3,6.8,,7.31,5.42,5.19,,4.9,3.9,6.35,7.7,4.36,7.1,7.35,8.1,5.25,6.8,8.1,8.9,4.25,1.35,6.7,7.78,,6.2,7.75,,8.9,6.4,7.82,10,,,8.28,10,3.44,4.95,8.05,10,3.9,5.21,7.7,8,5.23,6.35,7.5,10,5.66,6.5,7.8,,7.9,5.73,7.25,10,3.7,6.15,7.23,6.75,7.6,11.6,7.6,8.2,,5.25,7.6,,3.45,5.35,7.5,,4.1,5.85,6.45,7.6,6,6.1,,7.8,4.3,5.8,7,12,5.6,5.8,11.99,7.2,5,,7,11.99,3.8,3.67,5.3,,,,6.7,,3.35,3.65,6.05,12,4.1,5.1,,,,
204000076020001,Dhamangaon,20.66666667,76.03333333,,,,,,,,,4.7,8.02,2.85,2.05,3.15,4.8,4.72,1.91,1.69,4.85,1.85,1.3,2.5,4.75,3.61,3.05,4.8,4.75,2.95,4.1,5,4.5,4.2,4.25,4.9,,3,2.7,3.84,9.8,3.9,2.81,4.35,4.7,,,4.86,9.79,4.1,4.6,5.5,10.4,1.45,2.85,4,9.6,3.96,4.35,4.7,9.6,4.35,4.3,4.8,9.8,4,3.7,5,10,2.7,3.3,5.05,4.7,3.6,3.6,4.4,5,,4.85,5.2,4.6,2.1,2.2,4.05,4.6,2.1,2.8,4,5.3,4.4,2.7,,4.7,3.51,2.2,3.3,10,3,2.4,3.9,5.9,3.17,,4.4,9,3.8,1.52,3.2,,,,4.5,,2.05,1.87,3.05,5.75,2.1,2.35,4.3,7.95,,
202915076175001,Dongar Khandala,20.4875,76.29722222,,,,,,,,,1.6,,1.45,1.15,3.7,,3.79,1.72,1.38,,1.4,1.1,2.05,1.7,1.18,1.25,2.05,,1.1,2.8,2.05,,1.1,1.55,1.55,7.35,0.8,1.32,1.66,9.2,0.9,3.8,1.81,3.4,,,5.18,3.4,3.4,1.8,,5.3,0.05,,1.6,,4.92,,7.5,11.65,6.25,4.7,6.1,,1.7,1.4,4.7,12,3.5,4.25,2.1,9.4,4.2,,9.35,11.7,,5.8,10.2,11.2,0.5,1.45,5,10.1,1.4,1.7,6.3,9.6,1.5,5,,10.4,8.13,4.5,5.2,12,5.2,3.7,5.8,11.99,1.85,,8.9,11.99,2.8,2.37,5.2,,,,4.55,,1.15,1.75,1.5,3.35,3.85,1.1,1.4,5.58,,
204000076330001,Garadgaon,20.66666667,76.55,,,,,,,,,5.9,,2.55,2.5,3.35,,3.79,3.71,1.25,,1.5,1.2,2.4,4.05,1.15,1.7,2.85,,1.7,2.95,3.2,,3,1.2,2.5,7.02,0.1,1.48,2.22,6.08,2.98,2.75,3.71,4.21,,,4.15,4.83,1.83,6.78,3.87,6.28,0.15,1.06,2.15,4.28,0.78,1.15,2.58,3.98,2.7,1.08,2.68,6.88,1.18,1.6,2.3,6,,1.33,2.6,3.6,2,2.7,3,4.4,,1.28,2.3,4.2,,2.6,1.9,3.58,0.01,5.28,2.6,1.8,1.8,2.38,,7.38,0.9,2,3.4,8,2.78,1.9,3.08,9.09,2.87,,8.88,9,0.6,0.25,0.9,,,,2,,0.43,0.25,1.33,4.55,0.4,1.2,1.7,3.34,,
202800076064001,Hatedi,20.46666667,76.11111111,,,,,,,,,7,9.52,4.5,2,7.2,7,5.96,3.17,2.67,6.3,2.3,1.7,4.2,6.5,4.12,1.9,4.75,,4.6,4.7,6.95,,3.7,4,4.35,7.5,1.7,2.64,5.6,8.55,2,1.95,4.04,8,,,7.05,8.4,4.6,6.73,8.3,8.4,1.1,2.23,5.05,8.4,5.25,5.2,8.25,8.4,7,4.9,8.2,,7.9,5.56,5.8,8.4,1.5,1.2,3.53,7.4,2.1,2.1,5.35,,,7.4,,,3,3.2,4.1,,1.7,2.4,3,6.1,2.4,2.5,,8.2,8,2.1,2.7,8.4,3.8,1.8,3.1,8.39,2.17,,5.4,8.39,,1.72,2.1,,,,2.7,,3.33,3.5,,,0.35,1.7,1.68,6.84,,
202730076223001,Karwand,20.45833333,76.375,,,,,,,,,2.1,4.47,1.35,2.75,3.35,,4.81,2.68,1.88,,1.3,1.4,1.5,1.8,1.2,1.05,1.9,2.55,1.4,2.85,3,,1.6,1.45,1.65,2.73,3.25,1.5,1.72,3.16,1.15,1.4,1.69,2.82,,,4,2.85,1.3,1.15,2.63,3.25,1.15,1.41,1.45,3.8,1.29,1.83,2.7,3.25,1.28,1.7,3.1,4.15,2.35,1.45,3,,1.45,1.25,2.82,3,1.65,3.4,3.7,,,1.75,,,1,1.2,1.9,3.1,1.6,2.65,2.3,3,1,1.55,,4.45,3.1,,2.4,5,1.75,2.9,2.05,4.99,2,,4.25,5,1,0.87,1.4,,,,4.2,,1.45,1.98,1.45,5,1.2,1.35,1.45,3.62,,
202630076134501,Kelwad,20.44166667,76.22916667,,,,,,,,,4.4,7.32,3.45,2.75,6.1,6,4.91,2.22,1.75,6.7,2.1,2.7,2.1,4.5,4.02,2.75,5.35,,5.15,5.3,6.1,,1.8,1.8,3.18,5.25,1.55,2.1,4.38,6.25,3.4,2.05,5.03,6.35,,,6.05,6.65,4.25,4.05,6.33,7.05,1.4,1.65,3.45,6.35,2.52,2.32,5.2,6.35,2.9,3.95,6.35,6.65,4.95,5.4,6.5,6.65,2.4,1.15,4.1,5.8,3.5,4.6,6.6,6.9,,4.1,,,1.6,1.8,3.5,5.9,1.8,2.2,4.77,6.3,2.4,2.12,,5.9,2.2,4.1,6.3,6.6,5.1,2.2,5.4,6.6,4.32,,6.2,7,2.4,2.27,2.3,,,,4.95,,3.99,1.52,3.6,6.45,2.12,3.25,4.1,6.81,,
204200076343001,Khamgaon,20.7,76.575,,,,,,,,,4.7,8.1,2.1,1.8,4.12,7.6,4.76,4.02,1.91,7.8,1.35,2.6,2.9,4.65,2,2.9,3.9,5.8,1.65,2.95,4.6,,1.9,1.95,2.9,5.95,1.25,2.3,2.89,8.27,2.02,3,4.37,6.9,,,9.41,8.77,1.62,2.47,4.75,8.15,1.37,2.27,3.3,7.05,2.17,2.3,4.02,7.12,4,3.07,3.98,7.52,1.24,2.15,3.2,,1.32,2.27,3.42,7,2.05,2.9,3.8,6.8,,2.4,5,,,2.8,6,6.42,2.2,2.9,,4.52,,3.01,,,1.4,3,3.4,,,,,6.2,2.72,,5.02,6.42,1.2,0.84,2.4,,,,2.6,,0.97,1.12,2.37,6.35,2.3,2.3,2.95,6.15,,
195910076144001,Kingaon Raja,19.98611111,76.24444444,,,,,,,,,6.3,,3.7,2.8,5.45,,6.21,7.15,5.68,,3,1.55,2,,2.1,1.7,2.9,,2.3,2.7,3.8,,3.15,2.1,2.2,6.89,2.9,1.9,2.78,7.12,2.62,4.1,5.96,7.22,,,8.15,7.22,3,1.86,2.66,6.45,1.9,1.56,2.02,4.62,3.8,2.42,3.17,7.82,4.62,3.22,4.27,6.92,4.87,5.5,7.6,7.8,2,1.17,2.7,4.5,3.6,2.7,8,,,3.55,5.95,,0.5,6.5,3,3.5,2.2,10.42,3.25,4.5,4,3.12,,5.12,2.01,2.2,2.6,5.1,2.27,2.1,3.32,7.3,3.45,,7.5,11.99,8,2.68,3.35,,,,2.3,,1.7,1.4,2.07,4.75,2,1.65,1.95,7.64,,
204005076405001,Kolori,20.66805556,76.68055556,,,,,,,,,7.2,11.25,10.95,7.25,7.82,,,5.39,7.13,,4.5,3.65,4.85,,6.38,3.75,5.15,7.4,3.75,5.85,6.85,,4.95,2.56,5.1,7.6,4.9,3.36,5.83,7.48,5.93,6.45,7.54,11.9,,,9.78,11.9,8.73,8.53,9.81,11.4,2.7,3.93,7.13,9.08,4.45,4.53,6.88,8.93,7.73,8.59,6.56,11.33,10.88,8.65,8.8,11.9,2.33,4.43,6.4,8,8,7.1,8.6,9.4,,5.85,9.1,7.1,,,7.5,7.13,3.3,4.63,6.61,8.13,7.6,7.03,,10.43,3.9,8.2,8.7,11.9,8.73,9,9.53,11.89,6.7,,9.33,11.89,4.4,2.32,4.3,,,,11.9,,2.75,2.09,5.08,9.82,3.3,2.08,3.1,8.66,,
203300076330001,Lokhanda,20.55,76.55,,,,,,,,,4.1,,4.8,3.95,3.35,,4.51,4.16,3.44,,3.93,2.95,2.9,4.35,2.25,2.1,3.1,4.1,2.1,2.85,4.8,4.7,4.1,3.25,3.8,4.66,,2.62,3.31,4.85,3.58,3.5,4.6,7.5,,,4.01,7.5,5.13,5.18,7.58,7.45,2.65,3.02,3.08,3.88,3.43,3.3,4.2,7.5,7.18,4.18,7.5,,7.48,3.9,3.4,7.5,2.28,2.68,3.1,4.7,3.58,4.3,5.1,7.8,,4.87,,,,,3.45,4.9,,5.85,3.7,4.08,4.3,4.88,,7.5,4.05,3.5,3.7,7.91,6.58,4.2,4.78,7.91,5.85,,7.5,7.5,7.3,1.43,5.1,,,,3.9,,4.23,3.28,3.35,5.55,1.8,4.1,2.95,4.52,,
195900076330001,Lonar,19.98333333,76.55,,,,,,,,,8.9,9.55,4.85,5.35,8.4,,8.83,6.39,5.32,,7.15,1.8,8,,2.3,5.6,6.1,,5.15,5.4,9.45,,,,,,,,,10.03,,14.8,14.8,13.03,,,,,,,,,,,,,,,,,,,,,,,,,,,,,,,,,,,,,,,,,,,,,,,,,,,,,,,,,,,,,,,,,,,,,,,,,,,4.5,9.44,,
200900076340001,Mehkar,20.15,76.56666667,,,,,,,,,11.45,12.4,10.5,9.9,10.7,12.2,11.18,8.73,7.1,12.6,9.7,8.35,9.5,10.85,9.23,8.05,9.75,10.95,9.15,9.9,10.6,12.1,8.8,8.6,9.6,11.32,9.2,9.4,10.23,11.75,9.45,10.1,10.73,11.64,,,15.48,12,9.85,9.7,10.8,11.7,8.15,8.24,9.5,14.46,8.95,8.95,9.85,11.15,9.45,9.15,10.25,11.15,13.25,9.5,10.7,14,7.55,8.2,9.76,12.4,9.05,9.6,10.15,12.75,,9.25,10.55,11.9,7.1,8,9.85,10.7,9.2,9.85,11.1,11.75,9.85,10.45,,13.25,8.6,10.8,14.2,12.4,9.85,9.95,10.85,15.6,9.6,,11.15,13.45,9.8,7.42,10,,,,10.4,,7.77,7.4,9.8,12.85,7.8,8.25,10.05,11.7,,
201500076160001,Mera Khurd,20.25,76.26666667,,,,,,,,,9.7,13.63,6.8,8.5,9.35,,,8.92,8.23,,6.1,7.8,9.1,,5.6,6.4,9.35,,6.4,9.45,11,,4.9,6.25,8.85,10,7.8,7.8,9.24,12.3,7.35,8.2,9.26,11.37,,,9.85,12.45,5.1,8.25,9.25,11.43,4.35,7.05,9.05,11.9,6.35,8.15,9.4,12.55,7.05,8.85,9.65,,,,9.3,,3.45,6.85,8.66,,8.1,8.4,9.15,,,,,,,,,,,,9.35,9.65,5.75,8.65,,11.15,4.2,8.2,9,7.3,7.75,8.3,9.42,12.1,6.8,,9.35,12.59,4.6,4.28,8.65,,,,9.05,,5.65,,,,,4.5,5.1,8.66,,
204100076120001,Motala,20.68333333,76.2,,,,,,,,,5.35,,0.05,2.4,3.35,,,,2.12,,2.8,0.4,1.9,4.1,3.35,1.7,2.85,,1.6,1.85,4.4,,4.9,3.18,4.3,,2.8,1.05,2.26,5.1,1.8,1.2,2.74,4.81,,,5.66,7.17,4.6,4.1,5.4,7.22,1,1.67,2.65,4.25,3.23,3.2,4.8,6.7,5.5,3.1,4.45,7.1,4.2,2.1,3,5.6,1,1.45,,4.4,2.6,2.2,3.6,5.4,,4.7,,,0.6,0.8,4.15,4.9,1.8,1.6,2.65,3.35,2.6,2.1,,5.4,3.21,1.5,2.4,8.4,,2,3,5.8,4.25,,3.8,5.8,1.5,,1.8,,,,4.5,,0.8,0.65,1.65,4.4,1.35,1.3,2.1,5.08,,
203100076030001,Padali,20.51666667,76.05,,,,,,,,,5.7,6.49,3.9,2.15,6.5,,5.29,3.09,2.9,,2.06,2,,,,,,,,,,,3.8,3.5,6.1,,2,4.66,7.67,,2.25,4.05,8.8,8.8,,,,8.8,2.1,5.8,9.62,8.85,2.4,4.47,6.15,,2.29,4.75,9.05,9.5,2.7,4.5,8.25,,2.75,2.05,5.7,9.5,2.15,4.8,7.16,,2,6.4,8.55,,,4.65,9.3,,1.6,2.1,4.9,6.25,1.9,4.05,6.4,7.1,2,4.95,,8.4,8.1,4.5,5.3,9.5,1.55,2.3,9.49,7.5,1.75,,7.45,9,1,4.25,5.4,,,,6.2,,2.06,2.05,2.68,7.8,1.55,2.55,3.1,3.74,,
204600076014001,Pimpalgaon Devi,20.76666667,76.02777778,,,,,,,,,6.9,,9.9,5.7,5.3,7.1,6.45,3.23,2.58,,3.9,4.9,4.1,4.5,3.5,5.1,6.3,,6.9,6.05,5.3,,5.75,3.2,4.41,7.47,3.2,2.85,4.45,,7.7,9.35,5.78,8.1,,,4.79,8.75,8.25,6.2,7.99,10.3,1.65,4.55,4.8,,5.1,3.5,5.9,9.73,9.4,6.4,7.1,9.9,8,6.7,6.5,9.6,3.5,3.15,7.42,6.6,5.6,6.9,7.2,7.5,,7.6,8.1,,1.2,1.5,5.8,9.5,3.7,4.05,5.35,6.3,4.25,4.3,,7.1,4.5,1.5,4,10.5,6.8,6.2,6.2,7,2.9,,6.8,10,2.3,2,3.65,,,,5.5,,3.7,3.89,6.59,4.4,2.3,4.13,6.6,6.8,,
204328076261501,Pimpalgaon Raja,20.72444444,76.4375,,,,,,,,,12.5,14.35,12.9,12.6,15.7,,14.12,12.64,12.43,15.2,13.2,12.8,11.5,12.85,12.23,13.1,12.9,13.8,13.05,14.9,14.1,16.55,13.1,13.25,15.92,16.6,13.9,12.67,12.6,12.33,11.6,12.8,12.63,13.9,,,14.75,16.2,15.15,9.9,15.63,17.35,11.8,12.57,12.5,14.85,13.58,13.45,14.15,13.85,14.4,15.75,14.95,16.2,12.7,13.45,13.8,15.6,13.05,12.65,13.6,13,13.25,15.1,14.5,15.85,,14.55,16.5,17.2,13,13.5,13.9,14.25,13.2,13.75,14.38,13.85,13.5,13.55,,16.7,13.15,12.9,13.5,13.9,13.65,13.15,13.85,16,15.7,,15.95,16.45,15,12.6,12.9,,,,13.2,,13.05,12.61,12.85,14.5,3,13.2,1.45,12.29,,
203745076074501,Rohinkhed,20.62916667,76.12916667,,,,,,,,,11.8,14.29,10.5,10.6,14.1,,12.68,9.32,7.36,,10.75,9.1,10.9,,10.82,10.05,11.9,,11.7,13.8,12.8,,10.7,10.7,11.23,13.09,10.2,10.65,10.9,13.12,10.8,10.85,11.9,14.7,,,13.17,14.7,11.15,13.1,12.75,13.32,9.85,9.55,11.15,12.25,10,10,11.1,13.35,10.2,10.3,11.5,15.3,10.3,11,9.5,15.5,9.7,10.45,11.46,13,10.9,11,11.5,13.6,,11,12.9,12.8,14.9,15,10.8,10.1,,10.3,11.2,11.7,6.4,5.3,,10.8,9.5,10.5,11,14.2,10.4,10.4,10.8,11.6,,,9.3,12.3,10.4,8.76,10.2,,,,10.9,,9.45,9.5,9.5,13.2,9.8,10.5,11.4,12.2,,
202300076050001,Sailani,20.38333333,76.08333333,,,,,,,,,9.8,,5.3,1.55,9.9,12.2,10.4,3.05,2.72,11.2,1.4,2.85,8,12.5,1.22,3,5.65,,5.7,5.7,1.3,,3.6,1.5,6.2,,1.35,2.8,10.37,,0.95,1.5,5.3,12.2,,,10.21,12.2,6.45,1.7,10.65,12.2,1.05,2.25,10.2,12.2,3.38,3.63,12.2,12.2,3.45,3.48,9.65,10.9,,,10.2,12.2,1.35,0.9,7.4,,1.65,3.9,12,,,,,,3,3.2,12.2,9.95,,5.05,7.4,10.15,5.6,3.4,,11.65,5.1,4.1,4.6,12.2,4.38,2.1,12.2,,1.8,,3.8,12,1.1,1.2,7.1,,,,8.5,,2.1,2.85,,,0.35,2.93,3.1,9.84,,
204800076420001,Shegaon,20.8,76.7,,,,,,,,,5.95,8.05,7.35,5.5,5.8,7.25,7.27,5.21,4.39,6.1,3.9,2.8,3.75,5.35,4.05,4.1,4.65,7.5,4.35,4.7,6,7.35,5.9,4.25,3.85,6.88,2.8,3.38,4.41,5.27,4.2,5.2,5.9,7.44,,,8.52,11.7,8.75,6.07,6.85,9.75,2,2.05,3.95,6.05,1.52,2.2,3.6,5.75,4.55,5.65,4.85,6.35,5,4.2,4.9,6.1,1.35,1.85,3.4,4.4,3.25,4.6,4.4,6,,3.45,,5.4,1.8,2,2.95,4.45,3.7,3.35,4.8,3.85,2.5,2.85,,5.55,2.2,4.4,5.2,6.8,4.2,4.22,6.25,7.4,4.45,,4.75,7,2.6,0.97,3.5,,,,4.2,,1.8,1.18,3.55,5.35,2,1.73,3.55,6.88,,
195700076030001,Sindkhed Raja,19.95,76.05,,,,,,,,,6.7,8.63,8.9,1.5,2.8,5.3,4.22,4.92,3.83,5.9,0.8,1,1.2,5.4,2.2,2.6,3.95,5.7,2.6,3.1,2.7,5.85,4.2,1,1.08,9.6,3.6,1,1.75,3.45,0.6,1.65,1.95,4.98,,,3.11,8,0.85,0.05,1.06,15.7,0.7,0.1,0.9,3.5,2.29,0.01,1.4,10.8,12.65,0.3,1.2,4.4,4,3.2,3.7,8.4,,0.6,0.55,3.25,0.9,0.55,2.7,5.5,,5.2,5.6,8.35,0.35,0.8,1.7,3.1,1.4,1.3,2.2,3.5,3.5,2.6,,15.3,3.4,0.8,1.5,3.6,3.4,4,1.8,3.7,2.45,,3.3,8.8,11,6.17,2.6,,,,3,,1.45,0.01,1.31,4.45,1.3,1,2,5.28,,
200515076320501,Sultanpur,20.0875,76.53472222,,,,,,,,,5.1,5.64,3.9,4.25,4.9,5.15,5.71,5.02,4.26,5.6,0.6,1.3,1.8,4.3,1,4.1,4.9,,3.2,1.8,4.35,,0.3,1,2.6,5.26,,1.8,3.98,8.37,3.75,4.9,8.57,9.9,,,6.89,12,3.65,7.65,6.65,8.33,0.55,2.12,4.55,4.65,1.34,1.69,4.6,5.65,3.55,2.75,5.05,9.6,4.2,3.4,5.5,9.9,0.65,1.55,3.5,4.6,1,2.8,4,5.8,,1.2,4.3,7.1,0.7,1,3.6,5.2,1.1,3.25,4.65,6.8,3,4.4,,9.6,1.55,3,4.1,7.3,1.7,4.9,6.45,9.89,1.85,,6.2,9,2.5,0.57,1.8,,,,2.1,,0.65,0.47,2.55,6.25,1.06,1.05,3.5,9.26,,
204400076210001,Tarvadi,20.73333333,76.35,,,,,,,,,11,11.15,6.5,2.9,7.35,11.4,9.81,8.96,5.08,,3,1.8,3.4,7.7,4.45,6.55,10.8,,3.3,4.85,10.7,,5.5,4.55,10.75,11.2,2.9,4,5.35,10.42,3,7.45,8.68,5.57,,,11.87,10.79,4.45,10.2,10.5,11.1,4.95,5.4,6.6,8.9,7.34,3.45,11,10.8,7.75,10.5,10,10.9,3.2,2.3,3,5,0.5,2.9,,5.2,5.5,9.6,8,10.4,,10.4,10.8,10.4,0.4,0.8,6,3.4,0.6,10.3,8.4,6.8,7.6,9.2,,10.5,8.6,8.5,8.5,2.3,5.9,6.6,6.6,9,9.65,,10.1,11,1.3,0.97,2.4,,,,10.2,,0.9,,4.16,10.75,1.83,2.36,3.1,8.72,,
202050076380001,Warwand,20.34722222,76.63333333,,,,,,,,,12.2,,11.2,1.6,11,11,,5.21,4.64,12.5,1.15,2.9,6.05,8.5,,3.85,7.1,11.25,4.7,4.9,,,4.45,1.35,6.85,,3.3,0.75,5.5,,3.5,3.9,10.59,11.78,,,,10.18,5.72,9.3,9.5,14.75,3,,5.5,,0.56,1.1,6.2,13.76,11.4,6.9,10.7,,,6.25,7.8,14,0.29,0.45,4.2,15.35,5.7,5.8,5.35,7.5,,0.65,8.1,11.9,0.4,2.9,4.2,3,1.5,5,6.85,7.7,2.6,7.2,,19,0.4,6,9.5,9.2,18.4,9.35,8.6,,4.67,,10.5,19.99,15.1,0.95,0.7,,,,5.4,,0.75,0.89,3.75,5.35,2.6,3.1,6.52,9.16,,
205145076201201,Dighi,20.8625,76.33666667,,,,,,,,,,,,,,,,,,,,,,,,,,,,,,,,,,,,,,,,,,,,,,20.64,18.01,14.96,,27.7,15.25,14.26,15.65,17.91,16.51,14.01,16.46,18.06,17.54,14.21,18.26,24.66,16.66,16,14.3,23.9,14.37,13.77,16.8,22.9,16.47,18,21,24.5,,24.42,24.8,24.8,15.05,15.6,18.7,24.67,16.4,16,17.68,18.67,17.4,17.67,,19.57,17,15.5,17.8,25,18.42,16.5,22.17,24.9,23,,20.17,23.4,16,14.2,15.1,,,,15.9,,17.01,1.54,15.24,18.35,14.55,1.53,15.6,,,
204948076350001,Jalamb,20.83,76.58333333,,,,,,,,,,,,,,,,,,,,,,,,,,,,,,,,,,,,,,,,,,,,,,9.25,7.65,8.45,9.57,,1.35,2.01,4.1,6.25,3.4,4.4,5.55,7.05,5.95,6.05,6.75,9.35,5.45,5.8,6.9,8.2,3.01,4.21,7.05,7,5.81,8.7,7.2,9.5,,7,8.1,,3.1,3.5,9,5.86,6.1,5.81,6.9,8.01,7.4,5.81,,7.81,3,9.5,5.6,7.4,7.01,7.6,8.7,9.99,9.45,,9.8,9.99,4.5,2.78,3.3,,,,3.45,,3.5,2.28,4.26,7.65,2.2,1.7,2.1,17.2,,
205218076160001,Waghul,20.87166667,76.26666667,,,,,,,,,,,,,,,,,,,,,,,,,,,,,,,,,,,,,,,,,,,,,,10.96,10.96,9.4,,,6.65,,4.37,10.35,7,7.6,10.95,10.96,10.65,7.7,11.2,,10.32,6.4,3.9,10.25,3.97,5.22,6.28,10.17,5.07,5.3,7.7,,,10.32,,,6.52,3.5,5.53,,,5.67,,10.97,9.4,9.77,,11.17,9,6.8,10.1,11.7,10.27,9.47,11.4,11.74,10.9,,16.5,17.69,6,2.71,3.9,,,,15.3,,6.97,3.95,5.24,8.65,3.55,7.4,8.7,11.3,,
203330076384402,Atali,20.55833333,76.64555556,,,,,,,,,,,,,,,,,,,,,,,,,,,,,,,,,,,,,,,,,,,,,,,,,,,,,,,3.75,4.08,6.68,9.09,4.98,2.73,3.93,4.18,1.98,2.6,,8.9,2.39,4.69,3.5,9,4.4,4.95,4.8,5.5,,3.15,4.6,,2.1,2.2,4.4,8,2.4,1.89,2.5,4.09,1.6,2.99,,2.79,1.2,4.4,6.4,9.08,3.44,6.2,5.99,6.6,2.9,,4.59,9,2,1.96,3.7,,,,4,,1.56,1.97,2.09,8.05,0.82,2.8,3.41,4.19,,
210300076320701,Jalgaonjamodnew,21.05,76.53527778,,,,,,,,,,,,,,,,,,,,,,,,,,,,,,,,,,,,,,,,,,,,,,,,,,,,,,,15.36,,15.36,15.36,15.36,,15.36,,,15.05,15,15.36,15.55,12.45,13.5,14.7,15.15,14.7,14.85,,,14.6,14.6,14.9,14.75,15.1,11.05,15.35,12.6,11.25,18,19.2,12.25,13.35,,13.15,11.9,12.3,13,20,14.45,14.45,19.99,13.4,13,,15.05,19.99,14.4,9.4,9.35,,,,9.6,,11.65,8.56,8.96,12.85,8.62,6.3,6.1,14.64,,
210730076443001,Sonalanew,21.125,76.74166667,,,,,,,,,,,,,,,,,,,,,,,,,,,,,,,,,,,,,,,,,,,,,,,,,,,,,,,25.2,,25.2,25.2,25.2,,25.2,,,,25.2,25.2,25.2,,,,,,25.2,,,24.1,,,,,18,,,25.1,25.19,25.02,25.1,12.28,,11.48,12,12,12,25.19,25,12,5.51,25.19,12.3,,13,13,,25.19,25.19,,,,25.19,,25.2,25.2,25.2,,10.6,12.5,13.1,21.16,,
204042076125001,Motala_Pz,20.67833333,76.21388889,,,,,,,,,,,,,,,,,,,,,,,,,,,,,,,,,,,,,,,,,,,,,,,,,,,,,,,,,,,,,,,,,,,,,3.55,,3.15,,4.05,4.7,,4.4,5,4.1,,,3.8,4.1,3.45,2.3,4.75,6.2,2.7,2.6,,4.3,2.31,2.4,3.1,6.5,3.4,2,4.4,5.4,3.2,,5.8,5.1,1.3,0.52,2.7,,,,2.6,,0.55,0.44,3.18,5.65,0.8,0.44,4.5,2.54,,
202108076152301,Chikhli_Pz,20.35222222,76.25638889,,,,,,,,,,,,,,,,,,,,,,,,,,,,,,,,,,,,,,,,,,,,,,,,,,,,,,,,,,,,,,,,,,,,,,6.15,,6,8,9.2,,7.4,9.1,10.95,3,3.8,6.9,8.4,4.4,5.4,7,8.6,6.6,6.8,,,,,,9.7,8,7.1,7.2,,7.5,,,11.5,4.8,2.57,5.5,,,,,,,4.58,40,,1.1,,,12.06,,
202802076185401,Dongaar Sheoli_Pz,20.46722222,76.315,,,,,,,,,,,,,,,,,,,,,,,,,,,,,,,,,,,,,,,,,,,,,,,,,,,,,,,,,,,,,,,,,,,,,,4.9,,4.55,7.5,8.6,,6.4,7.9,8.9,1.7,2.1,4.7,10,3.45,4.3,6.3,7.4,4.3,4.1,,7.7,3.7,4.4,4.1,12.01,,3.53,,,4,,,3.3,,,7,,,,3.9,,3.2,3.8,,4.1,,3.8,,,,
201102076431901,Dongaon_Pz,20.18388889,76.72194444,,,,,,,,,,,,,,,,,,,,,,,,,,,,,,,,,,,,,,,,,,,,,,,,,,,,,,,,,,,,,,,,,,,,,,,11.4,,19.6,21.8,,11.4,20.6,,1.2,1.3,20.68,10.1,3.2,4.4,11.1,30,13.5,15.7,,22.4,2.7,8.1,8.9,34,13.52,9.85,17.4,22.9,15.5,,18.4,22.7,7.6,6.72,4,,,,10.5,,1.22,1.13,,14.3,1.1,,5.2,12.64,,
200420076200201,Malkapur Pangra_Pz,20.07222222,76.33388889,,,,,,,,,,,,,,,,,,,,,,,,,,,,,,,,,,,,,,,,,,,,,,,,,,,,,,,,,,,,,,,,,,,,,,,4.8,4.95,6.6,,,3,5.85,7.8,1.6,1.8,8.2,7.1,,4.6,7.5,8.6,5.5,5.5,,7,3,4.3,5.4,9,4.35,4.9,5.9,8.5,3.85,,7.3,8.3,,1.66,4.3,,,,5.1,,2.13,2.41,6.1,8.1,2.2,1.48,5.64,8.26,,
205304076121101,Malkapur_Pz,20.88444444,76.20305556,,,,,,,,,,,,,,,,,,,,,,,,,,,,,,,,,,,,,,,,,,,,,,,,,,,,,,,,,,,,,,,,,,,,,,,12.3,12.5,13.4,15.7,,15.4,17.4,18.9,14.4,,15.3,15.2,16.15,15.6,17.4,30,14.8,14.5,,18.1,16.3,14.16,15.3,17.4,15.5,14.3,14.6,18.1,17.15,,17.7,18.6,15.3,13.62,14.8,,,,11.9,,14.5,11.24,13.05,7.35,12.7,12.2,15.95,15.34,,
201435076343001,Naygaon_Pz,20.24305556,76.575,,,,,,,,,,,,,,,,,,,,,,,,,,,,,,,,,,,,,,,,,,,,,,,,,,,,,,,,,,,,,,,,,,,,,,,3.9,4.7,5.7,4.7,,2.55,6,5.7,0.6,1.1,8,4.7,2.3,3.75,5.25,6.2,1.9,3.4,,6.4,1.4,3.2,4.7,5.1,,3.4,5.29,6.8,4.9,,5.3,7,3.6,0.67,5,,,,3.5,,0.32,0.5,3.32,5.65,1.35,1.4,2.1,5.12,,
195730076105601,Savkhed Tejan_Pz,19.95833333,76.18222222,,,,,,,,,,,,,,,,,,,,,,,,,,,,,,,,,,,,,,,,,,,,,,,,,,,,,,,,,,,,,,,,,,,,,,,3.8,,7.45,,,7.8,10.9,10.3,2.2,2.5,6,8.2,5,6.1,7.6,8.7,6.1,6.2,,9.8,3.7,4.4,5.2,,8.39,,,9.1,5.35,,,,,3.72,5.3,,,,,,,,40,,,40,,,,
200255076310401,Wadgaon Tejan_Pz,20.04861111,76.51777778,,,,,,,,,,,,,,,,,,,,,,,,,,,,,,,,,,,,,,,,,,,,,,,,,,,,,,,,,,,,,,,,,,,,,,,7.7,5.65,7.9,10.35,,6.55,8.7,7.5,1,1.2,7.55,7.5,1.85,5.2,8.5,10.1,5.1,6,,7.7,3.6,6.1,6.3,40,8,5.2,5.85,,7.2,,8.1,,,0.77,3,,,,2.9,,2.36,,40,4.01,4.5,,,,,
201329076161601,Mera Kh_Pz,20.22472222,76.27111111,,,,,,,,,,,,,,,,,,,,,,,,,,,,,,,,,,,,,,,,,,,,,,,,,,,,,,,,,,,,,,,,,,,,,,,,5.2,25.1,22.6,,14.1,,22.5,,,8.6,11.4,7.75,6.4,10.3,12.4,11.4,10.8,,21.9,14.1,8.1,9,12.1,9,8.1,17.1,22.8,8.12,,10.3,22.2,3.8,2.54,6.5,,,,9.7,,2.12,1.66,2.05,5.1,1.6,1.6,5.8,10.08,,
204859076121001,Datala-1,20.81638889,76.20277778,,,,,,,,,,,,,,,,,,,,,,,,,,,,,,,,,,,,,,,,,,,,,,,,,,,,,,,,,,,,,,,,,,,,,,,,,,,,12.7,15,14.2,11.9,11.6,11.9,13.55,12.6,10.5,12.5,11.1,11,9.1,12.6,12.1,11.1,11.2,11.6,11.2,11.8,9.8,10.96,13.2,13.07,,10.15,14.5,11.7,10.67,,,,,12.6,,10.31,10.35,9.45,11.95,10.8,11.2,10.3,11.73,,
205003076270501,Nandura-1,20.83416667,76.45138889,,,,,,,,,,,,,,,,,,,,,,,,,,,,,,,,,,,,,,,,,,,,,,,,,,,,,,,,,,,,,,,,,,,,,,,,,,,,16.4,18.6,19,,,13.45,,,15.45,23,16.35,,,18.1,19.95,13,12.2,14.2,14.2,15.25,5.85,10.42,16.6,17.63,,17.45,21.05,14.8,9.78,,,,,10.75,,12.9,,9.9,,,10.48,10.5,14.86,,
204033076312801,Godhnapur,20.67583333,76.52444444,,,,,,,,,,,,,,,,,,,,,,,,,,,,,,,,,,,,,,,,,,,,,,,,,,,,,,,,,,,,,,,,,,,,,,,,,,,,,8,,2.1,2.5,5.9,6.5,3.1,5.8,7.2,8.5,6.5,2.83,8.7,12.2,3.4,6.3,8.3,11,10.5,8,9.2,12.59,10.37,,12.65,12.7,5.8,1.72,2.8,,,,5.1,,2.35,1.77,3.18,8.5,1.1,1.1,4.1,7.15,,
210618076361501,Jamod,21.105,76.60416667,,,,,,,,,,,,,,,,,,,,,,,,,,,,,,,,,,,,,,,,,,,,,,,,,,,,,,,,,,,,,,,,,,,,,,,,,,,,,14.5,,13.7,8.7,12.2,15.3,10.7,10.6,11.55,13,11.6,12.5,13.7,15.7,14.6,14.5,15.2,15.7,15.7,15.5,15.69,15.69,15.7,,15,15,15.7,15.7,15.7,,,,14.3,,15.4,12.63,11.75,15.7,13.1,,,,,
205823076282901,Khandvi,20.97305556,76.47472222,,,,,,,,,,,,,,,,,,,,,,,,,,,,,,,,,,,,,,,,,,,,,,,,,,,,,,,,,,,,,,,,,,,,,,,,,,,,,17.1,17.7,13,8.8,12.55,14.3,14,12.95,13.6,14.5,15,14.4,16.6,17.8,13.1,12.1,13.4,19,15.75,14.7,16.2,18.99,16.15,,16.4,18.99,15,10.02,10.4,,,,10.3,,14.15,12.62,13.72,5.75,9.25,6.6,6.5,8.73,,
203706076254401,Nandri,20.61833333,76.42888889,,,,,,,,,,,,,,,,,,,,,,,,,,,,,,,,,,,,,,,,,,,,,,,,,,,,,,,,,,,,,,,,,,,,,,,,,,,,,13,13.4,8.3,8.5,10.7,8,8.1,10.1,7.95,8.4,13,8.7,14.3,15.2,9.1,13.8,11,13.7,13.6,15.4,10,11.2,16,,15,15.5,13,14,8.1,,,,4.2,,7.65,6.65,7.71,10.7,7.7,6.8,6.71,8.28,,
205655076435501,Paturda-1,20.94861111,76.73194444,,,,,,,,,,,,,,,,,,,,,,,,,,,,,,,,,,,,,,,,,,,,,,,,,,,,,,,,,,,,,,,,,,,,,,,,,,,,,6.5,9,,,,,5.4,5.9,,,10,8,10,8.2,5,5.7,6.2,10,7.5,7,9.99,9.99,6.1,,7,6,,,9.99,,,,10,,4.18,4.63,4.71,8.1,,,5.1,7.44,,
210526076332501,Sungaon-1,21.09055556,76.55694444,,,,,,,,,,,,,,,,,,,,,,,,,,,,,,,,,,,,,,,,,,,,,,,,,,,,,,,,,,,,,,,,,,,,,,,,,,,,,14.6,19.1,,8.15,9.8,4.9,10.5,6.9,9.75,11.8,9,13.9,14.2,12.8,14.4,16.2,17.1,19.2,17,6.3,17.6,21.4,18.87,,18.3,21.2,19,11.43,9.9,,,,19.05,,14.3,12.9,11.06,14.2,8.37,12.98,11.98,14.32,,
202725076275001,Undri,20.45694444,76.46388889,,,,,,,,,,,,,,,,,,,,,,,,,,,,,,,,,,,,,,,,,,,,,,,,,,,,,,,,,,,,,,,,,,,,,,,,,,,,,11.3,13.95,2.1,2.3,7.8,8.85,1.9,9.25,8.3,9.95,6,7.55,14.1,14.55,6.7,10.6,14,14.9,9.95,7.8,13.6,14.99,7.12,,12.95,14.99,2.1,1.59,5,,,,,,3.08,2.8,6.95,11.2,3.3,4.1,5.1,13.6,,
210125076424101,Warwat Bakhal-1,21.02361111,76.71138889,,,,,,,,,,,,,,,,,,,,,,,,,,,,,,,,,,,,,,,,,,,,,,,,,,,,,,,,,,,,,,,,,,,,,,,,,,,,,14.6,17.5,,,,,17,18,12.6,13.8,,14.1,14.9,16.2,16.6,15.2,15,18.4,17.5,16.3,17.6,17.6,15,,14.2,17.6,12,10.93,12,,,,11.9,,13.35,1.13,11.1,13.75,11.8,8.85,10.1,16.3,,
203558076054801,Ubalkhed,20.59944444,76.09666667,,,,,,,,,,,,,,,,,,,,,,,,,,,,,,,,,,,,,,,,,,,,,,,,,,,,,,,,,,,,,,,,,,,,,,,,,,,,,,13.3,4.5,4.7,11,14.3,7.4,6.1,,9.1,7.5,4.6,10.7,9.4,7.1,7.9,8.3,9.4,7.5,7.9,7.6,10.1,7.35,,9.3,15,10.5,3.23,6,,,,8.3,,8.3,8.5,9.8,,2.3,7.8,7.5,,,
203106076402101,Ambe Takli,20.51833333,76.6725,,,,,,,,,,,,,,,,,,,,,,,,,,,,,,,,,,,,,,,,,,,,,,,,,,,,,,,,,,,,,,,,,,,,,,,,,,,,,,,,,,,,,9.55,6.4,9,6.5,8.6,12.2,4.6,6.7,8,6.2,5.9,5.9,11,12.99,8.7,,10.7,8.8,4.1,2.63,3.7,,,,7.45,,4.92,5.15,4.85,5.55,3.77,3,5.2,5.66,,
205211076403501,Kalkheda,20.86972222,76.67638889,,,,,,,,,,,,,,,,,,,,,,,,,,,,,,,,,,,,,,,,,,,,,,,,,,,,,,,,,,,,,,,,,,,,,,,,,,,,,,,,,,,,,23.7,24,24,23.4,24,22.5,24,23,20,24,24,22,23.95,23.99,20,,23.2,23.2,24,24,24,,,,24,,24,,24,23.7,24,19.8,20.1,16.95,,
204026076385701,Pahurjira,20.67388889,76.64916667,,,,,,,,,,,,,,,,,,,,,,,,,,,,,,,,,,,,,,,,,,,,,,,,,,,,,,,,,,,,,,,,,,,,,,,,,,,,,,,,,,,,,4.25,,2.8,2.9,4.7,6.9,1.1,3.3,4.8,6.2,5.2,5.5,5.51,7.99,7.8,,5.7,7.99,1.9,1.98,3.1,,,,7.8,,2.7,1.75,2.91,5.35,1.6,2.35,3.1,6.19,,
203834076402101,Rohna,20.64277778,76.6725,,,,,,,,,,,,,,,,,,,,,,,,,,,,,,,,,,,,,,,,,,,,,,,,,,,,,,,,,,,,,,,,,,,,,,,,,,,,,,,,,,,,,6.15,3.65,13,4.35,10.8,18.35,2.1,10.9,15,20.1,18.45,17.1,17.15,8.5,3.7,,18.45,20,16.8,4.1,6.6,,,,9.1,,7.83,2.56,5.56,13.1,1.3,2.56,7.2,12.38,,
210624076412801,Tunki New,21.10666667,76.69111111,,,,,,,,,,,,,,,,,,,,,,,,,,,,,,,,,,,,,,,,,,,,,,,,,,,,,,,,,,,,,,,,,,,,,,,,,,,,,,,,,,,,,11.55,13.1,12.8,14.4,16.4,20.5,20.4,15.9,17.51,20.69,21.2,21,21.95,21.99,20,,21.5,21.5,22,22,12.5,,,,11.9,,16.27,12.11,11.21,16.35,13.1,12.12,13.1,18.72,,
204301076125601,Dindola Bk_Pz,20.71694444,76.21555556,,,,,,,,,,,,,,,,,,,,,,,,,,,,,,,,,,,,,,,,,,,,,,,,,,,,,,,,,,,,,,,,,,,,,,,,,,,,,,,,,,,,,,,10,,17.8,18.3,13.2,13.5,15.5,,35,14.8,17.59,,25,,18.1,,16.7,10.28,11.2,,,,13.3,,,,14.41,18.5,11.1,11.6,15.8,14.76,,
201748076343501,Janephal,20.29666667,76.57638889,,,,,,,,,,,,,,,,,,,,,,,,,,,,,,,,,,,,,,,,,,,,,,,,,,,,,,,,,,,,,,,,,,,,,,,,,,,,,,,,,,,,,,,,,,5.8,2.4,3.5,4,5.8,3.2,3.6,4.4,6.3,3.35,,5.25,6,5.4,2.32,3.4,,,,4,,2.34,2.32,3.45,6.05,2,2.7,3.9,5.88,,
201737076241901,Loni,20.29361111,76.40527778,,,,,,,,,,,,,,,,,,,,,,,,,,,,,,,,,,,,,,,,,,,,,,,,,,,,,,,,,,,,,,,,,,,,,,,,,,,,,,,,,,,,,,,,,,5.6,3.7,6.3,6.9,7.7,6.3,6.9,5.8,6.6,3.86,,7.9,10.49,4.3,3.12,4.6,,,,10.5,,3.25,3.65,5.65,7.55,2.7,3.75,4.1,5.7,,
200420076200202,Malkapur Pangra,20.07222222,76.33388889,,,,,,,,,,,,,,,,,,,,,,,,,,,,,,,,,,,,,,,,,,,,,,,,,,,,,,,,,,,,,,,,,,,,,,,,,,,,,,,,,,,,,,,,,,,5.1,5.7,10.6,16,4.2,10.8,,,5,,13.8,15.6,5,2.45,4.4,,,,9.1,,3.25,2.85,6,15,2.65,3.25,9.3,12.43,,
